% program   : RTKPOST ver.2.4.2
% inp file  : D:\WORK\6_GNSS\DAV1\dav10490.19o
% inp file  : D:\WORK\6_GNSS\NAV\brdc0*.19n
% inp file  : D:\WORK\6_GNSS\SP3\Sta20_*.sp3
% inp file  : D:\WORK\6_GNSS\CLK\Sta30s20_490.clk
% obs start : 2019/02/18 00:00:00.0 GPST (week2041  86400.0s)
% obs end   : 2019/02/18 23:59:30.0 GPST (week2041 172770.0s)
% pos mode  : ppp-kinematic
% solution  : combined
% elev mask : 15.0 deg
% dynamics  : off
% tidecorr  : off
% tropo opt : est ztd
% ephemeris : precise
% antenna1  : LEIAR25.R3      NONE  ( 0.0000  0.0000  0.0000)
%
% (lat/lon/height=WGS84/ellipsoidal,Q=1:fix,2:float,3:sbas,4:dgps,5:single,6:ppp,ns=# of satellites)
%  GPST                  latitude(deg) longitude(deg)  height(m)   Q  ns   sdn(m)   sde(m)   sdu(m)  sdne(m)  sdeu(m)  sdun(m) age(s)  ratio
2019/02/18 00:00:00.000  -68.577323689   77.972612439    44.2131   6   9   0.0344   0.0300   0.0771   0.0107  -0.0203  -0.0344   0.00    0.0
2019/02/18 00:00:30.000  -68.577323661   77.972612437    44.2035   6   8   0.0352   0.0302   0.0788   0.0112  -0.0209  -0.0357   0.00    0.0
2019/02/18 00:01:00.000  -68.577323720   77.972612476    44.2180   6   8   0.0366   0.0305   0.0820   0.0129  -0.0222  -0.0383   0.00    0.0
2019/02/18 00:01:30.000  -68.577323704   77.972612593    44.2081   6   8   0.0392   0.0304   0.0896   0.0158  -0.0269  -0.0449   0.00    0.0
2019/02/18 00:02:00.000  -68.577323734   77.972612443    44.2251   6   7   0.0393   0.0308   0.0898   0.0156  -0.0267  -0.0452   0.00    0.0
2019/02/18 00:02:30.000  -68.577323663   77.972612471    44.2075   6   7   0.0394   0.0307   0.0902   0.0149  -0.0264  -0.0453   0.00    0.0
2019/02/18 00:03:00.000  -68.577323630   77.972612430    44.2030   6   7   0.0393   0.0300   0.0902   0.0155  -0.0267  -0.0455   0.00    0.0
2019/02/18 00:03:30.000  -68.577323630   77.972612440    44.2068   6   7   0.0398   0.0303   0.0899   0.0149  -0.0265  -0.0457   0.00    0.0
2019/02/18 00:04:00.000  -68.577323670   77.972612450    44.2001   6   7   0.0398   0.0308   0.0902   0.0153  -0.0261  -0.0454   0.00    0.0
2019/02/18 00:04:30.000  -68.577323698   77.972612501    44.2099   6   7   0.0398   0.0302   0.0902   0.0149  -0.0258  -0.0454   0.00    0.0
2019/02/18 00:05:00.000  -68.577323694   77.972612480    44.2153   6   7   0.0397   0.0307   0.0901   0.0146  -0.0256  -0.0454   0.00    0.0
2019/02/18 00:05:30.000  -68.577323613   77.972612511    44.2012   6   7   0.0398   0.0306   0.0901   0.0143  -0.0252  -0.0453   0.00    0.0
2019/02/18 00:06:00.000  -68.577323661   77.972612429    44.2163   6   7   0.0399   0.0304   0.0902   0.0150  -0.0253  -0.0449   0.00    0.0
2019/02/18 00:06:30.000  -68.577323624   77.972612496    44.2077   6   6   0.0401   0.0301   0.0900   0.0144  -0.0249  -0.0446   0.00    0.0
2019/02/18 00:07:00.000  -68.577323686   77.972612471    44.2196   6   6   0.0399   0.0305   0.0898   0.0139  -0.0242  -0.0444   0.00    0.0
2019/02/18 00:07:30.000  -68.577323661   77.972612468    44.1989   6   6   0.0402   0.0304   0.0893   0.0137  -0.0237  -0.0442   0.00    0.0
2019/02/18 00:08:00.000  -68.577323736   77.972612395    44.2182   6   6   0.0396   0.0300   0.0891   0.0132  -0.0235  -0.0439   0.00    0.0
2019/02/18 00:08:30.000  -68.577323775   77.972612380    44.2313   6   6   0.0395   0.0300   0.0885   0.0129  -0.0228  -0.0435   0.00    0.0
2019/02/18 00:09:00.000  -68.577323791   77.972612380    44.2296   6   6   0.0392   0.0298   0.0881   0.0122  -0.0227  -0.0431   0.00    0.0
2019/02/18 00:09:30.000  -68.577323790   77.972612285    44.2265   6   6   0.0392   0.0302   0.0875   0.0115  -0.0220  -0.0428   0.00    0.0
2019/02/18 00:10:00.000  -68.577323888   77.972612279    44.2473   6   6   0.0389   0.0299   0.0872   0.0111  -0.0216  -0.0424   0.00    0.0
2019/02/18 00:10:30.000  -68.577323836   77.972612322    44.2382   6   6   0.0388   0.0299   0.0866   0.0110  -0.0213  -0.0420   0.00    0.0
2019/02/18 00:11:00.000  -68.577323830   77.972612306    44.2480   6   6   0.0384   0.0300   0.0861   0.0101  -0.0202  -0.0418   0.00    0.0
2019/02/18 00:11:30.000  -68.577323834   77.972612316    44.2474   6   6   0.0388   0.0302   0.0856   0.0099  -0.0196  -0.0412   0.00    0.0
2019/02/18 00:12:00.000  -68.577323791   77.972612282    44.2299   6   6   0.0390   0.0300   0.0850   0.0099  -0.0196  -0.0407   0.00    0.0
2019/02/18 00:12:30.000  -68.577323840   77.972612303    44.2468   6   6   0.0386   0.0296   0.0849   0.0088  -0.0187  -0.0401   0.00    0.0
2019/02/18 00:13:00.000  -68.577323830   77.972612368    44.2402   6   6   0.0382   0.0300   0.0844   0.0086  -0.0181  -0.0401   0.00    0.0
2019/02/18 00:13:30.000  -68.577323792   77.972612272    44.2466   6   6   0.0378   0.0294   0.0841   0.0074  -0.0175  -0.0397   0.00    0.0
2019/02/18 00:14:00.000  -68.577323809   77.972612298    44.2515   6   6   0.0377   0.0300   0.0836   0.0060  -0.0168  -0.0393   0.00    0.0
2019/02/18 00:14:30.000  -68.577323807   77.972612314    44.2468   6   6   0.0379   0.0303   0.0832   0.0054  -0.0162  -0.0388   0.00    0.0
2019/02/18 00:15:00.000  -68.577323788   77.972612252    44.2538   6   6   0.0375   0.0298   0.0827   0.0068  -0.0159  -0.0387   0.00    0.0
2019/02/18 00:15:30.000  -68.577323772   77.972612299    44.2445   6   6   0.0376   0.0299   0.0823   0.0041  -0.0151  -0.0382   0.00    0.0
2019/02/18 00:16:00.000  -68.577323845   77.972612358    44.2512   6   6   0.0373   0.0300   0.0820   0.0059  -0.0143  -0.0379   0.00    0.0
2019/02/18 00:16:30.000  -68.577323780   77.972612372    44.2445   6   6   0.0373   0.0298   0.0817   0.0028  -0.0142  -0.0374   0.00    0.0
2019/02/18 00:17:00.000  -68.577323749   77.972612407    44.2392   6   6   0.0369   0.0300   0.0815  -0.0049  -0.0133  -0.0373   0.00    0.0
2019/02/18 00:17:30.000  -68.577323748   77.972612494    44.2304   6   6   0.0372   0.0294   0.0810  -0.0014  -0.0125  -0.0366   0.00    0.0
2019/02/18 00:18:00.000  -68.577323720   77.972612493    44.2230   6   6   0.0369   0.0299   0.0806  -0.0033  -0.0115  -0.0366   0.00    0.0
2019/02/18 00:18:30.000  -68.577323740   77.972612432    44.2346   6   6   0.0365   0.0300   0.0804  -0.0035  -0.0104  -0.0363   0.00    0.0
2019/02/18 00:19:00.000  -68.577323749   77.972612435    44.2319   6   6   0.0366   0.0299   0.0801  -0.0056  -0.0095  -0.0359   0.00    0.0
2019/02/18 00:19:30.000  -68.577323749   77.972612496    44.2302   6   6   0.0366   0.0303   0.0797  -0.0069  -0.0094  -0.0354   0.00    0.0
2019/02/18 00:20:00.000  -68.577323763   77.972612565    44.2271   6   6   0.0365   0.0302   0.0795  -0.0074  -0.0086  -0.0351   0.00    0.0
2019/02/18 00:20:30.000  -68.577323818   77.972612543    44.2386   6   6   0.0363   0.0300   0.0791  -0.0077  -0.0073  -0.0348   0.00    0.0
2019/02/18 00:21:00.000  -68.577323790   77.972612547    44.2399   6   6   0.0361   0.0297   0.0788  -0.0077  -0.0069  -0.0345   0.00    0.0
2019/02/18 00:21:30.000  -68.577323767   77.972612507    44.2370   6   6   0.0356   0.0298   0.0785  -0.0078  -0.0057  -0.0342   0.00    0.0
2019/02/18 00:22:00.000  -68.577323817   77.972612530    44.2510   6   6   0.0355   0.0300   0.0782  -0.0085  -0.0056  -0.0339   0.00    0.0
2019/02/18 00:22:30.000  -68.577323819   77.972612622    44.2526   6   6   0.0354   0.0301   0.0780  -0.0086  -0.0026  -0.0334   0.00    0.0
2019/02/18 00:23:00.000  -68.577323838   77.972612578    44.2586   6   6   0.0353   0.0304   0.0777  -0.0091   0.0037  -0.0332   0.00    0.0
2019/02/18 00:23:30.000  -68.577323873   77.972612666    44.2621   6   6   0.0354   0.0300   0.0775  -0.0100   0.0046  -0.0325   0.00    0.0
2019/02/18 00:24:00.000  -68.577323861   77.972612558    44.2574   6   6   0.0353   0.0296   0.0770  -0.0102   0.0046  -0.0320   0.00    0.0
2019/02/18 00:24:30.000  -68.577323806   77.972612609    44.2425   6   6   0.0350   0.0308   0.0768  -0.0110   0.0059  -0.0317   0.00    0.0
2019/02/18 00:25:00.000  -68.577323822   77.972612646    44.2472   6   6   0.0349   0.0298   0.0766  -0.0105   0.0065  -0.0313   0.00    0.0
2019/02/18 00:25:30.000  -68.577323777   77.972612588    44.2430   6   6   0.0345   0.0300   0.0762  -0.0108   0.0068  -0.0309   0.00    0.0
2019/02/18 00:26:00.000  -68.577323784   77.972612644    44.2497   6   6   0.0344   0.0301   0.0759  -0.0105   0.0081  -0.0304   0.00    0.0
2019/02/18 00:26:30.000  -68.577323743   77.972612656    44.2489   6   6   0.0342   0.0303   0.0755  -0.0111   0.0084  -0.0302   0.00    0.0
2019/02/18 00:27:00.000  -68.577323771   77.972612644    44.2532   6   6   0.0336   0.0302   0.0750  -0.0109   0.0096  -0.0302   0.00    0.0
2019/02/18 00:27:30.000  -68.577323824   77.972612512    44.2702   6   6   0.0338   0.0300   0.0749  -0.0118   0.0088  -0.0291   0.00    0.0
2019/02/18 00:28:00.000  -68.577323752   77.972612512    44.2549   6   6   0.0338   0.0304   0.0746  -0.0119   0.0098  -0.0288   0.00    0.0
2019/02/18 00:28:30.000  -68.577323763   77.972612467    44.2588   6   6   0.0335   0.0305   0.0743  -0.0117   0.0104  -0.0285   0.00    0.0
2019/02/18 00:29:00.000  -68.577323757   77.972612512    44.2504   6   6   0.0333   0.0304   0.0742  -0.0122   0.0102  -0.0278   0.00    0.0
2019/02/18 00:29:30.000  -68.577323700   77.972612601    44.2384   6   6   0.0331   0.0304   0.0737  -0.0120   0.0108  -0.0275   0.00    0.0
2019/02/18 00:30:00.000  -68.577323723   77.972612597    44.2543   6   6   0.0330   0.0310   0.0735  -0.0125   0.0113  -0.0272   0.00    0.0
2019/02/18 00:30:30.000  -68.577323760   77.972612538    44.2553   6   6   0.0329   0.0310   0.0732  -0.0126   0.0119  -0.0267   0.00    0.0
2019/02/18 00:31:00.000  -68.577323782   77.972612576    44.2603   6   6   0.0329   0.0309   0.0730  -0.0132   0.0122  -0.0262   0.00    0.0
2019/02/18 00:31:30.000  -68.577323780   77.972612579    44.2565   6   6   0.0328   0.0315   0.0730  -0.0136   0.0132  -0.0260   0.00    0.0
2019/02/18 00:32:00.000  -68.577323733   77.972612621    44.2394   6   6   0.0329   0.0317   0.0730  -0.0146   0.0138  -0.0256   0.00    0.0
2019/02/18 00:32:30.000  -68.577323772   77.972612475    44.2408   6   6   0.0332   0.0329   0.0735  -0.0159   0.0165  -0.0259   0.00    0.0
2019/02/18 00:33:00.000  -68.577323824   77.972612426    44.2617   6   6   0.0338   0.0334   0.0734  -0.0169   0.0164  -0.0259   0.00    0.0
2019/02/18 00:33:30.000  -68.577323739   77.972612325    44.2655   6   6   0.0344   0.0332   0.0726  -0.0175   0.0129  -0.0237   0.00    0.0
2019/02/18 00:34:00.000  -68.577323881   77.972612341    44.2916   6   6   0.0361   0.0358   0.0729  -0.0215   0.0167  -0.0255   0.00    0.0
2019/02/18 00:34:30.000  -68.577323963   77.972612829    44.2978   6   6   0.0325   0.0296   0.0730  -0.0114   0.0139  -0.0260   0.00    0.0
2019/02/18 00:35:00.000  -68.577323904   77.972612658    44.2724   6   6   0.0315   0.0304   0.0723  -0.0117   0.0155  -0.0242   0.00    0.0
2019/02/18 00:35:30.000  -68.577323760   77.972612629    44.2493   6   6   0.0313   0.0303   0.0717  -0.0116   0.0152  -0.0233   0.00    0.0
2019/02/18 00:36:00.000  -68.577323762   77.972612748    44.2736   6   6   0.0308   0.0274   0.0696  -0.0095   0.0026  -0.0204   0.00    0.0
2019/02/18 00:36:30.000  -68.577323719   77.972612666    44.2686   6   8   0.0295   0.0274   0.0645  -0.0068  -0.0076  -0.0189   0.00    0.0
2019/02/18 00:37:00.000  -68.577323687   77.972612616    44.2530   6   8   0.0291   0.0271   0.0643  -0.0075  -0.0076  -0.0168   0.00    0.0
2019/02/18 00:37:30.000  -68.577323667   77.972612557    44.2505   6   8   0.0292   0.0276   0.0647  -0.0089  -0.0053  -0.0167   0.00    0.0
2019/02/18 00:38:00.000  -68.577323605   77.972612439    44.2366   6   8   0.0291   0.0279   0.0666  -0.0084   0.0074  -0.0168   0.00    0.0
2019/02/18 00:38:30.000  -68.577323644   77.972612655    44.2451   6   8   0.0297   0.0286   0.0676  -0.0072   0.0090  -0.0190   0.00    0.0
2019/02/18 00:39:00.000  -68.577323687   77.972612479    44.2567   6   8   0.0287   0.0282   0.0678  -0.0085   0.0086  -0.0200   0.00    0.0
2019/02/18 00:39:30.000  -68.577323797   77.972612455    44.2746   6   8   0.0284   0.0282   0.0647  -0.0085  -0.0003  -0.0167   0.00    0.0
2019/02/18 00:40:00.000  -68.577323819   77.972612455    44.2848   6   8   0.0282   0.0279   0.0650  -0.0088   0.0039  -0.0150   0.00    0.0
2019/02/18 00:40:30.000  -68.577323735   77.972612459    44.2542   6   8   0.0279   0.0274   0.0667  -0.0104   0.0081  -0.0150   0.00    0.0
2019/02/18 00:41:00.000  -68.577323817   77.972612531    44.2625   6   8   0.0283   0.0287   0.0680  -0.0091   0.0109  -0.0170   0.00    0.0
2019/02/18 00:41:30.000  -68.577323810   77.972612606    44.2817   6   8   0.0278   0.0286   0.0672  -0.0092   0.0108  -0.0175   0.00    0.0
2019/02/18 00:42:00.000  -68.577323814   77.972612568    44.2848   6   8   0.0282   0.0278   0.0645  -0.0082   0.0064  -0.0128   0.00    0.0
2019/02/18 00:42:30.000  -68.577323853   77.972612550    44.2855   6   8   0.0278   0.0278   0.0645  -0.0096   0.0062  -0.0112   0.00    0.0
2019/02/18 00:43:00.000  -68.577323851   77.972612497    44.3006   6   8   0.0278   0.0279   0.0651  -0.0107   0.0066  -0.0101   0.00    0.0
2019/02/18 00:43:30.000  -68.577323857   77.972612506    44.2998   6   8   0.0273   0.0282   0.0658  -0.0106   0.0099  -0.0139   0.00    0.0
2019/02/18 00:44:00.000  -68.577323897   77.972612507    44.3028   6   8   0.0274   0.0283   0.0636  -0.0094   0.0059  -0.0124   0.00    0.0
2019/02/18 00:44:30.000  -68.577323834   77.972612599    44.2965   6   8   0.0268   0.0285   0.0632  -0.0091   0.0073  -0.0114   0.00    0.0
2019/02/18 00:45:00.000  -68.577323792   77.972612518    44.2839   6   8   0.0270   0.0275   0.0634  -0.0110   0.0043  -0.0093   0.00    0.0
2019/02/18 00:45:30.000  -68.577323750   77.972612635    44.2811   6   8   0.0270   0.0281   0.0634  -0.0098   0.0068  -0.0081   0.00    0.0
2019/02/18 00:46:00.000  -68.577323767   77.972612663    44.2748   6   8   0.0266   0.0281   0.0637  -0.0097   0.0083  -0.0086   0.00    0.0
2019/02/18 00:46:30.000  -68.577323760   77.972612607    44.2895   6   8   0.0272   0.0283   0.0647  -0.0109   0.0086  -0.0060   0.00    0.0
2019/02/18 00:47:00.000  -68.577323766   77.972612610    44.2876   6   8   0.0272   0.0283   0.0660  -0.0109   0.0117  -0.0087   0.00    0.0
2019/02/18 00:47:30.000  -68.577323717   77.972612588    44.2714   6   8   0.0274   0.0287   0.0648  -0.0101   0.0094  -0.0085   0.00    0.0
2019/02/18 00:48:00.000  -68.577323710   77.972612659    44.2718   6   8   0.0269   0.0277   0.0647  -0.0109   0.0091  -0.0076   0.00    0.0
2019/02/18 00:48:30.000  -68.577323688   77.972612699    44.2729   6   8   0.0268   0.0288   0.0665  -0.0101   0.0124  -0.0085   0.00    0.0
2019/02/18 00:49:00.000  -68.577323796   77.972612786    44.2725   6   8   0.0268   0.0277   0.0634  -0.0102   0.0058  -0.0079   0.00    0.0
2019/02/18 00:49:30.000  -68.577323601   77.972612848    44.2855   6   8   0.0267   0.0283   0.0635  -0.0104   0.0054   0.0026   0.00    0.0
2019/02/18 00:50:00.000  -68.577323650   77.972612786    44.3028   6   8   0.0266   0.0279   0.0634  -0.0102   0.0072   0.0037   0.00    0.0
2019/02/18 00:50:30.000  -68.577323659   77.972612722    44.3041   6   8   0.0259   0.0282   0.0629  -0.0106   0.0043  -0.0040   0.00    0.0
2019/02/18 00:51:00.000  -68.577323703   77.972612692    44.3145   6   8   0.0260   0.0276   0.0630  -0.0113   0.0035  -0.0020   0.00    0.0
2019/02/18 00:51:30.000  -68.577323740   77.972612849    44.3183   6   8   0.0256   0.0284   0.0627  -0.0102   0.0055  -0.0039   0.00    0.0
2019/02/18 00:52:00.000  -68.577323695   77.972612845    44.3104   6   8   0.0255   0.0278   0.0627  -0.0106   0.0039   0.0029   0.00    0.0
2019/02/18 00:52:30.000  -68.577323649   77.972612878    44.3008   6   8   0.0252   0.0281   0.0625  -0.0105   0.0065  -0.0022   0.00    0.0
2019/02/18 00:53:00.000  -68.577323682   77.972612789    44.2966   6   8   0.0255   0.0280   0.0629  -0.0115   0.0053   0.0039   0.00    0.0
2019/02/18 00:53:30.000  -68.577323689   77.972612920    44.2948   6   8   0.0255   0.0283   0.0631  -0.0106   0.0071   0.0021   0.00    0.0
2019/02/18 00:54:00.000  -68.577323635   77.972613016    44.2960   6   8   0.0255   0.0284   0.0639  -0.0106   0.0095  -0.0020   0.00    0.0
2019/02/18 00:54:30.000  -68.577323633   77.972612952    44.2920   6   8   0.0256   0.0286   0.0647  -0.0113   0.0092  -0.0074   0.00    0.0
2019/02/18 00:55:00.000  -68.577323675   77.972612924    44.3248   6   8   0.0256   0.0281   0.0631  -0.0111   0.0038   0.0019   0.00    0.0
2019/02/18 00:55:30.000  -68.577323624   77.972612895    44.3166   6   8   0.0251   0.0281   0.0629  -0.0099   0.0058   0.0014   0.00    0.0
2019/02/18 00:56:00.000  -68.577323644   77.972612917    44.3311   6   8   0.0255   0.0286   0.0637  -0.0110   0.0077   0.0020   0.00    0.0
2019/02/18 00:56:30.000  -68.577323603   77.972613037    44.3083   6   8   0.0257   0.0280   0.0624  -0.0100  -0.0021   0.0059   0.00    0.0
2019/02/18 00:57:00.000  -68.577323676   77.972612869    44.3162   6   8   0.0256   0.0281   0.0621  -0.0108  -0.0049   0.0074   0.00    0.0
2019/02/18 00:57:30.000  -68.577323603   77.972612900    44.3249   6   8   0.0257   0.0278   0.0617  -0.0110  -0.0063   0.0093   0.00    0.0
2019/02/18 00:58:00.000  -68.577323551   77.972612912    44.3213   6   8   0.0253   0.0280   0.0616  -0.0099  -0.0053   0.0086   0.00    0.0
2019/02/18 00:58:30.000  -68.577323571   77.972612886    44.3133   6   8   0.0259   0.0281   0.0619  -0.0107  -0.0063   0.0094   0.00    0.0
2019/02/18 00:59:00.000  -68.577323477   77.972612860    44.3017   6   8   0.0268   0.0285   0.0619  -0.0106  -0.0043   0.0100   0.00    0.0
2019/02/18 00:59:30.000  -68.577323546   77.972612946    44.2918   6   8   0.0243   0.0279   0.0640  -0.0113   0.0035  -0.0082   0.00    0.0
2019/02/18 01:00:00.000  -68.577323557   77.972613047    44.2933   6   8   0.0244   0.0285   0.0647  -0.0117   0.0063  -0.0083   0.00    0.0
2019/02/18 01:00:30.000  -68.577323533   77.972613025    44.2979   6   8   0.0245   0.0287   0.0647  -0.0109   0.0069  -0.0055   0.00    0.0
2019/02/18 01:01:00.000  -68.577323511   77.972612971    44.3137   6   8   0.0242   0.0281   0.0640  -0.0113  -0.0019   0.0049   0.00    0.0
2019/02/18 01:01:30.000  -68.577323542   77.972613051    44.3168   6   8   0.0238   0.0281   0.0645  -0.0113   0.0045   0.0060   0.00    0.0
2019/02/18 01:02:00.000  -68.577323550   77.972613080    44.3114   6   8   0.0236   0.0279   0.0637  -0.0107  -0.0050   0.0080   0.00    0.0
2019/02/18 01:02:30.000  -68.577323479   77.972612974    44.2992   6   9   0.0235   0.0285   0.0628  -0.0112  -0.0044   0.0090   0.00    0.0
2019/02/18 01:03:00.000  -68.577323536   77.972612891    44.3198   6  10   0.0227   0.0278   0.0605  -0.0104   0.0054   0.0151   0.00    0.0
2019/02/18 01:03:30.000  -68.577323515   77.972612910    44.3216   6  10   0.0227   0.0277   0.0605  -0.0103   0.0060   0.0164   0.00    0.0
2019/02/18 01:04:00.000  -68.577323552   77.972612945    44.3218   6  10   0.0219   0.0280   0.0604  -0.0102   0.0073   0.0159   0.00    0.0
2019/02/18 01:04:30.000  -68.577323523   77.972612854    44.3047   6  10   0.0219   0.0280   0.0604  -0.0102   0.0066   0.0166   0.00    0.0
2019/02/18 01:05:00.000  -68.577323464   77.972612932    44.3093   6  10   0.0225   0.0283   0.0612  -0.0109   0.0068   0.0181   0.00    0.0
2019/02/18 01:05:30.000  -68.577323451   77.972612835    44.3070   6  10   0.0224   0.0278   0.0614  -0.0101   0.0064   0.0188   0.00    0.0
2019/02/18 01:06:00.000  -68.577323470   77.972612868    44.3044   6  10   0.0222   0.0285   0.0618  -0.0105   0.0058   0.0193   0.00    0.0
2019/02/18 01:06:30.000  -68.577323459   77.972613008    44.2940   6   9   0.0232   0.0279   0.0623  -0.0108   0.0035   0.0201   0.00    0.0
2019/02/18 01:07:00.000  -68.577323514   77.972613037    44.3038   6   9   0.0216   0.0285   0.0609  -0.0114  -0.0030   0.0171   0.00    0.0
2019/02/18 01:07:30.000  -68.577323492   77.972612924    44.2959   6   9   0.0209   0.0285   0.0612  -0.0110   0.0043   0.0167   0.00    0.0
2019/02/18 01:08:00.000  -68.577323572   77.972612926    44.3097   6   9   0.0210   0.0284   0.0615  -0.0109   0.0036   0.0170   0.00    0.0
2019/02/18 01:08:30.000  -68.577323508   77.972612894    44.3218   6   9   0.0214   0.0285   0.0621  -0.0112   0.0050   0.0175   0.00    0.0
2019/02/18 01:09:00.000  -68.577323437   77.972612906    44.3279   6   9   0.0213   0.0285   0.0627  -0.0110   0.0050   0.0176   0.00    0.0
2019/02/18 01:09:30.000  -68.577323460   77.972612890    44.2978   6  10   0.0210   0.0286   0.0627  -0.0113  -0.0051   0.0174   0.00    0.0
2019/02/18 01:10:00.000  -68.577323454   77.972612908    44.2864   6  10   0.0209   0.0267   0.0623  -0.0109   0.0018   0.0162   0.00    0.0
2019/02/18 01:10:30.000  -68.577323470   77.972613095    44.2868   6  10   0.0205   0.0274   0.0629  -0.0107   0.0053   0.0157   0.00    0.0
2019/02/18 01:11:00.000  -68.577323461   77.972613107    44.2865   6  10   0.0205   0.0263   0.0639  -0.0103   0.0006   0.0159   0.00    0.0
2019/02/18 01:11:30.000  -68.577323456   77.972612945    44.3016   6  10   0.0200   0.0269   0.0652  -0.0108  -0.0045   0.0156   0.00    0.0
2019/02/18 01:12:00.000  -68.577323408   77.972612869    44.2953   6  10   0.0201   0.0269   0.0675  -0.0101  -0.0040   0.0153   0.00    0.0
2019/02/18 01:12:30.000  -68.577323382   77.972612936    44.3042   6  10   0.0203   0.0273   0.0712  -0.0114  -0.0033   0.0147   0.00    0.0
2019/02/18 01:13:00.000  -68.577323450   77.972613157    44.2866   6  10   0.0206   0.0277   0.0739  -0.0113   0.0088   0.0132   0.00    0.0
2019/02/18 01:13:30.000  -68.577323442   77.972613084    44.2586   6   9   0.0204   0.0284   0.0794  -0.0114   0.0127   0.0110   0.00    0.0
2019/02/18 01:14:00.000  -68.577323526   77.972613356    44.3207   6   9   0.0216   0.0263   0.0596  -0.0113   0.0070   0.0118   0.00    0.0
2019/02/18 01:14:30.000  -68.577323435   77.972612855    44.2834   6   9   0.0212   0.0259   0.0588  -0.0117   0.0051   0.0136   0.00    0.0
2019/02/18 01:15:00.000  -68.577323412   77.972612945    44.2834   6   9   0.0211   0.0263   0.0582  -0.0103   0.0059   0.0140   0.00    0.0
2019/02/18 01:15:30.000  -68.577323408   77.972612956    44.2858   6   9   0.0208   0.0262   0.0581  -0.0106   0.0068   0.0155   0.00    0.0
2019/02/18 01:16:00.000  -68.577323419   77.972612879    44.2670   6   9   0.0207   0.0262   0.0579  -0.0106   0.0065   0.0154   0.00    0.0
2019/02/18 01:16:30.000  -68.577323416   77.972612932    44.2922   6   9   0.0206   0.0268   0.0579  -0.0100   0.0064   0.0155   0.00    0.0
2019/02/18 01:17:00.000  -68.577323451   77.972613020    44.2857   6   9   0.0203   0.0264   0.0577  -0.0108   0.0079   0.0154   0.00    0.0
2019/02/18 01:17:30.000  -68.577323444   77.972612915    44.2848   6   9   0.0200   0.0267   0.0578  -0.0099   0.0093   0.0157   0.00    0.0
2019/02/18 01:18:00.000  -68.577323417   77.972612973    44.2816   6   9   0.0202   0.0272   0.0581  -0.0097   0.0100   0.0160   0.00    0.0
2019/02/18 01:18:30.000  -68.577323439   77.972612977    44.2971   6   9   0.0204   0.0278   0.0583  -0.0102   0.0114   0.0163   0.00    0.0
2019/02/18 01:19:00.000  -68.577323426   77.972613080    44.2911   6   9   0.0201   0.0269   0.0578  -0.0092   0.0101   0.0159   0.00    0.0
2019/02/18 01:19:30.000  -68.577323436   77.972612943    44.2869   6   9   0.0201   0.0269   0.0575  -0.0094   0.0097   0.0158   0.00    0.0
2019/02/18 01:20:00.000  -68.577323442   77.972612881    44.2875   6   9   0.0207   0.0273   0.0579  -0.0107   0.0093   0.0167   0.00    0.0
2019/02/18 01:20:30.000  -68.577323437   77.972612894    44.2916   6   9   0.0198   0.0280   0.0581  -0.0097   0.0117   0.0164   0.00    0.0
2019/02/18 01:21:00.000  -68.577323423   77.972612846    44.2791   6   9   0.0202   0.0270   0.0572  -0.0099   0.0094   0.0158   0.00    0.0
2019/02/18 01:21:30.000  -68.577323464   77.972612884    44.2826   6   9   0.0202   0.0269   0.0574  -0.0100   0.0086   0.0166   0.00    0.0
2019/02/18 01:22:00.000  -68.577323387   77.972612885    44.2693   6   9   0.0201   0.0271   0.0574  -0.0096   0.0082   0.0163   0.00    0.0
2019/02/18 01:22:30.000  -68.577323409   77.972612836    44.2839   6   9   0.0207   0.0270   0.0577  -0.0109   0.0074   0.0173   0.00    0.0
2019/02/18 01:23:00.000  -68.577323396   77.972613018    44.2850   6   9   0.0202   0.0273   0.0581  -0.0111   0.0051   0.0173   0.00    0.0
2019/02/18 01:23:30.000  -68.577323366   77.972613035    44.2898   6   9   0.0203   0.0270   0.0561  -0.0097   0.0118   0.0152   0.00    0.0
2019/02/18 01:24:00.000  -68.577323350   77.972612844    44.2755   6   9   0.0196   0.0260   0.0564  -0.0089   0.0118   0.0160   0.00    0.0
2019/02/18 01:24:30.000  -68.577323383   77.972612786    44.2690   6   9   0.0196   0.0257   0.0556  -0.0089   0.0108   0.0150   0.00    0.0
2019/02/18 01:25:00.000  -68.577323367   77.972612774    44.2681   6   9   0.0193   0.0261   0.0556  -0.0086   0.0106   0.0149   0.00    0.0
2019/02/18 01:25:30.000  -68.577323393   77.972612860    44.2668   6   9   0.0195   0.0258   0.0556  -0.0091   0.0106   0.0152   0.00    0.0
2019/02/18 01:26:00.000  -68.577323381   77.972612741    44.2739   6   9   0.0198   0.0257   0.0554  -0.0085   0.0116   0.0150   0.00    0.0
2019/02/18 01:26:30.000  -68.577323401   77.972612755    44.2650   6   9   0.0194   0.0265   0.0553  -0.0091   0.0114   0.0147   0.00    0.0
2019/02/18 01:27:00.000  -68.577323400   77.972612807    44.2710   6   9   0.0196   0.0262   0.0555  -0.0095   0.0112   0.0155   0.00    0.0
2019/02/18 01:27:30.000  -68.577323409   77.972612865    44.2766   6   9   0.0197   0.0266   0.0552  -0.0095   0.0120   0.0153   0.00    0.0
2019/02/18 01:28:00.000  -68.577323410   77.972612760    44.2664   6   9   0.0192   0.0266   0.0554  -0.0093   0.0127   0.0148   0.00    0.0
2019/02/18 01:28:30.000  -68.577323401   77.972612645    44.2690   6   9   0.0197   0.0261   0.0554  -0.0081   0.0136   0.0147   0.00    0.0
2019/02/18 01:29:00.000  -68.577323401   77.972612745    44.2762   6   9   0.0196   0.0263   0.0544  -0.0084   0.0123   0.0142   0.00    0.0
2019/02/18 01:29:30.000  -68.577323382   77.972612703    44.2635   6   9   0.0196   0.0264   0.0544  -0.0096   0.0114   0.0147   0.00    0.0
2019/02/18 01:30:00.000  -68.577323386   77.972612684    44.2662   6   9   0.0194   0.0270   0.0544  -0.0096   0.0109   0.0146   0.00    0.0
2019/02/18 01:30:30.000  -68.577323396   77.972612646    44.2689   6   9   0.0198   0.0266   0.0541  -0.0097   0.0113   0.0147   0.00    0.0
2019/02/18 01:31:00.000  -68.577323395   77.972612631    44.2698   6   9   0.0195   0.0261   0.0538  -0.0088   0.0123   0.0142   0.00    0.0
2019/02/18 01:31:30.000  -68.577323383   77.972612672    44.2659   6   9   0.0204   0.0266   0.0538  -0.0088   0.0119   0.0146   0.00    0.0
2019/02/18 01:32:00.000  -68.577323378   77.972612722    44.2731   6   9   0.0194   0.0268   0.0537  -0.0087   0.0119   0.0141   0.00    0.0
2019/02/18 01:32:30.000  -68.577323368   77.972612792    44.2812   6   9   0.0197   0.0271   0.0535  -0.0094   0.0112   0.0142   0.00    0.0
2019/02/18 01:33:00.000  -68.577323376   77.972612759    44.2863   6   9   0.0197   0.0266   0.0534  -0.0100   0.0117   0.0146   0.00    0.0
2019/02/18 01:33:30.000  -68.577323378   77.972612834    44.2852   6   9   0.0194   0.0268   0.0532  -0.0091   0.0117   0.0145   0.00    0.0
2019/02/18 01:34:00.000  -68.577323337   77.972612781    44.2858   6   9   0.0195   0.0268   0.0531  -0.0081   0.0124   0.0141   0.00    0.0
2019/02/18 01:34:30.000  -68.577323328   77.972612692    44.2880   6   9   0.0197   0.0269   0.0533  -0.0093   0.0121   0.0143   0.00    0.0
2019/02/18 01:35:00.000  -68.577323318   77.972612743    44.2878   6   9   0.0197   0.0273   0.0536  -0.0095   0.0126   0.0143   0.00    0.0
2019/02/18 01:35:30.000  -68.577323304   77.972612779    44.2928   6   9   0.0198   0.0272   0.0536  -0.0095   0.0135   0.0141   0.00    0.0
2019/02/18 01:36:00.000  -68.577323310   77.972612744    44.2949   6   9   0.0199   0.0273   0.0535  -0.0092   0.0137   0.0144   0.00    0.0
2019/02/18 01:36:30.000  -68.577323321   77.972612619    44.2936   6   9   0.0198   0.0272   0.0529  -0.0100   0.0128   0.0138   0.00    0.0
2019/02/18 01:37:00.000  -68.577323329   77.972612682    44.2968   6   9   0.0201   0.0273   0.0528  -0.0093   0.0123   0.0138   0.00    0.0
2019/02/18 01:37:30.000  -68.577323359   77.972612625    44.2826   6   9   0.0196   0.0269   0.0527  -0.0097   0.0126   0.0135   0.00    0.0
2019/02/18 01:38:00.000  -68.577323376   77.972612620    44.2811   6   9   0.0198   0.0271   0.0530  -0.0091   0.0130   0.0137   0.00    0.0
2019/02/18 01:38:30.000  -68.577323393   77.972612762    44.2814   6   9   0.0196   0.0273   0.0526  -0.0087   0.0127   0.0135   0.00    0.0
2019/02/18 01:39:00.000  -68.577323418   77.972612585    44.2822   6   9   0.0202   0.0267   0.0525  -0.0097   0.0121   0.0142   0.00    0.0
2019/02/18 01:39:30.000  -68.577323384   77.972612643    44.2799   6   9   0.0199   0.0273   0.0524  -0.0091   0.0118   0.0137   0.00    0.0
2019/02/18 01:40:00.000  -68.577323406   77.972612680    44.2842   6   9   0.0198   0.0271   0.0523  -0.0095   0.0115   0.0142   0.00    0.0
2019/02/18 01:40:30.000  -68.577323411   77.972612752    44.2792   6   9   0.0198   0.0272   0.0523  -0.0091   0.0119   0.0138   0.00    0.0
2019/02/18 01:41:00.000  -68.577323456   77.972612722    44.2926   6   9   0.0199   0.0273   0.0523  -0.0095   0.0115   0.0137   0.00    0.0
2019/02/18 01:41:30.000  -68.577323384   77.972612714    44.2825   6   9   0.0198   0.0273   0.0524  -0.0095   0.0112   0.0138   0.00    0.0
2019/02/18 01:42:00.000  -68.577323389   77.972612732    44.2808   6   9   0.0193   0.0271   0.0523  -0.0087   0.0118   0.0132   0.00    0.0
2019/02/18 01:42:30.000  -68.577323402   77.972612764    44.2874   6   9   0.0199   0.0274   0.0522  -0.0088   0.0115   0.0139   0.00    0.0
2019/02/18 01:43:00.000  -68.577323406   77.972612739    44.2849   6   9   0.0193   0.0271   0.0523  -0.0084   0.0119   0.0130   0.00    0.0
2019/02/18 01:43:30.000  -68.577323408   77.972612758    44.2947   6   9   0.0197   0.0271   0.0524  -0.0086   0.0119   0.0135   0.00    0.0
2019/02/18 01:44:00.000  -68.577323354   77.972612758    44.2861   6   9   0.0199   0.0272   0.0523  -0.0098   0.0122   0.0138   0.00    0.0
2019/02/18 01:44:30.000  -68.577323365   77.972612735    44.2807   6   9   0.0202   0.0274   0.0524  -0.0086   0.0117   0.0131   0.00    0.0
2019/02/18 01:45:00.000  -68.577323341   77.972612737    44.2875   6   9   0.0201   0.0269   0.0524  -0.0092   0.0119   0.0134   0.00    0.0
2019/02/18 01:45:30.000  -68.577323359   77.972612732    44.2914   6   9   0.0199   0.0268   0.0525  -0.0087   0.0120   0.0128   0.00    0.0
2019/02/18 01:46:00.000  -68.577323331   77.972612725    44.2875   6   9   0.0201   0.0270   0.0526  -0.0091   0.0120   0.0131   0.00    0.0
2019/02/18 01:46:30.000  -68.577323332   77.972612730    44.2907   6   9   0.0199   0.0269   0.0526  -0.0096   0.0121   0.0128   0.00    0.0
2019/02/18 01:47:00.000  -68.577323317   77.972612697    44.2893   6   9   0.0199   0.0270   0.0528  -0.0092   0.0114   0.0125   0.00    0.0
2019/02/18 01:47:30.000  -68.577323321   77.972612652    44.2960   6   9   0.0205   0.0267   0.0531  -0.0092   0.0119   0.0120   0.00    0.0
2019/02/18 01:48:00.000  -68.577323319   77.972612646    44.2927   6   9   0.0204   0.0271   0.0536  -0.0079   0.0114   0.0106   0.00    0.0
2019/02/18 01:48:30.000  -68.577323326   77.972612698    44.2889   6   9   0.0214   0.0269   0.0546  -0.0086   0.0111   0.0082   0.00    0.0
2019/02/18 01:49:00.000  -68.577323298   77.972612757    44.2831   6   9   0.0208   0.0271   0.0552  -0.0095   0.0124   0.0097   0.00    0.0
2019/02/18 01:49:30.000  -68.577323282   77.972612712    44.2929   6   9   0.0203   0.0269   0.0546  -0.0088   0.0124   0.0101   0.00    0.0
2019/02/18 01:50:00.000  -68.577323303   77.972612734    44.3005   6   9   0.0201   0.0268   0.0547  -0.0085   0.0114   0.0106   0.00    0.0
2019/02/18 01:50:30.000  -68.577323294   77.972612704    44.2949   6   9   0.0201   0.0267   0.0546  -0.0083   0.0117   0.0108   0.00    0.0
2019/02/18 01:51:00.000  -68.577323308   77.972612733    44.3014   6   9   0.0197   0.0267   0.0548  -0.0088   0.0121   0.0112   0.00    0.0
2019/02/18 01:51:30.000  -68.577323292   77.972612684    44.3063   6   9   0.0202   0.0267   0.0548  -0.0090   0.0114   0.0106   0.00    0.0
2019/02/18 01:52:00.000  -68.577323280   77.972612677    44.3065   6   9   0.0197   0.0266   0.0550  -0.0093   0.0109   0.0104   0.00    0.0
2019/02/18 01:52:30.000  -68.577323298   77.972612713    44.3038   6   9   0.0200   0.0267   0.0552  -0.0087   0.0110   0.0103   0.00    0.0
2019/02/18 01:53:00.000  -68.577323291   77.972612725    44.3157   6   9   0.0203   0.0268   0.0555  -0.0074   0.0100   0.0091   0.00    0.0
2019/02/18 01:53:30.000  -68.577323334   77.972612820    44.3195   6   9   0.0204   0.0265   0.0559  -0.0093   0.0105   0.0093   0.00    0.0
2019/02/18 01:54:00.000  -68.577323306   77.972612866    44.3012   6   9   0.0206   0.0266   0.0563  -0.0086   0.0102   0.0079   0.00    0.0
2019/02/18 01:54:30.000  -68.577323280   77.972612734    44.2992   6   9   0.0211   0.0263   0.0570  -0.0081   0.0099   0.0061   0.00    0.0
2019/02/18 01:55:00.000  -68.577323292   77.972612754    44.3149   6   9   0.0221   0.0263   0.0582  -0.0093   0.0106  -0.0062   0.00    0.0
2019/02/18 01:55:30.000  -68.577323312   77.972612844    44.3199   6   9   0.0230   0.0264   0.0613  -0.0088   0.0114  -0.0131   0.00    0.0
2019/02/18 01:56:00.000  -68.577323304   77.972612784    44.3174   6   9   0.0203   0.0265   0.0580  -0.0086   0.0110   0.0069   0.00    0.0
2019/02/18 01:56:30.000  -68.577323277   77.972612746    44.3108   6   9   0.0206   0.0262   0.0582  -0.0093   0.0101   0.0084   0.00    0.0
2019/02/18 01:57:00.000  -68.577323240   77.972612724    44.3013   6   9   0.0201   0.0261   0.0602  -0.0078   0.0083   0.0084   0.00    0.0
2019/02/18 01:57:30.000  -68.577323243   77.972612784    44.3085   6   9   0.0200   0.0261   0.0635  -0.0086   0.0093   0.0089   0.00    0.0
2019/02/18 01:58:00.000  -68.577323262   77.972612870    44.3165   6   9   0.0202   0.0262   0.0641  -0.0082   0.0097   0.0082   0.00    0.0
2019/02/18 01:58:30.000  -68.577323248   77.972612878    44.3027   6   9   0.0204   0.0262   0.0565  -0.0089   0.0118   0.0095   0.00    0.0
2019/02/18 01:59:00.000  -68.577323315   77.972612946    44.3114   6   9   0.0202   0.0258   0.0554  -0.0082   0.0113   0.0096   0.00    0.0
2019/02/18 01:59:30.000  -68.577323317   77.972612880    44.3075   6   9   0.0206   0.0257   0.0557  -0.0093   0.0115   0.0092   0.00    0.0
2019/02/18 02:00:00.000  -68.577323332   77.972612824    44.3098   6   9   0.0203   0.0254   0.0547  -0.0094   0.0109   0.0092   0.00    0.0
2019/02/18 02:00:30.000  -68.577323303   77.972612953    44.3021   6   9   0.0207   0.0255   0.0547  -0.0072   0.0092   0.0084   0.00    0.0
2019/02/18 02:01:00.000  -68.577323359   77.972613006    44.3038   6   9   0.0208   0.0256   0.0547  -0.0078   0.0088   0.0078   0.00    0.0
2019/02/18 02:01:30.000  -68.577323321   77.972613004    44.3077   6   9   0.0210   0.0256   0.0550  -0.0075   0.0084   0.0078   0.00    0.0
2019/02/18 02:02:00.000  -68.577323320   77.972612980    44.3065   6   9   0.0208   0.0253   0.0550  -0.0087   0.0086   0.0073   0.00    0.0
2019/02/18 02:02:30.000  -68.577323277   77.972612987    44.3006   6   9   0.0209   0.0253   0.0555  -0.0080   0.0077   0.0058   0.00    0.0
2019/02/18 02:03:00.000  -68.577323308   77.972613000    44.3213   6   9   0.0211   0.0253   0.0560  -0.0077   0.0072  -0.0020   0.00    0.0
2019/02/18 02:03:30.000  -68.577323266   77.972613018    44.3186   6   9   0.0218   0.0255   0.0573  -0.0080   0.0053  -0.0069   0.00    0.0
2019/02/18 02:04:00.000  -68.577323284   77.972612994    44.3202   6   9   0.0227   0.0251   0.0590  -0.0083   0.0074  -0.0121   0.00    0.0
2019/02/18 02:04:30.000  -68.577323357   77.972613033    44.3349   6   9   0.0227   0.0252   0.0596  -0.0094   0.0099  -0.0124   0.00    0.0
2019/02/18 02:05:00.000  -68.577323326   77.972613080    44.3328   6  10   0.0232   0.0252   0.0600  -0.0086   0.0095  -0.0135   0.00    0.0
2019/02/18 02:05:30.000  -68.577323359   77.972613063    44.3325   6  10   0.0240   0.0249   0.0619  -0.0088   0.0101  -0.0169   0.00    0.0
2019/02/18 02:06:00.000  -68.577323319   77.972612976    44.3400   6  10   0.0217   0.0252   0.0601  -0.0087   0.0101  -0.0118   0.00    0.0
2019/02/18 02:06:30.000  -68.577323272   77.972613000    44.3165   6   9   0.0208   0.0250   0.0587  -0.0073   0.0081  -0.0052   0.00    0.0
2019/02/18 02:07:00.000  -68.577323312   77.972612993    44.3225   6   9   0.0206   0.0246   0.0581  -0.0080   0.0073  -0.0038   0.00    0.0
2019/02/18 02:07:30.000  -68.577323293   77.972613084    44.3172   6   9   0.0210   0.0247   0.0586  -0.0070   0.0043  -0.0062   0.00    0.0
2019/02/18 02:08:00.000  -68.577323320   77.972612956    44.3270   6   9   0.0215   0.0245   0.0596  -0.0070   0.0038  -0.0094   0.00    0.0
2019/02/18 02:08:30.000  -68.577323293   77.972612943    44.3192   6   8   0.0222   0.0243   0.0603  -0.0082   0.0052  -0.0112   0.00    0.0
2019/02/18 02:09:00.000  -68.577323261   77.972613001    44.3148   6   8   0.0224   0.0244   0.0602  -0.0081   0.0044  -0.0114   0.00    0.0
2019/02/18 02:09:30.000  -68.577323290   77.972613138    44.3289   6   8   0.0224   0.0242   0.0606  -0.0072   0.0021  -0.0122   0.00    0.0
2019/02/18 02:10:00.000  -68.577323250   77.972613014    44.3176   6   8   0.0222   0.0242   0.0607  -0.0065  -0.0026  -0.0125   0.00    0.0
2019/02/18 02:10:30.000  -68.577323305   77.972613085    44.3268   6   8   0.0224   0.0241   0.0610  -0.0079  -0.0029  -0.0128   0.00    0.0
2019/02/18 02:11:00.000  -68.577323266   77.972612941    44.3185   6   8   0.0226   0.0244   0.0617  -0.0066  -0.0061  -0.0136   0.00    0.0
2019/02/18 02:11:30.000  -68.577323302   77.972613068    44.3337   6   8   0.0231   0.0245   0.0628  -0.0059  -0.0086  -0.0149   0.00    0.0
2019/02/18 02:12:00.000  -68.577323314   77.972613112    44.3371   6   8   0.0231   0.0244   0.0630  -0.0066  -0.0084  -0.0151   0.00    0.0
2019/02/18 02:12:30.000  -68.577323304   77.972613119    44.3319   6   8   0.0236   0.0245   0.0633  -0.0068  -0.0088  -0.0155   0.00    0.0
2019/02/18 02:13:00.000  -68.577323277   77.972612939    44.3289   6   8   0.0244   0.0246   0.0637  -0.0082  -0.0082  -0.0166   0.00    0.0
2019/02/18 02:13:30.000  -68.577323289   77.972613112    44.3367   6   8   0.0224   0.0238   0.0633  -0.0075  -0.0050  -0.0162   0.00    0.0
2019/02/18 02:14:00.000  -68.577323205   77.972613017    44.3239   6   8   0.0225   0.0234   0.0633  -0.0069  -0.0035  -0.0164   0.00    0.0
2019/02/18 02:14:30.000  -68.577323220   77.972613048    44.3225   6   8   0.0228   0.0235   0.0636  -0.0070  -0.0031  -0.0167   0.00    0.0
2019/02/18 02:15:00.000  -68.577323275   77.972613181    44.3337   6   8   0.0228   0.0234   0.0640  -0.0066  -0.0034  -0.0172   0.00    0.0
2019/02/18 02:15:30.000  -68.577323245   77.972613078    44.3329   6   8   0.0233   0.0232   0.0645  -0.0075  -0.0028  -0.0178   0.00    0.0
2019/02/18 02:16:00.000  -68.577323183   77.972613023    44.3082   6   8   0.0238   0.0234   0.0650  -0.0067  -0.0037  -0.0188   0.00    0.0
2019/02/18 02:16:30.000  -68.577323229   77.972613060    44.3149   6   8   0.0239   0.0234   0.0656  -0.0074  -0.0023  -0.0194   0.00    0.0
2019/02/18 02:17:00.000  -68.577323289   77.972613033    44.3434   6   8   0.0248   0.0234   0.0665  -0.0080   0.0027  -0.0207   0.00    0.0
2019/02/18 02:17:30.000  -68.577323215   77.972612978    44.3461   6   8   0.0254   0.0235   0.0675  -0.0090   0.0063  -0.0227   0.00    0.0
2019/02/18 02:18:00.000  -68.577323321   77.972613204    44.3629   6   8   0.0276   0.0235   0.0697  -0.0105   0.0090  -0.0260   0.00    0.0
2019/02/18 02:18:30.000  -68.577323227   77.972613094    44.3351   6   8   0.0233   0.0234   0.0714  -0.0076   0.0096  -0.0213   0.00    0.0
2019/02/18 02:19:00.000  -68.577323287   77.972613202    44.3382   6   8   0.0223   0.0231   0.0702  -0.0062   0.0056  -0.0196   0.00    0.0
2019/02/18 02:19:30.000  -68.577323363   77.972613290    44.3483   6   8   0.0222   0.0232   0.0698  -0.0056   0.0036  -0.0191   0.00    0.0
2019/02/18 02:20:00.000  -68.577323353   77.972613178    44.3575   6   8   0.0219   0.0226   0.0697  -0.0062   0.0025  -0.0187   0.00    0.0
2019/02/18 02:20:30.000  -68.577323313   77.972613272    44.3489   6   8   0.0220   0.0226   0.0699  -0.0057  -0.0033  -0.0189   0.00    0.0
2019/02/18 02:21:00.000  -68.577323252   77.972613140    44.3567   6   8   0.0224   0.0228   0.0700  -0.0058  -0.0045  -0.0190   0.00    0.0
2019/02/18 02:21:30.000  -68.577323273   77.972613091    44.3675   6   8   0.0224   0.0226   0.0703  -0.0047  -0.0051  -0.0192   0.00    0.0
2019/02/18 02:22:00.000  -68.577323273   77.972613012    44.3708   6   8   0.0218   0.0224   0.0706  -0.0053  -0.0059  -0.0190   0.00    0.0
2019/02/18 02:22:30.000  -68.577323253   77.972613161    44.3749   6   8   0.0224   0.0226   0.0709  -0.0058  -0.0052  -0.0195   0.00    0.0
2019/02/18 02:23:00.000  -68.577323249   77.972613191    44.3664   6   8   0.0227   0.0225   0.0711  -0.0052  -0.0057  -0.0197   0.00    0.0
2019/02/18 02:23:30.000  -68.577323173   77.972613126    44.3574   6   9   0.0219   0.0222   0.0712  -0.0053  -0.0068  -0.0203   0.00    0.0
2019/02/18 02:24:00.000  -68.577323202   77.972613238    44.3537   6   9   0.0223   0.0223   0.0715  -0.0056  -0.0062  -0.0203   0.00    0.0
2019/02/18 02:24:30.000  -68.577323239   77.972613241    44.3593   6   9   0.0218   0.0219   0.0722  -0.0062  -0.0061  -0.0205   0.00    0.0
2019/02/18 02:25:00.000  -68.577323221   77.972613365    44.3473   6   9   0.0223   0.0222   0.0726  -0.0063  -0.0066  -0.0211   0.00    0.0
2019/02/18 02:25:30.000  -68.577323219   77.972613366    44.3426   6   9   0.0227   0.0223   0.0730  -0.0054  -0.0062  -0.0213   0.00    0.0
2019/02/18 02:26:00.000  -68.577323198   77.972613271    44.3422   6   9   0.0223   0.0224   0.0735  -0.0059  -0.0053  -0.0215   0.00    0.0
2019/02/18 02:26:30.000  -68.577323233   77.972613357    44.3483   6   9   0.0225   0.0224   0.0743  -0.0060  -0.0061  -0.0216   0.00    0.0
2019/02/18 02:27:00.000  -68.577323218   77.972613197    44.3403   6   9   0.0229   0.0221   0.0746  -0.0064  -0.0049  -0.0221   0.00    0.0
2019/02/18 02:27:30.000  -68.577323171   77.972613247    44.3351   6   9   0.0225   0.0222   0.0752  -0.0061  -0.0048  -0.0224   0.00    0.0
2019/02/18 02:28:00.000  -68.577323162   77.972613044    44.3456   6   9   0.0225   0.0221   0.0756  -0.0064  -0.0045  -0.0227   0.00    0.0
2019/02/18 02:28:30.000  -68.577323160   77.972613312    44.3374   6   9   0.0228   0.0221   0.0764  -0.0068  -0.0046  -0.0230   0.00    0.0
2019/02/18 02:29:00.000  -68.577323163   77.972613291    44.3382   6   9   0.0231   0.0221   0.0768  -0.0060  -0.0028  -0.0234   0.00    0.0
2019/02/18 02:29:30.000  -68.577323172   77.972613291    44.3450   6   9   0.0231   0.0221   0.0774  -0.0061  -0.0027  -0.0239   0.00    0.0
2019/02/18 02:30:00.000  -68.577323114   77.972613394    44.3302   6   9   0.0237   0.0224   0.0784  -0.0058  -0.0035  -0.0246   0.00    0.0
2019/02/18 02:30:30.000  -68.577323151   77.972613373    44.3460   6   9   0.0238   0.0226   0.0862  -0.0046  -0.0109  -0.0277   0.00    0.0
2019/02/18 02:31:00.000  -68.577323109   77.972613419    44.3365   6   9   0.0235   0.0221   0.0847  -0.0064  -0.0065  -0.0270   0.00    0.0
2019/02/18 02:31:30.000  -68.577323188   77.972613316    44.3573   6   9   0.0234   0.0221   0.0851  -0.0070  -0.0029  -0.0269   0.00    0.0
2019/02/18 02:32:00.000  -68.577323198   77.972613339    44.3597   6   9   0.0237   0.0218   0.0858  -0.0071   0.0035  -0.0271   0.00    0.0
2019/02/18 02:32:30.000  -68.577323186   77.972613367    44.3558   6   9   0.0239   0.0218   0.0868  -0.0077   0.0065  -0.0275   0.00    0.0
2019/02/18 02:33:00.000  -68.577323176   77.972613353    44.3540   6   9   0.0241   0.0223   0.0879  -0.0076   0.0082  -0.0280   0.00    0.0
2019/02/18 02:33:30.000  -68.577323127   77.972613448    44.3387   6   9   0.0247   0.0224   0.0895  -0.0078   0.0094  -0.0286   0.00    0.0
2019/02/18 02:34:00.000  -68.577323153   77.972613330    44.3598   6   9   0.0259   0.0227   0.0912  -0.0081   0.0105  -0.0295   0.00    0.0
2019/02/18 02:34:30.000  -68.577323080   77.972613170    44.3487   6   9   0.0362   0.0275   0.2845  -0.0197   0.0605  -0.0863   0.00    0.0
2019/02/18 02:35:00.000  -68.577323154   77.972613130    44.4118   6   9   0.0238   0.0212   0.0636  -0.0079  -0.0145  -0.0249   0.00    0.0
2019/02/18 02:35:30.000  -68.577323096   77.972613090    44.3984   6   9   0.0242   0.0211   0.0640  -0.0069  -0.0152  -0.0247   0.00    0.0
2019/02/18 02:36:00.000  -68.577323149   77.972613064    44.4225   6   9   0.0243   0.0212   0.0651  -0.0070  -0.0163  -0.0259   0.00    0.0
2019/02/18 02:36:30.000  -68.577323228   77.972612926    44.4469   6   9   0.0245   0.0225   0.0643  -0.0059  -0.0172  -0.0252   0.00    0.0
2019/02/18 02:37:00.000  -68.577323171   77.972612966    44.4333   6   9   0.0243   0.0221   0.0647  -0.0069  -0.0170  -0.0260   0.00    0.0
2019/02/18 02:37:30.000  -68.577323155   77.972612911    44.4294   6   9   0.0246   0.0221   0.0654  -0.0065  -0.0178  -0.0268   0.00    0.0
2019/02/18 02:38:00.000  -68.577323122   77.972612952    44.4131   6   9   0.0251   0.0220   0.0666  -0.0064  -0.0183  -0.0275   0.00    0.0
2019/02/18 02:38:30.000  -68.577323152   77.972613068    44.4203   6   9   0.0257   0.0221   0.0687  -0.0066  -0.0187  -0.0288   0.00    0.0
2019/02/18 02:39:00.000  -68.577323161   77.972612987    44.4293   6   9   0.0275   0.0223   0.0729  -0.0072  -0.0196  -0.0317   0.00    0.0
2019/02/18 02:39:30.000  -68.577323176   77.972612868    44.4411   6   9   0.0258   0.0232   0.0708  -0.0015  -0.0222  -0.0304   0.00    0.0
2019/02/18 02:40:00.000  -68.577323135   77.972612835    44.4309   6   9   0.0261   0.0227   0.0720   0.0029  -0.0224  -0.0310   0.00    0.0
2019/02/18 02:40:30.000  -68.577323187   77.972612989    44.4309   6   9   0.0265   0.0229   0.0749   0.0046  -0.0238  -0.0327   0.00    0.0
2019/02/18 02:41:00.000  -68.577323156   77.972612990    44.4246   6   9   0.0275   0.0232   0.0793   0.0063  -0.0255  -0.0356   0.00    0.0
2019/02/18 02:41:30.000  -68.577323069   77.972613080    44.3894   6   9   0.0295   0.0238   0.0878   0.0101  -0.0291  -0.0405   0.00    0.0
2019/02/18 02:42:00.000  -68.577323136   77.972612904    44.4167   6   8   0.0251   0.0244   0.0663   0.0035  -0.0233  -0.0278   0.00    0.0
2019/02/18 02:42:30.000  -68.577323179   77.972612782    44.4356   6   8   0.0253   0.0240   0.0654  -0.0003  -0.0224  -0.0272   0.00    0.0
2019/02/18 02:43:00.000  -68.577323140   77.972612800    44.4346   6   8   0.0252   0.0240   0.0652  -0.0033  -0.0221  -0.0271   0.00    0.0
2019/02/18 02:43:30.000  -68.577323196   77.972612891    44.4426   6   8   0.0257   0.0239   0.0651  -0.0035  -0.0222  -0.0270   0.00    0.0
2019/02/18 02:44:00.000  -68.577323157   77.972612922    44.4110   6   8   0.0259   0.0242   0.0654  -0.0069  -0.0227  -0.0266   0.00    0.0
2019/02/18 02:44:30.000  -68.577323083   77.972612885    44.4063   6   8   0.0256   0.0242   0.0652  -0.0026  -0.0220  -0.0271   0.00    0.0
2019/02/18 02:45:00.000  -68.577323118   77.972612873    44.4194   6   8   0.0250   0.0237   0.0654  -0.0012  -0.0220  -0.0275   0.00    0.0
2019/02/18 02:45:30.000  -68.577323150   77.972612839    44.4289   6   8   0.0249   0.0237   0.0657  -0.0016  -0.0220  -0.0277   0.00    0.0
2019/02/18 02:46:00.000  -68.577323066   77.972612914    44.4191   6   8   0.0253   0.0237   0.0657  -0.0016  -0.0220  -0.0277   0.00    0.0
2019/02/18 02:46:30.000  -68.577323106   77.972613036    44.4194   6   8   0.0254   0.0235   0.0659  -0.0006  -0.0220  -0.0280   0.00    0.0
2019/02/18 02:47:00.000  -68.577323054   77.972613205    44.4035   6   8   0.0258   0.0235   0.0659   0.0034  -0.0221  -0.0281   0.00    0.0
2019/02/18 02:47:30.000  -68.577323020   77.972613200    44.3861   6   8   0.0259   0.0237   0.0659   0.0024  -0.0222  -0.0285   0.00    0.0
2019/02/18 02:48:00.000  -68.577323029   77.972613137    44.3901   6   8   0.0254   0.0236   0.0675   0.0018  -0.0217  -0.0285   0.00    0.0
2019/02/18 02:48:30.000  -68.577323081   77.972612980    44.4167   6   7   0.0261   0.0236   0.0677   0.0023  -0.0217  -0.0289   0.00    0.0
2019/02/18 02:49:00.000  -68.577323083   77.972613013    44.4177   6   7   0.0259   0.0236   0.0679   0.0030  -0.0219  -0.0293   0.00    0.0
2019/02/18 02:49:30.000  -68.577323092   77.972612990    44.4207   6   7   0.0253   0.0236   0.0685   0.0025  -0.0220  -0.0290   0.00    0.0
2019/02/18 02:50:00.000  -68.577323057   77.972613030    44.4174   6   7   0.0254   0.0236   0.0691   0.0025  -0.0219  -0.0290   0.00    0.0
2019/02/18 02:50:30.000  -68.577323065   77.972613057    44.4230   6   7   0.0256   0.0236   0.0691  -0.0024  -0.0213  -0.0291   0.00    0.0
2019/02/18 02:51:00.000  -68.577323066   77.972613075    44.4242   6   7   0.0260   0.0237   0.0687   0.0022  -0.0215  -0.0294   0.00    0.0
2019/02/18 02:51:30.000  -68.577323103   77.972613117    44.4223   6   7   0.0268   0.0237   0.0679   0.0046  -0.0227  -0.0297   0.00    0.0
2019/02/18 02:52:00.000  -68.577323116   77.972613043    44.4298   6   7   0.0259   0.0235   0.0686   0.0013  -0.0225  -0.0293   0.00    0.0
2019/02/18 02:52:30.000  -68.577323105   77.972613078    44.4246   6   7   0.0260   0.0236   0.0685  -0.0035  -0.0220  -0.0291   0.00    0.0
2019/02/18 02:53:00.000  -68.577323097   77.972613025    44.4225   6   7   0.0262   0.0236   0.0682  -0.0020  -0.0223  -0.0289   0.00    0.0
2019/02/18 02:53:30.000  -68.577323116   77.972613033    44.4289   6   7   0.0269   0.0241   0.0680   0.0012  -0.0229  -0.0288   0.00    0.0
2019/02/18 02:54:00.000  -68.577323141   77.972613144    44.4181   6   7   0.0268   0.0240   0.0688  -0.0051  -0.0233  -0.0280   0.00    0.0
2019/02/18 02:54:30.000  -68.577323067   77.972613087    44.4139   6   7   0.0265   0.0245   0.0681  -0.0053  -0.0228  -0.0281   0.00    0.0
2019/02/18 02:55:00.000  -68.577323109   77.972613163    44.4165   6   7   0.0267   0.0246   0.0685  -0.0063  -0.0237  -0.0276   0.00    0.0
2019/02/18 02:55:30.000  -68.577323129   77.972613130    44.4225   6   7   0.0262   0.0243   0.0672  -0.0042  -0.0224  -0.0283   0.00    0.0
2019/02/18 02:56:00.000  -68.577323157   77.972613184    44.4266   6   7   0.0259   0.0238   0.0671  -0.0043  -0.0219  -0.0281   0.00    0.0
2019/02/18 02:56:30.000  -68.577323067   77.972613183    44.4187   6   7   0.0262   0.0241   0.0669  -0.0037  -0.0220  -0.0281   0.00    0.0
2019/02/18 02:57:00.000  -68.577323127   77.972613261    44.4237   6   7   0.0262   0.0239   0.0668  -0.0047  -0.0219  -0.0276   0.00    0.0
2019/02/18 02:57:30.000  -68.577323094   77.972613249    44.4070   6   7   0.0264   0.0244   0.0674  -0.0061  -0.0229  -0.0268   0.00    0.0
2019/02/18 02:58:00.000  -68.577323057   77.972613236    44.4017   6   7   0.0265   0.0248   0.0672  -0.0074  -0.0232  -0.0264   0.00    0.0
2019/02/18 02:58:30.000  -68.577323048   77.972613207    44.4099   6   7   0.0263   0.0248   0.0671  -0.0074  -0.0231  -0.0261   0.00    0.0
2019/02/18 02:59:00.000  -68.577323070   77.972613027    44.4330   6   7   0.0263   0.0247   0.0669  -0.0076  -0.0226  -0.0256   0.00    0.0
2019/02/18 02:59:30.000  -68.577323027   77.972613096    44.4210   6   7   0.0262   0.0242   0.0654  -0.0063  -0.0214  -0.0267   0.00    0.0
2019/02/18 03:00:00.000  -68.577323038   77.972613219    44.4205   6   7   0.0258   0.0242   0.0654  -0.0064  -0.0212  -0.0263   0.00    0.0
2019/02/18 03:00:30.000  -68.577323094   77.972613356    44.4306   6   7   0.0261   0.0245   0.0657  -0.0070  -0.0218  -0.0254   0.00    0.0
2019/02/18 03:01:00.000  -68.577323085   77.972613182    44.4446   6   7   0.0260   0.0247   0.0659  -0.0081  -0.0220  -0.0248   0.00    0.0
2019/02/18 03:01:30.000  -68.577323053   77.972613152    44.4420   6   7   0.0256   0.0241   0.0639  -0.0072  -0.0203  -0.0260   0.00    0.0
2019/02/18 03:02:00.000  -68.577323029   77.972613070    44.4273   6   7   0.0256   0.0240   0.0638  -0.0069  -0.0197  -0.0256   0.00    0.0
2019/02/18 03:02:30.000  -68.577323083   77.972613121    44.4394   6   7   0.0255   0.0239   0.0637  -0.0071  -0.0196  -0.0254   0.00    0.0
2019/02/18 03:03:00.000  -68.577323078   77.972613171    44.4361   6   7   0.0259   0.0240   0.0635  -0.0070  -0.0196  -0.0250   0.00    0.0
2019/02/18 03:03:30.000  -68.577323083   77.972613349    44.4235   6   7   0.0258   0.0242   0.0642  -0.0081  -0.0202  -0.0241   0.00    0.0
2019/02/18 03:04:00.000  -68.577323005   77.972613268    44.4317   6   7   0.0255   0.0242   0.0627  -0.0079  -0.0192  -0.0250   0.00    0.0
2019/02/18 03:04:30.000  -68.577323051   77.972613283    44.4224   6   7   0.0255   0.0240   0.0621  -0.0073  -0.0185  -0.0250   0.00    0.0
2019/02/18 03:05:00.000  -68.577322990   77.972613121    44.4169   6   7   0.0255   0.0239   0.0618  -0.0071  -0.0178  -0.0248   0.00    0.0
2019/02/18 03:05:30.000  -68.577322977   77.972613254    44.4019   6   7   0.0251   0.0239   0.0616  -0.0079  -0.0173  -0.0245   0.00    0.0
2019/02/18 03:06:00.000  -68.577323071   77.972613293    44.4216   6   7   0.0251   0.0238   0.0614  -0.0082  -0.0175  -0.0242   0.00    0.0
2019/02/18 03:06:30.000  -68.577322963   77.972613392    44.4021   6   7   0.0253   0.0239   0.0614  -0.0082  -0.0175  -0.0240   0.00    0.0
2019/02/18 03:07:00.000  -68.577322969   77.972613239    44.4261   6   7   0.0250   0.0236   0.0612  -0.0084  -0.0174  -0.0237   0.00    0.0
2019/02/18 03:07:30.000  -68.577322969   77.972613183    44.4281   6   7   0.0251   0.0238   0.0612  -0.0087  -0.0173  -0.0232   0.00    0.0
2019/02/18 03:08:00.000  -68.577322980   77.972613249    44.4296   6   7   0.0251   0.0238   0.0612  -0.0089  -0.0173  -0.0230   0.00    0.0
2019/02/18 03:08:30.000  -68.577323001   77.972613223    44.4427   6   7   0.0253   0.0241   0.0619  -0.0095  -0.0177  -0.0218   0.00    0.0
2019/02/18 03:09:00.000  -68.577323014   77.972613236    44.4273   6   7   0.0251   0.0243   0.0609  -0.0101  -0.0172  -0.0221   0.00    0.0
2019/02/18 03:09:30.000  -68.577322965   77.972613092    44.4182   6   7   0.0250   0.0243   0.0611  -0.0099  -0.0171  -0.0219   0.00    0.0
2019/02/18 03:10:00.000  -68.577322938   77.972613059    44.4237   6   7   0.0250   0.0244   0.0616  -0.0104  -0.0175  -0.0210   0.00    0.0
2019/02/18 03:10:30.000  -68.577322958   77.972612997    44.4383   6   8   0.0244   0.0245   0.0589  -0.0100  -0.0168  -0.0198   0.00    0.0
2019/02/18 03:11:00.000  -68.577322984   77.972613043    44.4354   6   8   0.0242   0.0242   0.0590  -0.0098  -0.0170  -0.0191   0.00    0.0
2019/02/18 03:11:30.000  -68.577323010   77.972613059    44.4479   6   8   0.0244   0.0241   0.0572  -0.0105  -0.0167  -0.0166   0.00    0.0
2019/02/18 03:12:00.000  -68.577322936   77.972612936    44.4335   6   7   0.0238   0.0245   0.0564  -0.0110  -0.0183  -0.0139   0.00    0.0
2019/02/18 03:12:30.000  -68.577322928   77.972613094    44.4227   6   7   0.0236   0.0245   0.0558  -0.0110  -0.0181  -0.0128   0.00    0.0
2019/02/18 03:13:00.000  -68.577322961   77.972613054    44.4285   6   7   0.0235   0.0246   0.0556  -0.0106  -0.0182  -0.0120   0.00    0.0
2019/02/18 03:13:30.000  -68.577322947   77.972612988    44.4306   6   7   0.0238   0.0247   0.0552  -0.0114  -0.0179  -0.0114   0.00    0.0
2019/02/18 03:14:00.000  -68.577323018   77.972613176    44.4295   6   7   0.0234   0.0245   0.0553  -0.0112  -0.0179  -0.0102   0.00    0.0
2019/02/18 03:14:30.000  -68.577322992   77.972613012    44.4375   6   7   0.0236   0.0246   0.0560  -0.0112  -0.0175  -0.0082   0.00    0.0
2019/02/18 03:15:00.000  -68.577322987   77.972613168    44.4278   6   7   0.0234   0.0238   0.0507  -0.0121  -0.0122   0.0051   0.00    0.0
2019/02/18 03:15:30.000  -68.577323002   77.972613158    44.4288   6   7   0.0233   0.0235   0.0491  -0.0122  -0.0112   0.0075   0.00    0.0
2019/02/18 03:16:00.000  -68.577322994   77.972613160    44.4307   6   7   0.0235   0.0236   0.0488  -0.0124  -0.0110   0.0087   0.00    0.0
2019/02/18 03:16:30.000  -68.577322988   77.972613145    44.4308   6   7   0.0230   0.0235   0.0483  -0.0124  -0.0104   0.0092   0.00    0.0
2019/02/18 03:17:00.000  -68.577323031   77.972613162    44.4432   6   7   0.0233   0.0236   0.0479  -0.0126  -0.0101   0.0094   0.00    0.0
2019/02/18 03:17:30.000  -68.577322938   77.972613102    44.4327   6   7   0.0232   0.0236   0.0479  -0.0130  -0.0095   0.0101   0.00    0.0
2019/02/18 03:18:00.000  -68.577322985   77.972613159    44.4336   6   7   0.0229   0.0234   0.0477  -0.0126  -0.0096   0.0104   0.00    0.0
2019/02/18 03:18:30.000  -68.577323016   77.972613088    44.4482   6   7   0.0230   0.0238   0.0475  -0.0127  -0.0095   0.0104   0.00    0.0
2019/02/18 03:19:00.000  -68.577323046   77.972613260    44.4473   6   7   0.0230   0.0238   0.0472  -0.0128  -0.0092   0.0107   0.00    0.0
2019/02/18 03:19:30.000  -68.577323010   77.972613152    44.4565   6   7   0.0231   0.0237   0.0470  -0.0126  -0.0090   0.0105   0.00    0.0
2019/02/18 03:20:00.000  -68.577323057   77.972613378    44.4503   6   7   0.0229   0.0236   0.0473  -0.0131  -0.0092   0.0110   0.00    0.0
2019/02/18 03:20:30.000  -68.577323023   77.972613360    44.4433   6   7   0.0229   0.0237   0.0468  -0.0131  -0.0083   0.0112   0.00    0.0
2019/02/18 03:21:00.000  -68.577322996   77.972613257    44.4506   6   7   0.0235   0.0236   0.0468  -0.0132  -0.0082   0.0114   0.00    0.0
2019/02/18 03:21:30.000  -68.577323014   77.972613360    44.4283   6   7   0.0231   0.0238   0.0467  -0.0130  -0.0082   0.0117   0.00    0.0
2019/02/18 03:22:00.000  -68.577323005   77.972613371    44.4381   6   7   0.0229   0.0238   0.0465  -0.0130  -0.0084   0.0117   0.00    0.0
2019/02/18 03:22:30.000  -68.577322901   77.972613223    44.4242   6   7   0.0230   0.0237   0.0465  -0.0134  -0.0080   0.0114   0.00    0.0
2019/02/18 03:23:00.000  -68.577322937   77.972613280    44.4406   6   7   0.0230   0.0240   0.0467  -0.0130  -0.0081   0.0120   0.00    0.0
2019/02/18 03:23:30.000  -68.577322943   77.972613235    44.4312   6   7   0.0227   0.0238   0.0467  -0.0132  -0.0086   0.0120   0.00    0.0
2019/02/18 03:24:00.000  -68.577322976   77.972613271    44.4449   6   7   0.0229   0.0240   0.0465  -0.0132  -0.0078   0.0120   0.00    0.0
2019/02/18 03:24:30.000  -68.577323009   77.972613292    44.4430   6   7   0.0230   0.0240   0.0465  -0.0137  -0.0077   0.0121   0.00    0.0
2019/02/18 03:25:00.000  -68.577322907   77.972613155    44.4403   6   7   0.0227   0.0240   0.0468  -0.0132  -0.0085   0.0127   0.00    0.0
2019/02/18 03:25:30.000  -68.577322943   77.972613287    44.4354   6   7   0.0229   0.0243   0.0467  -0.0138  -0.0080   0.0119   0.00    0.0
2019/02/18 03:26:00.000  -68.577322973   77.972613264    44.4554   6   7   0.0234   0.0244   0.0468  -0.0138  -0.0075   0.0124   0.00    0.0
2019/02/18 03:26:30.000  -68.577322886   77.972613207    44.4398   6   7   0.0273   0.0276   0.0478  -0.0198   0.0084  -0.0012   0.00    0.0
2019/02/18 03:27:00.000  -68.577322898   77.972613328    44.4301   6   7   0.0260   0.0269   0.0476  -0.0178   0.0047   0.0076   0.00    0.0
2019/02/18 03:27:30.000  -68.577322922   77.972613367    44.4215   6   7   0.0262   0.0265   0.0476  -0.0179   0.0045   0.0086   0.00    0.0
2019/02/18 03:28:00.000  -68.577322844   77.972613114    44.4192   6   7   0.0282   0.0288   0.0488  -0.0211   0.0098  -0.0062   0.00    0.0
2019/02/18 03:28:30.000  -68.577322892   77.972613296    44.4206   6   7   0.0272   0.0279   0.0488  -0.0197   0.0072   0.0037   0.00    0.0
2019/02/18 03:29:00.000  -68.577322883   77.972613305    44.4231   6   7   0.0260   0.0269   0.0489  -0.0178  -0.0048   0.0082   0.00    0.0
