% program   : RTKPOST ver.2.4.2
% inp file  : D:\WORK\6_GNSS\HRAO\hrao0740.19o
% inp file  : D:\WORK\6_GNSS\NAV\brdc0*.19n
% inp file  : D:\WORK\6_GNSS\SP3\Sta20_*.sp3
% inp file  : D:\WORK\6_GNSS\CLK\Sta30s20_740.clk
% obs start : 2019/03/15 00:00:00.0 GPST (week2044 432000.0s)
% obs end   : 2019/03/15 23:59:30.0 GPST (week2044 518370.0s)
% pos mode  : ppp-kinematic
% solution  : combined
% elev mask : 15.0 deg
% dynamics  : off
% tidecorr  : off
% tropo opt : est ztd
% ephemeris : precise
% antenna1  : AOAD/M_T        NONE  ( 0.0000  0.0000  0.0814)
%
% (lat/lon/height=WGS84/ellipsoidal,Q=1:fix,2:float,3:sbas,4:dgps,5:single,6:ppp,ns=# of satellites)
%  GPST                  latitude(deg) longitude(deg)  height(m)   Q  ns   sdn(m)   sde(m)   sdu(m)  sdne(m)  sdeu(m)  sdun(m) age(s)  ratio
2019/03/15 00:00:00.000  -25.890102392   27.686983988  1414.2253   6   6   0.0181   0.0284   0.0667   0.0038   0.0184   0.0146   0.00    0.0
2019/03/15 00:00:30.000  -25.890102394   27.686983987  1414.2293   6   6   0.0184   0.0292   0.0666   0.0074   0.0189   0.0163   0.00    0.0
2019/03/15 00:01:00.000  -25.890102401   27.686983984  1414.2339   6   6   0.0186   0.0289   0.0672   0.0035   0.0185   0.0146   0.00    0.0
2019/03/15 00:01:30.000  -25.890102376   27.686983986  1414.2308   6   6   0.0189   0.0287   0.0678   0.0052   0.0191   0.0135   0.00    0.0
2019/03/15 00:02:00.000  -25.890102393   27.686983992  1414.2294   6   7   0.0175   0.0277   0.0601  -0.0046   0.0121  -0.0088   0.00    0.0
2019/03/15 00:02:30.000  -25.890102376   27.686983993  1414.2205   6   7   0.0167   0.0283   0.0633  -0.0016   0.0108  -0.0139   0.00    0.0
2019/03/15 00:03:00.000  -25.890102386   27.686983953  1414.2223   6   6   0.0184   0.0278   0.0628  -0.0050   0.0116  -0.0135   0.00    0.0
2019/03/15 00:03:30.000  -25.890102373   27.686983931  1414.2320   6   6   0.0186   0.0284   0.0627  -0.0009   0.0105  -0.0140   0.00    0.0
2019/03/15 00:04:00.000  -25.890102392   27.686983945  1414.2341   6   6   0.0179   0.0282   0.0622  -0.0051   0.0118  -0.0144   0.00    0.0
2019/03/15 00:04:30.000  -25.890102396   27.686983905  1414.2368   6   6   0.0187   0.0281   0.0620   0.0031   0.0117  -0.0144   0.00    0.0
2019/03/15 00:05:00.000  -25.890102420   27.686983895  1414.2384   6   6   0.0182   0.0279   0.0620   0.0025   0.0111  -0.0138   0.00    0.0
2019/03/15 00:05:30.000  -25.890102402   27.686983936  1414.2397   6   6   0.0183   0.0286   0.0615  -0.0036   0.0120  -0.0147   0.00    0.0
2019/03/15 00:06:00.000  -25.890102435   27.686983897  1414.2443   6   6   0.0187   0.0281   0.0617   0.0027   0.0124  -0.0146   0.00    0.0
2019/03/15 00:06:30.000  -25.890102407   27.686983950  1414.2469   6   6   0.0184   0.0279   0.0611   0.0021   0.0127  -0.0148   0.00    0.0
2019/03/15 00:07:00.000  -25.890102397   27.686983911  1414.2429   6   6   0.0190   0.0283   0.0608  -0.0015   0.0128  -0.0149   0.00    0.0
2019/03/15 00:07:30.000  -25.890102462   27.686983902  1414.2465   6   6   0.0187   0.0280   0.0609  -0.0002   0.0132  -0.0154   0.00    0.0
2019/03/15 00:08:00.000  -25.890102482   27.686983909  1414.2481   6   6   0.0184   0.0281   0.0607  -0.0041   0.0128  -0.0162   0.00    0.0
2019/03/15 00:08:30.000  -25.890102442   27.686983923  1414.2386   6   6   0.0190   0.0279   0.0605  -0.0052   0.0134  -0.0159   0.00    0.0
2019/03/15 00:09:00.000  -25.890102458   27.686983888  1414.2592   6   6   0.0192   0.0279   0.0602  -0.0029   0.0135  -0.0156   0.00    0.0
2019/03/15 00:09:30.000  -25.890102407   27.686983850  1414.2466   6   6   0.0186   0.0280   0.0604   0.0014   0.0130  -0.0155   0.00    0.0
2019/03/15 00:10:00.000  -25.890102483   27.686983880  1414.2568   6   6   0.0186   0.0279   0.0598  -0.0018   0.0142  -0.0163   0.00    0.0
2019/03/15 00:10:30.000  -25.890102430   27.686983865  1414.2550   6   6   0.0190   0.0281   0.0599  -0.0033   0.0139  -0.0166   0.00    0.0
2019/03/15 00:11:00.000  -25.890102430   27.686983880  1414.2532   6   6   0.0193   0.0279   0.0593  -0.0013   0.0147  -0.0165   0.00    0.0
2019/03/15 00:11:30.000  -25.890102460   27.686983862  1414.2538   6   6   0.0193   0.0281   0.0593  -0.0025   0.0143  -0.0170   0.00    0.0
2019/03/15 00:12:00.000  -25.890102480   27.686983898  1414.2565   6   6   0.0185   0.0280   0.0592  -0.0018   0.0142  -0.0167   0.00    0.0
2019/03/15 00:12:30.000  -25.890102497   27.686983836  1414.2549   6   6   0.0191   0.0276   0.0588  -0.0023   0.0152  -0.0172   0.00    0.0
2019/03/15 00:13:00.000  -25.890102486   27.686983864  1414.2613   6   6   0.0192   0.0277   0.0588  -0.0050   0.0144  -0.0172   0.00    0.0
2019/03/15 00:13:30.000  -25.890102507   27.686983848  1414.2692   6   6   0.0198   0.0276   0.0588   0.0026   0.0148  -0.0170   0.00    0.0
2019/03/15 00:14:00.000  -25.890102513   27.686983822  1414.2657   6   6   0.0195   0.0276   0.0582   0.0017   0.0151  -0.0168   0.00    0.0
2019/03/15 00:14:30.000  -25.890102515   27.686983784  1414.2515   6   6   0.0195   0.0276   0.0584   0.0013   0.0145  -0.0170   0.00    0.0
2019/03/15 00:15:00.000  -25.890102569   27.686983774  1414.2764   6   6   0.0199   0.0277   0.0582  -0.0040   0.0153  -0.0174   0.00    0.0
2019/03/15 00:15:30.000  -25.890102507   27.686983786  1414.2615   6   6   0.0200   0.0279   0.0578   0.0037   0.0152  -0.0179   0.00    0.0
2019/03/15 00:16:00.000  -25.890102524   27.686983754  1414.2688   6   6   0.0197   0.0273   0.0580   0.0009   0.0153  -0.0177   0.00    0.0
2019/03/15 00:16:30.000  -25.890102489   27.686983759  1414.2523   6   6   0.0199   0.0275   0.0577   0.0037   0.0156  -0.0176   0.00    0.0
2019/03/15 00:17:00.000  -25.890102533   27.686983758  1414.2536   6   6   0.0197   0.0273   0.0573  -0.0012   0.0153  -0.0177   0.00    0.0
2019/03/15 00:17:30.000  -25.890102486   27.686983718  1414.2530   6   6   0.0199   0.0276   0.0572   0.0025   0.0153  -0.0179   0.00    0.0
2019/03/15 00:18:00.000  -25.890102490   27.686983739  1414.2531   6   6   0.0195   0.0273   0.0571   0.0026   0.0158  -0.0179   0.00    0.0
2019/03/15 00:18:30.000  -25.890102447   27.686983714  1414.2476   6   6   0.0202   0.0279   0.0568   0.0052   0.0151  -0.0181   0.00    0.0
2019/03/15 00:19:00.000  -25.890102462   27.686983723  1414.2607   6   6   0.0203   0.0277   0.0570  -0.0026   0.0155  -0.0178   0.00    0.0
2019/03/15 00:19:30.000  -25.890102476   27.686983755  1414.2500   6   6   0.0197   0.0277   0.0566   0.0035   0.0147  -0.0183   0.00    0.0
2019/03/15 00:20:00.000  -25.890102501   27.686983747  1414.2431   6   6   0.0198   0.0271   0.0561   0.0042   0.0164  -0.0182   0.00    0.0
2019/03/15 00:20:30.000  -25.890102451   27.686983710  1414.2475   6   6   0.0203   0.0276   0.0560   0.0050   0.0154  -0.0184   0.00    0.0
2019/03/15 00:21:00.000  -25.890102428   27.686983762  1414.2438   6   6   0.0199   0.0273   0.0560   0.0059   0.0156  -0.0176   0.00    0.0
2019/03/15 00:21:30.000  -25.890102407   27.686983761  1414.2381   6   6   0.0203   0.0275   0.0555   0.0041   0.0150  -0.0181   0.00    0.0
2019/03/15 00:22:00.000  -25.890102328   27.686983767  1414.2325   6   6   0.0203   0.0274   0.0555   0.0050   0.0156  -0.0177   0.00    0.0
2019/03/15 00:22:30.000  -25.890102348   27.686983731  1414.2339   6   6   0.0206   0.0271   0.0555   0.0040   0.0163  -0.0176   0.00    0.0
2019/03/15 00:23:00.000  -25.890102350   27.686983679  1414.2361   6   6   0.0198   0.0273   0.0556   0.0036   0.0151  -0.0189   0.00    0.0
2019/03/15 00:23:30.000  -25.890102341   27.686983774  1414.2397   6   6   0.0207   0.0271   0.0554   0.0065   0.0157  -0.0180   0.00    0.0
2019/03/15 00:24:00.000  -25.890102342   27.686983698  1414.2257   6   6   0.0201   0.0272   0.0550   0.0056   0.0160  -0.0188   0.00    0.0
2019/03/15 00:24:30.000  -25.890102397   27.686983734  1414.2358   6   6   0.0206   0.0270   0.0549   0.0060   0.0152  -0.0184   0.00    0.0
2019/03/15 00:25:00.000  -25.890102350   27.686983726  1414.2292   6   6   0.0200   0.0268   0.0548   0.0051   0.0158  -0.0182   0.00    0.0
2019/03/15 00:25:30.000  -25.890102313   27.686983743  1414.2251   6   6   0.0206   0.0264   0.0545   0.0048   0.0165  -0.0176   0.00    0.0
2019/03/15 00:26:00.000  -25.890102291   27.686983768  1414.2276   6   6   0.0206   0.0270   0.0538   0.0042   0.0157  -0.0179   0.00    0.0
2019/03/15 00:26:30.000  -25.890102298   27.686983773  1414.2299   6   6   0.0206   0.0268   0.0538   0.0058   0.0159  -0.0182   0.00    0.0
2019/03/15 00:27:00.000  -25.890102339   27.686983720  1414.2278   6   6   0.0206   0.0267   0.0540   0.0066   0.0149  -0.0180   0.00    0.0
2019/03/15 00:27:30.000  -25.890102306   27.686983724  1414.2245   6   6   0.0208   0.0266   0.0530   0.0063   0.0163  -0.0171   0.00    0.0
2019/03/15 00:28:00.000  -25.890102329   27.686983771  1414.2224   6   6   0.0202   0.0270   0.0539   0.0059   0.0146  -0.0191   0.00    0.0
2019/03/15 00:28:30.000  -25.890102301   27.686983750  1414.2316   6   6   0.0202   0.0271   0.0535   0.0075   0.0152  -0.0191   0.00    0.0
2019/03/15 00:29:00.000  -25.890102269   27.686983777  1414.2164   6   6   0.0202   0.0268   0.0533   0.0054   0.0149  -0.0190   0.00    0.0
2019/03/15 00:29:30.000  -25.890102249   27.686983722  1414.2231   6   6   0.0204   0.0265   0.0534   0.0066   0.0146  -0.0176   0.00    0.0
2019/03/15 00:30:00.000  -25.890102246   27.686983747  1414.2137   6   6   0.0201   0.0263   0.0530   0.0064   0.0155  -0.0186   0.00    0.0
2019/03/15 00:30:30.000  -25.890102227   27.686983718  1414.2192   6   6   0.0207   0.0261   0.0527   0.0066   0.0158  -0.0177   0.00    0.0
2019/03/15 00:31:00.000  -25.890102265   27.686983757  1414.2238   6   6   0.0208   0.0263   0.0524   0.0070   0.0150  -0.0183   0.00    0.0
2019/03/15 00:31:30.000  -25.890102210   27.686983761  1414.2092   6   6   0.0209   0.0265   0.0523   0.0084   0.0150  -0.0181   0.00    0.0
2019/03/15 00:32:00.000  -25.890102265   27.686983708  1414.2116   6   6   0.0204   0.0265   0.0522   0.0073   0.0145  -0.0185   0.00    0.0
2019/03/15 00:32:30.000  -25.890102282   27.686983763  1414.2294   6   6   0.0209   0.0265   0.0524   0.0076   0.0147  -0.0180   0.00    0.0
2019/03/15 00:33:00.000  -25.890102273   27.686983822  1414.2289   6   6   0.0209   0.0261   0.0520   0.0079   0.0155  -0.0171   0.00    0.0
2019/03/15 00:33:30.000  -25.890102246   27.686983796  1414.2224   6   6   0.0210   0.0262   0.0520   0.0076   0.0151  -0.0175   0.00    0.0
2019/03/15 00:34:00.000  -25.890102241   27.686983797  1414.2313   6   6   0.0211   0.0260   0.0514   0.0075   0.0154  -0.0173   0.00    0.0
2019/03/15 00:34:30.000  -25.890102257   27.686983838  1414.2323   6   6   0.0209   0.0261   0.0511   0.0083   0.0151  -0.0176   0.00    0.0
2019/03/15 00:35:00.000  -25.890102302   27.686983833  1414.2266   6   6   0.0207   0.0261   0.0513   0.0085   0.0149  -0.0180   0.00    0.0
2019/03/15 00:35:30.000  -25.890102271   27.686983831  1414.2416   6   6   0.0211   0.0260   0.0506   0.0080   0.0152  -0.0173   0.00    0.0
2019/03/15 00:36:00.000  -25.890102245   27.686983824  1414.2294   6   6   0.0207   0.0255   0.0512   0.0078   0.0148  -0.0169   0.00    0.0
2019/03/15 00:36:30.000  -25.890102233   27.686983871  1414.2272   6   6   0.0206   0.0257   0.0506   0.0087   0.0153  -0.0179   0.00    0.0
2019/03/15 00:37:00.000  -25.890102310   27.686983889  1414.2274   6   6   0.0212   0.0260   0.0507   0.0085   0.0146  -0.0172   0.00    0.0
2019/03/15 00:37:30.000  -25.890102267   27.686983818  1414.2385   6   6   0.0212   0.0260   0.0506   0.0080   0.0143  -0.0170   0.00    0.0
2019/03/15 00:38:00.000  -25.890102258   27.686983843  1414.2359   6   6   0.0214   0.0260   0.0502   0.0090   0.0142  -0.0170   0.00    0.0
2019/03/15 00:38:30.000  -25.890102302   27.686983904  1414.2436   6   6   0.0213   0.0258   0.0501   0.0091   0.0150  -0.0166   0.00    0.0
2019/03/15 00:39:00.000  -25.890102343   27.686983918  1414.2457   6   6   0.0213   0.0257   0.0502   0.0096   0.0147  -0.0170   0.00    0.0
2019/03/15 00:39:30.000  -25.890102306   27.686983913  1414.2397   6   6   0.0213   0.0257   0.0494   0.0095   0.0149  -0.0171   0.00    0.0
2019/03/15 00:40:00.000  -25.890102357   27.686983949  1414.2423   6   6   0.0213   0.0258   0.0495   0.0098   0.0150  -0.0167   0.00    0.0
2019/03/15 00:40:30.000  -25.890102368   27.686983892  1414.2466   6   6   0.0213   0.0255   0.0495   0.0092   0.0146  -0.0170   0.00    0.0
2019/03/15 00:41:00.000  -25.890102306   27.686983973  1414.2480   6   6   0.0214   0.0256   0.0495   0.0095   0.0143  -0.0164   0.00    0.0
2019/03/15 00:41:30.000  -25.890102340   27.686983945  1414.2352   6   6   0.0216   0.0258   0.0493   0.0096   0.0146  -0.0164   0.00    0.0
2019/03/15 00:42:00.000  -25.890102327   27.686983905  1414.2457   6   6   0.0213   0.0253   0.0492   0.0093   0.0145  -0.0167   0.00    0.0
2019/03/15 00:42:30.000  -25.890102325   27.686983912  1414.2476   6   6   0.0214   0.0253   0.0486   0.0096   0.0148  -0.0166   0.00    0.0
2019/03/15 00:43:00.000  -25.890102257   27.686983935  1414.2333   6   7   0.0212   0.0252   0.0460   0.0094   0.0123  -0.0182   0.00    0.0
2019/03/15 00:43:30.000  -25.890102312   27.686983916  1414.2423   6   7   0.0214   0.0249   0.0460   0.0096   0.0122  -0.0177   0.00    0.0
2019/03/15 00:44:00.000  -25.890102314   27.686983934  1414.2434   6   7   0.0214   0.0250   0.0463   0.0096   0.0123  -0.0174   0.00    0.0
2019/03/15 00:44:30.000  -25.890102300   27.686983972  1414.2414   6   7   0.0213   0.0250   0.0461   0.0088   0.0116  -0.0175   0.00    0.0
2019/03/15 00:45:00.000  -25.890102205   27.686983947  1414.2234   6   7   0.0209   0.0246   0.0451   0.0092   0.0124  -0.0184   0.00    0.0
2019/03/15 00:45:30.000  -25.890102250   27.686983921  1414.2383   6   7   0.0214   0.0249   0.0458   0.0096   0.0121  -0.0172   0.00    0.0
2019/03/15 00:46:00.000  -25.890102256   27.686983912  1414.2235   6   7   0.0217   0.0250   0.0454   0.0097   0.0121  -0.0173   0.00    0.0
2019/03/15 00:46:30.000  -25.890102231   27.686983990  1414.2324   6   7   0.0219   0.0252   0.0453   0.0108   0.0118  -0.0175   0.00    0.0
2019/03/15 00:47:00.000  -25.890102300   27.686983973  1414.2359   6   7   0.0213   0.0250   0.0448   0.0102   0.0108  -0.0184   0.00    0.0
2019/03/15 00:47:30.000  -25.890102262   27.686983995  1414.2282   6   7   0.0215   0.0245   0.0448   0.0096   0.0118  -0.0172   0.00    0.0
2019/03/15 00:48:00.000  -25.890102286   27.686984024  1414.2379   6   7   0.0216   0.0250   0.0447   0.0106   0.0116  -0.0176   0.00    0.0
2019/03/15 00:48:30.000  -25.890102298   27.686983944  1414.2360   6   7   0.0216   0.0244   0.0447   0.0098   0.0122  -0.0172   0.00    0.0
2019/03/15 00:49:00.000  -25.890102226   27.686983967  1414.2333   6   7   0.0217   0.0244   0.0441   0.0098   0.0120  -0.0171   0.00    0.0
2019/03/15 00:49:30.000  -25.890102310   27.686983985  1414.2414   6   7   0.0216   0.0249   0.0438   0.0106   0.0117  -0.0180   0.00    0.0
2019/03/15 00:50:00.000  -25.890102324   27.686983999  1414.2445   6   7   0.0217   0.0250   0.0437   0.0111   0.0112  -0.0181   0.00    0.0
2019/03/15 00:50:30.000  -25.890102231   27.686983956  1414.2325   6   7   0.0216   0.0243   0.0438   0.0101   0.0113  -0.0173   0.00    0.0
2019/03/15 00:51:00.000  -25.890102212   27.686983982  1414.2339   6   7   0.0214   0.0241   0.0437   0.0097   0.0111  -0.0172   0.00    0.0
2019/03/15 00:51:30.000  -25.890102235   27.686983996  1414.2284   6   7   0.0215   0.0243   0.0434   0.0105   0.0117  -0.0177   0.00    0.0
2019/03/15 00:52:00.000  -25.890102245   27.686983993  1414.2363   6   7   0.0218   0.0247   0.0436   0.0109   0.0112  -0.0173   0.00    0.0
2019/03/15 00:52:30.000  -25.890102299   27.686983997  1414.2361   6   7   0.0218   0.0245   0.0435   0.0105   0.0106  -0.0175   0.00    0.0
2019/03/15 00:53:00.000  -25.890102235   27.686983971  1414.2383   6   7   0.0219   0.0240   0.0434   0.0104   0.0118  -0.0167   0.00    0.0
2019/03/15 00:53:30.000  -25.890102207   27.686983957  1414.2367   6   7   0.0218   0.0234   0.0431   0.0096   0.0122  -0.0161   0.00    0.0
2019/03/15 00:54:00.000  -25.890102253   27.686983952  1414.2399   6   7   0.0217   0.0240   0.0427   0.0104   0.0109  -0.0170   0.00    0.0
2019/03/15 00:54:30.000  -25.890102204   27.686983972  1414.2346   6   7   0.0219   0.0237   0.0426   0.0103   0.0119  -0.0163   0.00    0.0
2019/03/15 00:55:00.000  -25.890102270   27.686983918  1414.2372   6   7   0.0218   0.0235   0.0429   0.0103   0.0122  -0.0162   0.00    0.0
2019/03/15 00:55:30.000  -25.890102260   27.686983957  1414.2384   6   7   0.0219   0.0239   0.0431   0.0103   0.0104  -0.0164   0.00    0.0
2019/03/15 00:56:00.000  -25.890102262   27.686983921  1414.2467   6   7   0.0222   0.0234   0.0427   0.0104   0.0121  -0.0153   0.00    0.0
2019/03/15 00:56:30.000  -25.890102200   27.686983944  1414.2445   6   7   0.0220   0.0235   0.0426   0.0105   0.0117  -0.0159   0.00    0.0
2019/03/15 00:57:00.000  -25.890102265   27.686983979  1414.2482   6   7   0.0218   0.0235   0.0424   0.0101   0.0109  -0.0163   0.00    0.0
2019/03/15 00:57:30.000  -25.890102283   27.686983914  1414.2489   6   7   0.0218   0.0236   0.0420   0.0099   0.0108  -0.0160   0.00    0.0
2019/03/15 00:58:00.000  -25.890102226   27.686983935  1414.2457   6   7   0.0219   0.0234   0.0421   0.0104   0.0115  -0.0157   0.00    0.0
2019/03/15 00:58:30.000  -25.890102284   27.686983956  1414.2579   6   7   0.0221   0.0231   0.0420   0.0098   0.0118  -0.0152   0.00    0.0
2019/03/15 00:59:00.000  -25.890102306   27.686983930  1414.2536   6   7   0.0220   0.0231   0.0421   0.0102   0.0112  -0.0159   0.00    0.0
2019/03/15 00:59:30.000  -25.890102237   27.686983918  1414.2499   6   7   0.0224   0.0233   0.0415   0.0111   0.0120  -0.0153   0.00    0.0
2019/03/15 01:00:00.000  -25.890102279   27.686983943  1414.2576   6   7   0.0219   0.0234   0.0412   0.0104   0.0112  -0.0159   0.00    0.0
2019/03/15 01:00:30.000  -25.890102380   27.686983898  1414.2679   6   7   0.0219   0.0232   0.0415   0.0105   0.0113  -0.0155   0.00    0.0
2019/03/15 01:01:00.000  -25.890102390   27.686983891  1414.2726   6   7   0.0224   0.0228   0.0420   0.0106   0.0122  -0.0140   0.00    0.0
2019/03/15 01:01:30.000  -25.890102314   27.686983902  1414.2639   6   7   0.0218   0.0228   0.0408   0.0104   0.0115  -0.0155   0.00    0.0
2019/03/15 01:02:00.000  -25.890102340   27.686983883  1414.2568   6   7   0.0221   0.0230   0.0406   0.0109   0.0117  -0.0154   0.00    0.0
2019/03/15 01:02:30.000  -25.890102340   27.686983877  1414.2722   6   7   0.0221   0.0229   0.0413   0.0104   0.0110  -0.0147   0.00    0.0
2019/03/15 01:03:00.000  -25.890102361   27.686983911  1414.2681   6   7   0.0222   0.0225   0.0410   0.0105   0.0121  -0.0144   0.00    0.0
2019/03/15 01:03:30.000  -25.890102395   27.686983861  1414.2646   6   7   0.0222   0.0225   0.0413   0.0102   0.0108  -0.0144   0.00    0.0
2019/03/15 01:04:00.000  -25.890102376   27.686983906  1414.2660   6   7   0.0222   0.0227   0.0407   0.0106   0.0115  -0.0148   0.00    0.0
2019/03/15 01:04:30.000  -25.890102430   27.686983876  1414.2725   6   7   0.0221   0.0223   0.0406   0.0100   0.0112  -0.0146   0.00    0.0
2019/03/15 01:05:00.000  -25.890102428   27.686983898  1414.2605   6   8   0.0220   0.0221   0.0398   0.0103   0.0112  -0.0154   0.00    0.0
2019/03/15 01:05:30.000  -25.890102393   27.686983871  1414.2629   6   8   0.0218   0.0217   0.0398   0.0100   0.0102  -0.0153   0.00    0.0
2019/03/15 01:06:00.000  -25.890102431   27.686983884  1414.2505   6   8   0.0216   0.0219   0.0390   0.0099   0.0104  -0.0163   0.00    0.0
2019/03/15 01:06:30.000  -25.890102388   27.686983916  1414.2500   6   8   0.0219   0.0221   0.0396   0.0102   0.0098  -0.0153   0.00    0.0
2019/03/15 01:07:00.000  -25.890102413   27.686983862  1414.2508   6   8   0.0221   0.0223   0.0402   0.0092   0.0077  -0.0146   0.00    0.0
2019/03/15 01:07:30.000  -25.890102433   27.686983838  1414.2465   6   8   0.0213   0.0223   0.0391   0.0095   0.0083  -0.0169   0.00    0.0
2019/03/15 01:08:00.000  -25.890102473   27.686983867  1414.2476   6   8   0.0218   0.0214   0.0393   0.0093   0.0104  -0.0150   0.00    0.0
2019/03/15 01:08:30.000  -25.890102521   27.686983837  1414.2456   6   8   0.0216   0.0215   0.0395   0.0096   0.0086  -0.0148   0.00    0.0
2019/03/15 01:09:00.000  -25.890102444   27.686983898  1414.2510   6   8   0.0219   0.0221   0.0395   0.0094   0.0087  -0.0151   0.00    0.0
2019/03/15 01:09:30.000  -25.890102445   27.686983882  1414.2383   6   8   0.0219   0.0215   0.0396   0.0095   0.0092  -0.0147   0.00    0.0
2019/03/15 01:10:00.000  -25.890102471   27.686983876  1414.2439   6   8   0.0218   0.0216   0.0398   0.0095   0.0082  -0.0149   0.00    0.0
2019/03/15 01:10:30.000  -25.890102453   27.686983894  1414.2411   6   8   0.0223   0.0215   0.0395   0.0105   0.0091  -0.0152   0.00    0.0
2019/03/15 01:11:00.000  -25.890102486   27.686983865  1414.2462   6   8   0.0218   0.0215   0.0388   0.0095   0.0081  -0.0159   0.00    0.0
2019/03/15 01:11:30.000  -25.890102476   27.686983886  1414.2464   6   8   0.0222   0.0213   0.0397   0.0100   0.0086  -0.0152   0.00    0.0
2019/03/15 01:12:00.000  -25.890102429   27.686983869  1414.2480   6   8   0.0218   0.0215   0.0392   0.0105   0.0079  -0.0170   0.00    0.0
2019/03/15 01:12:30.000  -25.890102493   27.686983816  1414.2520   6   8   0.0226   0.0215   0.0397   0.0103   0.0084  -0.0161   0.00    0.0
2019/03/15 01:13:00.000  -25.890102444   27.686983821  1414.2387   6   8   0.0227   0.0213   0.0403   0.0109   0.0055  -0.0171   0.00    0.0
2019/03/15 01:13:30.000  -25.890102486   27.686983822  1414.2469   6   8   0.0234   0.0219   0.0411   0.0118   0.0032  -0.0186   0.00    0.0
2019/03/15 01:14:00.000  -25.890102532   27.686983764  1414.2431   6   8   0.0248   0.0225   0.0428   0.0140  -0.0083  -0.0217   0.00    0.0
2019/03/15 01:14:30.000  -25.890102629   27.686983780  1414.2554   6   7   0.0270   0.0225   0.0458   0.0140  -0.0103  -0.0247   0.00    0.0
2019/03/15 01:15:00.000  -25.890102571   27.686983786  1414.2443   6   7   0.0267   0.0225   0.0456   0.0145  -0.0104  -0.0246   0.00    0.0
2019/03/15 01:15:30.000  -25.890102587   27.686983756  1414.2546   6   7   0.0266   0.0226   0.0452   0.0147  -0.0101  -0.0242   0.00    0.0
2019/03/15 01:16:00.000  -25.890102554   27.686983778  1414.2465   6   7   0.0265   0.0223   0.0448   0.0137  -0.0102  -0.0236   0.00    0.0
2019/03/15 01:16:30.000  -25.890102525   27.686983821  1414.2491   6   7   0.0261   0.0222   0.0447   0.0142  -0.0090  -0.0234   0.00    0.0
2019/03/15 01:17:00.000  -25.890102501   27.686983844  1414.2396   6   8   0.0178   0.0212   0.0385   0.0070   0.0080  -0.0093   0.00    0.0
2019/03/15 01:17:30.000  -25.890102504   27.686983881  1414.2382   6   8   0.0172   0.0217   0.0376   0.0082   0.0077  -0.0097   0.00    0.0
2019/03/15 01:18:00.000  -25.890102506   27.686983868  1414.2399   6   8   0.0172   0.0211   0.0371   0.0071   0.0086  -0.0072   0.00    0.0
2019/03/15 01:18:30.000  -25.890102523   27.686983860  1414.2476   6   8   0.0165   0.0215   0.0377   0.0075   0.0078  -0.0077   0.00    0.0
2019/03/15 01:19:00.000  -25.890102525   27.686983921  1414.2433   6   8   0.0172   0.0214   0.0375   0.0069   0.0065  -0.0030   0.00    0.0
2019/03/15 01:19:30.000  -25.890102511   27.686983886  1414.2527   6   8   0.0166   0.0207   0.0370   0.0071   0.0091  -0.0042   0.00    0.0
2019/03/15 01:20:00.000  -25.890102569   27.686983925  1414.2536   6   8   0.0158   0.0212   0.0365   0.0061   0.0081  -0.0075   0.00    0.0
2019/03/15 01:20:30.000  -25.890102561   27.686983896  1414.2564   6   8   0.0162   0.0210   0.0369   0.0062   0.0071  -0.0064   0.00    0.0
2019/03/15 01:21:00.000  -25.890102592   27.686983918  1414.2578   6   8   0.0159   0.0211   0.0366   0.0067   0.0079  -0.0052   0.00    0.0
2019/03/15 01:21:30.000  -25.890102565   27.686983954  1414.2522   6   8   0.0159   0.0210   0.0365   0.0071   0.0073  -0.0055   0.00    0.0
2019/03/15 01:22:00.000  -25.890102564   27.686983942  1414.2551   6   8   0.0158   0.0210   0.0362   0.0059   0.0088  -0.0037   0.00    0.0
2019/03/15 01:22:30.000  -25.890102575   27.686983903  1414.2561   6   8   0.0157   0.0211   0.0367   0.0077   0.0075  -0.0057   0.00    0.0
2019/03/15 01:23:00.000  -25.890102502   27.686983972  1414.2490   6   9   0.0148   0.0206   0.0345  -0.0027   0.0105   0.0081   0.00    0.0
2019/03/15 01:23:30.000  -25.890102540   27.686984009  1414.2408   6   9   0.0136   0.0199   0.0352   0.0055   0.0107   0.0071   0.00    0.0
2019/03/15 01:24:00.000  -25.890102551   27.686984012  1414.2486   6   9   0.0133   0.0200   0.0350   0.0036   0.0114   0.0069   0.00    0.0
2019/03/15 01:24:30.000  -25.890102526   27.686984011  1414.2448   6   9   0.0133   0.0194   0.0352  -0.0034   0.0111   0.0071   0.00    0.0
2019/03/15 01:25:00.000  -25.890102535   27.686984004  1414.2465   6   9   0.0133   0.0202   0.0356  -0.0015   0.0102   0.0083   0.00    0.0
2019/03/15 01:25:30.000  -25.890102512   27.686984022  1414.2433   6   9   0.0131   0.0202   0.0352  -0.0038   0.0096   0.0073   0.00    0.0
2019/03/15 01:26:00.000  -25.890102513   27.686984073  1414.2344   6   9   0.0133   0.0191   0.0347  -0.0050   0.0119   0.0089   0.00    0.0
2019/03/15 01:26:30.000  -25.890102561   27.686984033  1414.2398   6   9   0.0131   0.0203   0.0353   0.0018   0.0096   0.0076   0.00    0.0
2019/03/15 01:27:00.000  -25.890102525   27.686984018  1414.2401   6   9   0.0135   0.0199   0.0351  -0.0013   0.0111   0.0095   0.00    0.0
2019/03/15 01:27:30.000  -25.890102557   27.686984003  1414.2338   6   9   0.0136   0.0202   0.0349  -0.0036   0.0104   0.0092   0.00    0.0
2019/03/15 01:28:00.000  -25.890102596   27.686984035  1414.2335   6   9   0.0138   0.0191   0.0350  -0.0050   0.0119   0.0104   0.00    0.0
2019/03/15 01:28:30.000  -25.890102615   27.686983938  1414.2348   6   9   0.0133   0.0202   0.0347  -0.0038   0.0098   0.0082   0.00    0.0
2019/03/15 01:29:00.000  -25.890102602   27.686983975  1414.2340   6   9   0.0140   0.0201   0.0349   0.0009   0.0105   0.0097   0.00    0.0
2019/03/15 01:29:30.000  -25.890102612   27.686983978  1414.2292   6   9   0.0138   0.0195   0.0346  -0.0023   0.0119   0.0095   0.00    0.0
2019/03/15 01:30:00.000  -25.890102652   27.686983934  1414.2352   6   9   0.0133   0.0198   0.0354   0.0038   0.0100   0.0093   0.00    0.0
2019/03/15 01:30:30.000  -25.890102610   27.686984032  1414.2263   6   9   0.0124   0.0193   0.0349  -0.0037   0.0107   0.0078   0.00    0.0
2019/03/15 01:31:00.000  -25.890102593   27.686984011  1414.2289   6   9   0.0121   0.0203   0.0346   0.0028   0.0094   0.0053   0.00    0.0
2019/03/15 01:31:30.000  -25.890102596   27.686983990  1414.2297   6   9   0.0136   0.0196   0.0348  -0.0020   0.0118   0.0098   0.00    0.0
2019/03/15 01:32:00.000  -25.890102647   27.686983998  1414.2361   6   9   0.0128   0.0194   0.0347  -0.0033   0.0106   0.0075   0.00    0.0
2019/03/15 01:32:30.000  -25.890102618   27.686984012  1414.2345   6   9   0.0124   0.0200   0.0342  -0.0033   0.0098   0.0069   0.00    0.0
2019/03/15 01:33:00.000  -25.890102635   27.686984004  1414.2357   6   9   0.0131   0.0200   0.0345   0.0006   0.0095   0.0082   0.00    0.0
2019/03/15 01:33:30.000  -25.890102580   27.686984020  1414.2249   6   9   0.0129   0.0193   0.0353  -0.0037   0.0098   0.0095   0.00    0.0
2019/03/15 01:34:00.000  -25.890102588   27.686983990  1414.2327   6   9   0.0131   0.0198   0.0353  -0.0050   0.0099   0.0105   0.00    0.0
2019/03/15 01:34:30.000  -25.890102587   27.686983977  1414.2375   6   9   0.0130   0.0192   0.0349  -0.0046   0.0106   0.0101   0.00    0.0
2019/03/15 01:35:00.000  -25.890102584   27.686983991  1414.2417   6   9   0.0128   0.0200   0.0349   0.0017   0.0105   0.0084   0.00    0.0
2019/03/15 01:35:30.000  -25.890102577   27.686984020  1414.2339   6   9   0.0137   0.0191   0.0347  -0.0037   0.0111   0.0105   0.00    0.0
2019/03/15 01:36:00.000  -25.890102530   27.686984008  1414.2315   6   9   0.0125   0.0193   0.0347  -0.0052   0.0094   0.0098   0.00    0.0
2019/03/15 01:36:30.000  -25.890102587   27.686984012  1414.2317   6   9   0.0127   0.0196   0.0347  -0.0040   0.0094   0.0089   0.00    0.0
2019/03/15 01:37:00.000  -25.890102583   27.686984022  1414.2246   6   9   0.0120   0.0200   0.0348  -0.0025   0.0089   0.0059   0.00    0.0
2019/03/15 01:37:30.000  -25.890102586   27.686983998  1414.2296   6   9   0.0122   0.0198   0.0352  -0.0037   0.0095   0.0085   0.00    0.0
2019/03/15 01:38:00.000  -25.890102607   27.686984009  1414.2290   6   9   0.0130   0.0196   0.0350  -0.0039   0.0093   0.0079   0.00    0.0
2019/03/15 01:38:30.000  -25.890102583   27.686984006  1414.2321   6   9   0.0137   0.0195   0.0355   0.0027   0.0106   0.0109   0.00    0.0
2019/03/15 01:39:00.000  -25.890102543   27.686984021  1414.2297   6   9   0.0129   0.0198   0.0354  -0.0028   0.0097   0.0095   0.00    0.0
2019/03/15 01:39:30.000  -25.890102584   27.686984053  1414.2254   6   9   0.0120   0.0191   0.0352  -0.0055   0.0098   0.0092   0.00    0.0
2019/03/15 01:40:00.000  -25.890102585   27.686984016  1414.2188   6   9   0.0124   0.0200   0.0354   0.0034   0.0091   0.0077   0.00    0.0
2019/03/15 01:40:30.000  -25.890102603   27.686983984  1414.2205   6   9   0.0113   0.0195   0.0353  -0.0047   0.0089   0.0089   0.00    0.0
2019/03/15 01:41:00.000  -25.890102593   27.686983990  1414.2192   6   9   0.0137   0.0196   0.0360  -0.0034   0.0095   0.0113   0.00    0.0
2019/03/15 01:41:30.000  -25.890102585   27.686983987  1414.2218   6   9   0.0124   0.0189   0.0357  -0.0025   0.0100   0.0095   0.00    0.0
2019/03/15 01:42:00.000  -25.890102588   27.686983951  1414.2252   6   9   0.0118   0.0195   0.0353  -0.0033   0.0090   0.0086   0.00    0.0
2019/03/15 01:42:30.000  -25.890102624   27.686984002  1414.2282   6   9   0.0122   0.0184   0.0355  -0.0051   0.0095   0.0095   0.00    0.0
2019/03/15 01:43:00.000  -25.890102586   27.686983980  1414.2298   6   9   0.0118   0.0195   0.0354   0.0011   0.0083   0.0074   0.00    0.0
2019/03/15 01:43:30.000  -25.890102585   27.686983971  1414.2200   6   9   0.0121   0.0190   0.0356  -0.0046   0.0089   0.0095   0.00    0.0
2019/03/15 01:44:00.000  -25.890102607   27.686983997  1414.2167   6   9   0.0117   0.0195   0.0355  -0.0040   0.0089   0.0093   0.00    0.0
2019/03/15 01:44:30.000  -25.890102652   27.686983952  1414.2146   6   9   0.0121   0.0190   0.0356  -0.0028   0.0092   0.0096   0.00    0.0
2019/03/15 01:45:00.000  -25.890102661   27.686983965  1414.2132   6   9   0.0121   0.0194   0.0361  -0.0035   0.0085   0.0101   0.00    0.0
2019/03/15 01:45:30.000  -25.890102635   27.686983984  1414.2087   6   9   0.0130   0.0187   0.0356  -0.0042   0.0098   0.0110   0.00    0.0
2019/03/15 01:46:00.000  -25.890102645   27.686983953  1414.2100   6   9   0.0132   0.0192   0.0360  -0.0050   0.0094   0.0106   0.00    0.0
2019/03/15 01:46:30.000  -25.890102636   27.686983946  1414.2099   6   9   0.0119   0.0189   0.0361  -0.0037   0.0092   0.0088   0.00    0.0
2019/03/15 01:47:00.000  -25.890102647   27.686983977  1414.1988   6   9   0.0119   0.0188   0.0362  -0.0049   0.0096   0.0092   0.00    0.0
2019/03/15 01:47:30.000  -25.890102639   27.686983945  1414.2077   6   9   0.0120   0.0189   0.0358  -0.0044   0.0092   0.0093   0.00    0.0
2019/03/15 01:48:00.000  -25.890102652   27.686983939  1414.2140   6   9   0.0123   0.0187   0.0364  -0.0042   0.0091   0.0101   0.00    0.0
2019/03/15 01:48:30.000  -25.890102639   27.686983965  1414.2037   6   9   0.0115   0.0187   0.0365  -0.0057   0.0084   0.0099   0.00    0.0
2019/03/15 01:49:00.000  -25.890102652   27.686983970  1414.2129   6   9   0.0122   0.0192   0.0362  -0.0037   0.0072   0.0086   0.00    0.0
2019/03/15 01:49:30.000  -25.890102643   27.686983965  1414.2051   6   9   0.0116   0.0189   0.0364  -0.0046   0.0078   0.0097   0.00    0.0
2019/03/15 01:50:00.000  -25.890102671   27.686983959  1414.2155   6   9   0.0125   0.0192   0.0368  -0.0030   0.0078   0.0105   0.00    0.0
2019/03/15 01:50:30.000  -25.890102674   27.686983940  1414.2070   6   9   0.0116   0.0189   0.0364  -0.0037   0.0086   0.0090   0.00    0.0
2019/03/15 01:51:00.000  -25.890102701   27.686983933  1414.1987   6   9   0.0118   0.0185   0.0364  -0.0041   0.0076   0.0088   0.00    0.0
2019/03/15 01:51:30.000  -25.890102688   27.686983921  1414.2134   6   9   0.0119   0.0182   0.0367  -0.0049   0.0086   0.0105   0.00    0.0
2019/03/15 01:52:00.000  -25.890102682   27.686983927  1414.2012   6   9   0.0116   0.0193   0.0370  -0.0043   0.0059   0.0089   0.00    0.0
2019/03/15 01:52:30.000  -25.890102688   27.686983894  1414.2173   6   9   0.0111   0.0187   0.0366  -0.0035   0.0066   0.0087   0.00    0.0
2019/03/15 01:53:00.000  -25.890102690   27.686983896  1414.2125   6   9   0.0117   0.0193   0.0369  -0.0024   0.0076   0.0096   0.00    0.0
2019/03/15 01:53:30.000  -25.890102648   27.686983862  1414.2245   6   9   0.0118   0.0186   0.0367  -0.0029   0.0079   0.0102   0.00    0.0
2019/03/15 01:54:00.000  -25.890102670   27.686983868  1414.2172   6   9   0.0113   0.0190   0.0372  -0.0043   0.0063   0.0080   0.00    0.0
2019/03/15 01:54:30.000  -25.890102638   27.686983858  1414.2176   6   9   0.0126   0.0189   0.0367  -0.0044   0.0068   0.0103   0.00    0.0
2019/03/15 01:55:00.000  -25.890102671   27.686983896  1414.2204   6   9   0.0122   0.0182   0.0371  -0.0035   0.0085   0.0090   0.00    0.0
2019/03/15 01:55:30.000  -25.890102658   27.686983868  1414.2102   6   9   0.0123   0.0191   0.0374  -0.0044   0.0066   0.0111   0.00    0.0
2019/03/15 01:56:00.000  -25.890102681   27.686983830  1414.2138   6   9   0.0118   0.0181   0.0374  -0.0030   0.0073   0.0101   0.00    0.0
2019/03/15 01:56:30.000  -25.890102658   27.686983841  1414.2099   6   9   0.0120   0.0187   0.0374  -0.0031   0.0060   0.0091   0.00    0.0
2019/03/15 01:57:00.000  -25.890102642   27.686983823  1414.2174   6   9   0.0123   0.0188   0.0379  -0.0010   0.0056   0.0097   0.00    0.0
2019/03/15 01:57:30.000  -25.890102672   27.686983823  1414.2054   6   9   0.0125   0.0182   0.0379  -0.0044   0.0062   0.0094   0.00    0.0
2019/03/15 01:58:00.000  -25.890102651   27.686983800  1414.2094   6   9   0.0121   0.0181   0.0376  -0.0054   0.0069   0.0093   0.00    0.0
2019/03/15 01:58:30.000  -25.890102646   27.686983818  1414.2099   6   9   0.0118   0.0185   0.0377  -0.0029   0.0054   0.0097   0.00    0.0
2019/03/15 01:59:00.000  -25.890102681   27.686983822  1414.2038   6   9   0.0122   0.0186   0.0380  -0.0016   0.0053   0.0099   0.00    0.0
2019/03/15 01:59:30.000  -25.890102641   27.686983800  1414.2106   6   9   0.0118   0.0181   0.0381  -0.0028   0.0054   0.0094   0.00    0.0
2019/03/15 02:00:00.000  -25.890102614   27.686983822  1414.2127   6   9   0.0122   0.0181   0.0381  -0.0031   0.0050   0.0090   0.00    0.0
2019/03/15 02:00:30.000  -25.890102618   27.686983831  1414.2077   6   9   0.0105   0.0184   0.0382  -0.0053   0.0038   0.0090   0.00    0.0
2019/03/15 02:01:00.000  -25.890102634   27.686983812  1414.2055   6   9   0.0119   0.0185   0.0382  -0.0051   0.0035   0.0107   0.00    0.0
2019/03/15 02:01:30.000  -25.890102653   27.686983793  1414.2021   6  10   0.0114   0.0188   0.0373  -0.0031   0.0044   0.0107   0.00    0.0
2019/03/15 02:02:00.000  -25.890102691   27.686983767  1414.1982   6  10   0.0118   0.0191   0.0375  -0.0023   0.0036   0.0102   0.00    0.0
2019/03/15 02:02:30.000  -25.890102659   27.686983820  1414.2033   6  10   0.0110   0.0182   0.0373  -0.0066   0.0060   0.0116   0.00    0.0
2019/03/15 02:03:00.000  -25.890102672   27.686983728  1414.2144   6  10   0.0116   0.0188   0.0371  -0.0015   0.0036   0.0110   0.00    0.0
2019/03/15 02:03:30.000  -25.890102657   27.686983793  1414.2106   6  10   0.0120   0.0182   0.0371   0.0031   0.0054   0.0113   0.00    0.0
2019/03/15 02:04:00.000  -25.890102676   27.686983698  1414.2076   6  10   0.0116   0.0192   0.0374   0.0017  -0.0018   0.0103   0.00    0.0
2019/03/15 02:04:30.000  -25.890102657   27.686983748  1414.2160   6  10   0.0110   0.0179   0.0375  -0.0040   0.0057   0.0105   0.00    0.0
2019/03/15 02:05:00.000  -25.890102661   27.686983727  1414.2062   6  10   0.0112   0.0177   0.0375  -0.0045   0.0053   0.0118   0.00    0.0
2019/03/15 02:05:30.000  -25.890102671   27.686983704  1414.2056   6  10   0.0116   0.0191   0.0377  -0.0035  -0.0022   0.0104   0.00    0.0
2019/03/15 02:06:00.000  -25.890102648   27.686983750  1414.2196   6  10   0.0113   0.0177   0.0376  -0.0055   0.0043   0.0116   0.00    0.0
2019/03/15 02:06:30.000  -25.890102635   27.686983745  1414.2097   6  10   0.0124   0.0178   0.0376  -0.0048   0.0038   0.0127   0.00    0.0
2019/03/15 02:07:00.000  -25.890102636   27.686983737  1414.2166   6  10   0.0104   0.0178   0.0383  -0.0046   0.0020   0.0113   0.00    0.0
2019/03/15 02:07:30.000  -25.890102631   27.686983770  1414.2148   6  10   0.0121   0.0179   0.0388  -0.0048  -0.0061   0.0123   0.00    0.0
2019/03/15 02:08:00.000  -25.890102616   27.686983731  1414.2158   6  10   0.0116   0.0181   0.0401  -0.0067  -0.0078   0.0127   0.00    0.0
2019/03/15 02:08:30.000  -25.890102669   27.686983723  1414.2091   6   9   0.0128   0.0195   0.0436  -0.0079  -0.0133   0.0151   0.00    0.0
2019/03/15 02:09:00.000  -25.890102661   27.686983801  1414.2123   6   9   0.0122   0.0201   0.0434  -0.0080  -0.0140   0.0149   0.00    0.0
2019/03/15 02:09:30.000  -25.890102706   27.686983780  1414.1999   6   9   0.0122   0.0196   0.0433  -0.0074  -0.0137   0.0146   0.00    0.0
2019/03/15 02:10:00.000  -25.890102697   27.686983756  1414.2043   6   9   0.0118   0.0198   0.0437  -0.0079  -0.0135   0.0148   0.00    0.0
2019/03/15 02:10:30.000  -25.890102697   27.686983800  1414.2122   6   9   0.0121   0.0201   0.0434  -0.0073  -0.0139   0.0143   0.00    0.0
2019/03/15 02:11:00.000  -25.890102703   27.686983804  1414.2151   6   9   0.0123   0.0202   0.0434  -0.0074  -0.0144   0.0143   0.00    0.0
2019/03/15 02:11:30.000  -25.890102666   27.686983773  1414.2079   6   9   0.0113   0.0193   0.0432  -0.0073  -0.0135   0.0144   0.00    0.0
2019/03/15 02:12:00.000  -25.890102709   27.686983795  1414.2098   6   9   0.0120   0.0193   0.0431  -0.0074  -0.0140   0.0146   0.00    0.0
2019/03/15 02:12:30.000  -25.890102694   27.686983748  1414.2114   6   9   0.0114   0.0195   0.0430  -0.0069  -0.0134   0.0142   0.00    0.0
2019/03/15 02:13:00.000  -25.890102707   27.686983771  1414.2163   6   9   0.0124   0.0195   0.0431  -0.0069  -0.0136   0.0145   0.00    0.0
2019/03/15 02:13:30.000  -25.890102704   27.686983774  1414.2065   6   9   0.0121   0.0201   0.0428  -0.0065  -0.0140   0.0138   0.00    0.0
2019/03/15 02:14:00.000  -25.890102652   27.686983774  1414.2246   6   9   0.0111   0.0194   0.0428  -0.0071  -0.0137   0.0135   0.00    0.0
2019/03/15 02:14:30.000  -25.890102723   27.686983783  1414.2052   6   9   0.0123   0.0194   0.0428  -0.0069  -0.0134   0.0142   0.00    0.0
2019/03/15 02:15:00.000  -25.890102715   27.686983748  1414.2128   6   9   0.0122   0.0194   0.0427  -0.0069  -0.0137   0.0143   0.00    0.0
2019/03/15 02:15:30.000  -25.890102710   27.686983770  1414.2223   6   9   0.0125   0.0191   0.0425  -0.0060  -0.0134   0.0142   0.00    0.0
2019/03/15 02:16:00.000  -25.890102740   27.686983780  1414.2102   6   9   0.0124   0.0194   0.0424  -0.0060  -0.0136   0.0138   0.00    0.0
2019/03/15 02:16:30.000  -25.890102716   27.686983738  1414.2234   6   9   0.0121   0.0192   0.0424  -0.0073  -0.0134   0.0142   0.00    0.0
2019/03/15 02:17:00.000  -25.890102703   27.686983743  1414.2288   6   9   0.0112   0.0199   0.0422  -0.0066  -0.0140   0.0131   0.00    0.0
2019/03/15 02:17:30.000  -25.890102708   27.686983770  1414.2217   6   9   0.0122   0.0193   0.0421  -0.0059  -0.0133   0.0136   0.00    0.0
2019/03/15 02:18:00.000  -25.890102722   27.686983787  1414.2241   6   9   0.0120   0.0196   0.0422  -0.0058  -0.0137   0.0136   0.00    0.0
2019/03/15 02:18:30.000  -25.890102711   27.686983793  1414.2307   6   9   0.0117   0.0198   0.0419  -0.0068  -0.0138   0.0134   0.00    0.0
2019/03/15 02:19:00.000  -25.890102689   27.686983762  1414.2338   6   9   0.0116   0.0199   0.0418  -0.0066  -0.0138   0.0133   0.00    0.0
2019/03/15 02:19:30.000  -25.890102687   27.686983781  1414.2309   6   9   0.0124   0.0187   0.0416  -0.0069  -0.0134   0.0134   0.00    0.0
2019/03/15 02:20:00.000  -25.890102663   27.686983790  1414.2248   6   9   0.0119   0.0191   0.0414  -0.0070  -0.0132   0.0136   0.00    0.0
2019/03/15 02:20:30.000  -25.890102684   27.686983721  1414.2326   6   9   0.0118   0.0192   0.0414  -0.0061  -0.0134   0.0133   0.00    0.0
2019/03/15 02:21:00.000  -25.890102726   27.686983798  1414.2252   6   9   0.0117   0.0191   0.0413  -0.0060  -0.0131   0.0128   0.00    0.0
2019/03/15 02:21:30.000  -25.890102675   27.686983827  1414.2326   6   9   0.0119   0.0188   0.0412  -0.0064  -0.0130   0.0133   0.00    0.0
2019/03/15 02:22:00.000  -25.890102690   27.686983811  1414.2308   6   9   0.0121   0.0190   0.0411  -0.0062  -0.0129   0.0127   0.00    0.0
2019/03/15 02:22:30.000  -25.890102677   27.686983769  1414.2278   6   9   0.0121   0.0195   0.0407  -0.0061  -0.0135   0.0132   0.00    0.0
2019/03/15 02:23:00.000  -25.890102694   27.686983756  1414.2311   6   9   0.0113   0.0191   0.0407  -0.0066  -0.0131   0.0125   0.00    0.0
2019/03/15 02:23:30.000  -25.890102664   27.686983786  1414.2265   6   9   0.0113   0.0187   0.0405  -0.0059  -0.0129   0.0122   0.00    0.0
2019/03/15 02:24:00.000  -25.890102688   27.686983792  1414.2323   6   9   0.0116   0.0192   0.0404  -0.0049  -0.0132   0.0125   0.00    0.0
2019/03/15 02:24:30.000  -25.890102674   27.686983767  1414.2255   6   9   0.0117   0.0192   0.0402  -0.0062  -0.0128   0.0125   0.00    0.0
2019/03/15 02:25:00.000  -25.890102679   27.686983762  1414.2210   6   9   0.0112   0.0187   0.0403  -0.0060  -0.0129   0.0118   0.00    0.0
2019/03/15 02:25:30.000  -25.890102710   27.686983779  1414.2129   6   9   0.0113   0.0189   0.0397  -0.0055  -0.0130   0.0116   0.00    0.0
2019/03/15 02:26:00.000  -25.890102698   27.686983754  1414.2186   6   9   0.0115   0.0193   0.0397  -0.0055  -0.0128   0.0118   0.00    0.0
2019/03/15 02:26:30.000  -25.890102707   27.686983790  1414.2138   6   9   0.0119   0.0185   0.0394  -0.0057  -0.0122   0.0121   0.00    0.0
2019/03/15 02:27:00.000  -25.890102706   27.686983752  1414.2199   6   9   0.0113   0.0193   0.0390  -0.0051  -0.0129   0.0105   0.00    0.0
2019/03/15 02:27:30.000  -25.890102679   27.686983757  1414.2182   6   9   0.0114   0.0187   0.0395  -0.0052  -0.0124   0.0113   0.00    0.0
2019/03/15 02:28:00.000  -25.890102673   27.686983737  1414.2255   6   9   0.0115   0.0187   0.0389  -0.0062  -0.0122   0.0115   0.00    0.0
2019/03/15 02:28:30.000  -25.890102643   27.686983772  1414.2139   6   9   0.0118   0.0185   0.0390  -0.0051  -0.0119   0.0113   0.00    0.0
2019/03/15 02:29:00.000  -25.890102642   27.686983777  1414.2152   6   9   0.0111   0.0188   0.0387  -0.0057  -0.0127   0.0113   0.00    0.0
2019/03/15 02:29:30.000  -25.890102671   27.686983781  1414.2111   6   9   0.0106   0.0184   0.0385  -0.0038  -0.0117   0.0106   0.00    0.0
2019/03/15 02:30:00.000  -25.890102641   27.686983736  1414.2156   6  10   0.0111   0.0188   0.0367  -0.0056  -0.0125   0.0094   0.00    0.0
2019/03/15 02:30:30.000  -25.890102654   27.686983748  1414.2159   6  10   0.0114   0.0192   0.0360  -0.0037  -0.0122   0.0085   0.00    0.0
2019/03/15 02:31:00.000  -25.890102668   27.686983783  1414.2094   6  10   0.0106   0.0185   0.0355  -0.0038  -0.0116   0.0076   0.00    0.0
2019/03/15 02:31:30.000  -25.890102670   27.686983744  1414.2069   6  10   0.0110   0.0182   0.0352  -0.0038  -0.0112   0.0082   0.00    0.0
2019/03/15 02:32:00.000  -25.890102661   27.686983771  1414.2158   6  10   0.0109   0.0187   0.0351  -0.0046  -0.0118   0.0076   0.00    0.0
2019/03/15 02:32:30.000  -25.890102666   27.686983729  1414.2146   6  10   0.0109   0.0181   0.0350  -0.0049  -0.0112   0.0076   0.00    0.0
2019/03/15 02:33:00.000  -25.890102658   27.686983746  1414.2190   6  10   0.0107   0.0185   0.0349  -0.0024  -0.0107   0.0070   0.00    0.0
2019/03/15 02:33:30.000  -25.890102676   27.686983748  1414.2133   6  10   0.0111   0.0189   0.0346  -0.0036  -0.0113   0.0085   0.00    0.0
2019/03/15 02:34:00.000  -25.890102660   27.686983733  1414.2111   6  10   0.0108   0.0183   0.0341  -0.0047  -0.0120   0.0076   0.00    0.0
2019/03/15 02:34:30.000  -25.890102658   27.686983703  1414.2224   6  10   0.0110   0.0170   0.0341  -0.0050  -0.0098   0.0074   0.00    0.0
2019/03/15 02:35:00.000  -25.890102651   27.686983728  1414.2182   6  10   0.0104   0.0177   0.0339  -0.0043  -0.0114   0.0073   0.00    0.0
2019/03/15 02:35:30.000  -25.890102638   27.686983759  1414.2108   6  10   0.0103   0.0185   0.0338  -0.0043  -0.0110   0.0054   0.00    0.0
2019/03/15 02:36:00.000  -25.890102614   27.686983690  1414.2229   6  10   0.0102   0.0177   0.0341  -0.0032  -0.0106   0.0059   0.00    0.0
2019/03/15 02:36:30.000  -25.890102615   27.686983678  1414.2169   6  10   0.0108   0.0184   0.0336  -0.0034  -0.0115   0.0055   0.00    0.0
2019/03/15 02:37:00.000  -25.890102641   27.686983681  1414.2234   6  10   0.0112   0.0181   0.0336  -0.0010  -0.0113   0.0059   0.00    0.0
2019/03/15 02:37:30.000  -25.890102637   27.686983684  1414.2229   6  10   0.0111   0.0187   0.0332  -0.0038  -0.0116   0.0065   0.00    0.0
2019/03/15 02:38:00.000  -25.890102593   27.686983690  1414.2228   6  10   0.0112   0.0186   0.0332  -0.0012  -0.0110   0.0048   0.00    0.0
2019/03/15 02:38:30.000  -25.890102611   27.686983704  1414.2181   6  10   0.0117   0.0183   0.0329  -0.0031  -0.0101   0.0074   0.00    0.0
2019/03/15 02:39:00.000  -25.890102609   27.686983761  1414.2139   6  10   0.0099   0.0184   0.0331  -0.0043  -0.0114   0.0046   0.00    0.0
2019/03/15 02:39:30.000  -25.890102623   27.686983714  1414.2200   6  10   0.0097   0.0187   0.0327  -0.0038  -0.0118   0.0047   0.00    0.0
2019/03/15 02:40:00.000  -25.890102639   27.686983691  1414.2237   6  10   0.0112   0.0183   0.0327  -0.0024  -0.0106   0.0064   0.00    0.0
2019/03/15 02:40:30.000  -25.890102618   27.686983649  1414.2162   6  10   0.0093   0.0177   0.0327  -0.0033  -0.0111   0.0044   0.00    0.0
2019/03/15 02:41:00.000  -25.890102627   27.686983667  1414.2227   6  10   0.0110   0.0184   0.0321   0.0020  -0.0103   0.0052   0.00    0.0
2019/03/15 02:41:30.000  -25.890102587   27.686983645  1414.2222   6  10   0.0108   0.0175   0.0327  -0.0012  -0.0103   0.0039   0.00    0.0
2019/03/15 02:42:00.000  -25.890102619   27.686983695  1414.2151   6  10   0.0111   0.0182   0.0319  -0.0034  -0.0106   0.0059   0.00    0.0
2019/03/15 02:42:30.000  -25.890102619   27.686983679  1414.2196   6  10   0.0112   0.0179   0.0322   0.0004  -0.0107   0.0042   0.00    0.0
2019/03/15 02:43:00.000  -25.890102588   27.686983693  1414.2199   6  10   0.0116   0.0178   0.0319   0.0016  -0.0103   0.0062   0.00    0.0
2019/03/15 02:43:30.000  -25.890102566   27.686983686  1414.2319   6  10   0.0098   0.0185   0.0316  -0.0036  -0.0112   0.0029   0.00    0.0
2019/03/15 02:44:00.000  -25.890102592   27.686983697  1414.2178   6  10   0.0106   0.0179   0.0314  -0.0024  -0.0114   0.0032   0.00    0.0
2019/03/15 02:44:30.000  -25.890102586   27.686983726  1414.2204   6  10   0.0109   0.0184   0.0319   0.0002  -0.0107   0.0039   0.00    0.0
2019/03/15 02:45:00.000  -25.890102587   27.686983713  1414.2292   6  10   0.0105   0.0185   0.0313  -0.0007  -0.0110   0.0037   0.00    0.0
2019/03/15 02:45:30.000  -25.890102608   27.686983733  1414.2222   6  10   0.0113   0.0182   0.0313  -0.0038  -0.0109   0.0028   0.00    0.0
2019/03/15 02:46:00.000  -25.890102579   27.686983698  1414.2262   6  10   0.0112   0.0186   0.0314  -0.0025  -0.0110   0.0042   0.00    0.0
2019/03/15 02:46:30.000  -25.890102568   27.686983716  1414.2356   6  10   0.0103   0.0186   0.0312   0.0018  -0.0108   0.0017   0.00    0.0
2019/03/15 02:47:00.000  -25.890102588   27.686983724  1414.2215   6  10   0.0104   0.0177   0.0302  -0.0036  -0.0105   0.0035   0.00    0.0
2019/03/15 02:47:30.000  -25.890102549   27.686983665  1414.2289   6  10   0.0111   0.0175   0.0311   0.0030  -0.0100  -0.0024   0.00    0.0
2019/03/15 02:48:00.000  -25.890102557   27.686983684  1414.2231   6  10   0.0113   0.0181   0.0311  -0.0009  -0.0106   0.0034   0.00    0.0
2019/03/15 02:48:30.000  -25.890102575   27.686983664  1414.2344   6  10   0.0107   0.0178   0.0312   0.0029  -0.0101   0.0022   0.00    0.0
2019/03/15 02:49:00.000  -25.890102553   27.686983712  1414.2294   6  10   0.0098   0.0181   0.0303  -0.0036  -0.0108   0.0033   0.00    0.0
2019/03/15 02:49:30.000  -25.890102577   27.686983686  1414.2277   6  10   0.0110   0.0183   0.0303  -0.0029  -0.0112  -0.0016   0.00    0.0
2019/03/15 02:50:00.000  -25.890102560   27.686983698  1414.2394   6  10   0.0112   0.0182   0.0304  -0.0028  -0.0107   0.0032   0.00    0.0
2019/03/15 02:50:30.000  -25.890102567   27.686983645  1414.2321   6  10   0.0104   0.0176   0.0305   0.0031  -0.0105  -0.0023   0.00    0.0
2019/03/15 02:51:00.000  -25.890102567   27.686983634  1414.2348   6  10   0.0111   0.0183   0.0305   0.0029  -0.0111   0.0028   0.00    0.0
2019/03/15 02:51:30.000  -25.890102574   27.686983693  1414.2303   6  10   0.0100   0.0180   0.0302  -0.0035  -0.0109  -0.0042   0.00    0.0
2019/03/15 02:52:00.000  -25.890102581   27.686983679  1414.2293   6  10   0.0113   0.0183   0.0302   0.0030  -0.0103   0.0002   0.00    0.0
2019/03/15 02:52:30.000  -25.890102575   27.686983660  1414.2338   6  10   0.0120   0.0181   0.0306   0.0053  -0.0087   0.0019   0.00    0.0
2019/03/15 02:53:00.000  -25.890102564   27.686983650  1414.2392   6  10   0.0110   0.0175   0.0299  -0.0014  -0.0109  -0.0008   0.00    0.0
2019/03/15 02:53:30.000  -25.890102555   27.686983719  1414.2329   6  10   0.0113   0.0180   0.0302   0.0038  -0.0099  -0.0017   0.00    0.0
2019/03/15 02:54:00.000  -25.890102598   27.686983696  1414.2313   6  10   0.0106   0.0182   0.0298   0.0032  -0.0116  -0.0038   0.00    0.0
2019/03/15 02:54:30.000  -25.890102557   27.686983741  1414.2341   6  10   0.0108   0.0174   0.0298   0.0045  -0.0093  -0.0052   0.00    0.0
2019/03/15 02:55:00.000  -25.890102588   27.686983716  1414.2323   6   9   0.0116   0.0181   0.0313   0.0050  -0.0103  -0.0061   0.00    0.0
2019/03/15 02:55:30.000  -25.890102614   27.686983754  1414.2312   6  10   0.0116   0.0183   0.0300   0.0036  -0.0103  -0.0057   0.00    0.0
2019/03/15 02:56:00.000  -25.890102601   27.686983695  1414.2402   6   9   0.0114   0.0175   0.0312   0.0033  -0.0102  -0.0063   0.00    0.0
2019/03/15 02:56:30.000  -25.890102628   27.686983722  1414.2423   6  10   0.0121   0.0178   0.0310   0.0041  -0.0100  -0.0061   0.00    0.0
2019/03/15 02:57:00.000  -25.890102631   27.686983671  1414.2407   6   9   0.0116   0.0175   0.0309   0.0039  -0.0103  -0.0062   0.00    0.0
2019/03/15 02:57:30.000  -25.890102596   27.686983674  1414.2378   6   9   0.0107   0.0172   0.0307   0.0031  -0.0095  -0.0074   0.00    0.0
2019/03/15 02:58:00.000  -25.890102590   27.686983632  1414.2388   6  10   0.0109   0.0181   0.0304   0.0036  -0.0105  -0.0073   0.00    0.0
2019/03/15 02:58:30.000  -25.890102603   27.686983691  1414.2373   6   9   0.0118   0.0184   0.0301   0.0035  -0.0110  -0.0074   0.00    0.0
2019/03/15 02:59:00.000  -25.890102619   27.686983702  1414.2339   6   9   0.0118   0.0176   0.0307   0.0023  -0.0105  -0.0064   0.00    0.0
2019/03/15 02:59:30.000  -25.890102587   27.686983698  1414.2349   6   9   0.0120   0.0183   0.0306   0.0053  -0.0102  -0.0081   0.00    0.0
2019/03/15 03:00:00.000  -25.890102594   27.686983695  1414.2483   6   9   0.0119   0.0185   0.0305   0.0045  -0.0105  -0.0075   0.00    0.0
2019/03/15 03:00:30.000  -25.890102623   27.686983671  1414.2441   6   9   0.0122   0.0186   0.0305   0.0050  -0.0100  -0.0089   0.00    0.0
2019/03/15 03:01:00.000  -25.890102601   27.686983699  1414.2377   6   9   0.0117   0.0181   0.0301   0.0046  -0.0108  -0.0076   0.00    0.0
2019/03/15 03:01:30.000  -25.890102609   27.686983765  1414.2403   6   9   0.0121   0.0181   0.0302   0.0029  -0.0110  -0.0076   0.00    0.0
2019/03/15 03:02:00.000  -25.890102606   27.686983758  1414.2288   6   9   0.0120   0.0174   0.0309   0.0038  -0.0104  -0.0085   0.00    0.0
2019/03/15 03:02:30.000  -25.890102592   27.686983733  1414.2394   6   9   0.0114   0.0178   0.0303   0.0056  -0.0101  -0.0076   0.00    0.0
2019/03/15 03:03:00.000  -25.890102596   27.686983728  1414.2447   6   9   0.0120   0.0179   0.0299   0.0053  -0.0103  -0.0085   0.00    0.0
2019/03/15 03:03:30.000  -25.890102557   27.686983778  1414.2407   6   9   0.0120   0.0180   0.0300   0.0039  -0.0105  -0.0076   0.00    0.0
2019/03/15 03:04:00.000  -25.890102547   27.686983753  1414.2435   6   9   0.0127   0.0178   0.0303   0.0049  -0.0094  -0.0085   0.00    0.0
2019/03/15 03:04:30.000  -25.890102589   27.686983738  1414.2434   6   9   0.0114   0.0175   0.0297   0.0046  -0.0105  -0.0075   0.00    0.0
2019/03/15 03:05:00.000  -25.890102581   27.686983784  1414.2265   6   9   0.0125   0.0182   0.0300   0.0038  -0.0101  -0.0065   0.00    0.0
2019/03/15 03:05:30.000  -25.890102564   27.686983735  1414.2367   6   9   0.0115   0.0175   0.0300   0.0046  -0.0100  -0.0082   0.00    0.0
2019/03/15 03:06:00.000  -25.890102585   27.686983770  1414.2353   6   9   0.0121   0.0175   0.0296   0.0047  -0.0098  -0.0077   0.00    0.0
2019/03/15 03:06:30.000  -25.890102568   27.686983742  1414.2284   6   9   0.0118   0.0180   0.0299   0.0040  -0.0102  -0.0088   0.00    0.0
2019/03/15 03:07:00.000  -25.890102571   27.686983740  1414.2426   6   9   0.0119   0.0176   0.0298   0.0053  -0.0095  -0.0082   0.00    0.0
2019/03/15 03:07:30.000  -25.890102541   27.686983775  1414.2295   6   9   0.0127   0.0179   0.0295   0.0043  -0.0092  -0.0081   0.00    0.0
2019/03/15 03:08:00.000  -25.890102538   27.686983736  1414.2319   6   9   0.0115   0.0177   0.0298   0.0060  -0.0095  -0.0094   0.00    0.0
2019/03/15 03:08:30.000  -25.890102513   27.686983722  1414.2284   6   9   0.0124   0.0179   0.0300   0.0059  -0.0093  -0.0084   0.00    0.0
2019/03/15 03:09:00.000  -25.890102541   27.686983684  1414.2369   6   9   0.0126   0.0182   0.0302   0.0053  -0.0103  -0.0094   0.00    0.0
2019/03/15 03:09:30.000  -25.890102556   27.686983776  1414.2333   6   9   0.0129   0.0177   0.0302   0.0054  -0.0091  -0.0095   0.00    0.0
2019/03/15 03:10:00.000  -25.890102531   27.686983733  1414.2292   6   9   0.0120   0.0181   0.0297   0.0058  -0.0095  -0.0091   0.00    0.0
2019/03/15 03:10:30.000  -25.890102555   27.686983701  1414.2352   6   9   0.0128   0.0180   0.0301   0.0055  -0.0101  -0.0095   0.00    0.0
2019/03/15 03:11:00.000  -25.890102515   27.686983711  1414.2315   6   9   0.0124   0.0181   0.0291   0.0038  -0.0097  -0.0067   0.00    0.0
2019/03/15 03:11:30.000  -25.890102535   27.686983731  1414.2297   6   9   0.0128   0.0177   0.0298   0.0056  -0.0091  -0.0083   0.00    0.0
2019/03/15 03:12:00.000  -25.890102529   27.686983795  1414.2266   6   9   0.0129   0.0177   0.0296   0.0056  -0.0097  -0.0081   0.00    0.0
2019/03/15 03:12:30.000  -25.890102508   27.686983749  1414.2301   6   9   0.0121   0.0175   0.0298   0.0066  -0.0093  -0.0088   0.00    0.0
2019/03/15 03:13:00.000  -25.890102533   27.686983747  1414.2427   6   9   0.0133   0.0181   0.0301   0.0046  -0.0094  -0.0091   0.00    0.0
2019/03/15 03:13:30.000  -25.890102514   27.686983724  1414.2381   6   9   0.0131   0.0177   0.0297   0.0059  -0.0093  -0.0084   0.00    0.0
2019/03/15 03:14:00.000  -25.890102551   27.686983708  1414.2487   6   9   0.0134   0.0176   0.0303   0.0057  -0.0094  -0.0092   0.00    0.0
2019/03/15 03:14:30.000  -25.890102555   27.686983695  1414.2462   6   9   0.0128   0.0176   0.0298   0.0050  -0.0087  -0.0098   0.00    0.0
2019/03/15 03:15:00.000  -25.890102469   27.686983747  1414.2455   6   9   0.0128   0.0179   0.0294   0.0051  -0.0097  -0.0096   0.00    0.0
2019/03/15 03:15:30.000  -25.890102528   27.686983767  1414.2417   6   9   0.0129   0.0178   0.0300   0.0052  -0.0096  -0.0107   0.00    0.0
2019/03/15 03:16:00.000  -25.890102517   27.686983780  1414.2364   6   9   0.0133   0.0180   0.0295   0.0047  -0.0090  -0.0092   0.00    0.0
2019/03/15 03:16:30.000  -25.890102516   27.686983785  1414.2415   6   9   0.0125   0.0177   0.0294   0.0042  -0.0094  -0.0113   0.00    0.0
2019/03/15 03:17:00.000  -25.890102526   27.686983757  1414.2285   6   9   0.0129   0.0179   0.0295   0.0045  -0.0098  -0.0097   0.00    0.0
2019/03/15 03:17:30.000  -25.890102518   27.686983745  1414.2396   6   9   0.0134   0.0180   0.0294   0.0066  -0.0092  -0.0098   0.00    0.0
2019/03/15 03:18:00.000  -25.890102525   27.686983787  1414.2343   6   9   0.0132   0.0179   0.0295   0.0061  -0.0094  -0.0102   0.00    0.0
2019/03/15 03:18:30.000  -25.890102515   27.686983787  1414.2349   6   9   0.0126   0.0176   0.0297   0.0062  -0.0088  -0.0092   0.00    0.0
2019/03/15 03:19:00.000  -25.890102510   27.686983821  1414.2300   6   9   0.0134   0.0175   0.0299   0.0061  -0.0088  -0.0094   0.00    0.0
2019/03/15 03:19:30.000  -25.890102522   27.686983756  1414.2358   6   9   0.0130   0.0179   0.0294   0.0062  -0.0098  -0.0110   0.00    0.0
2019/03/15 03:20:00.000  -25.890102511   27.686983788  1414.2350   6   9   0.0139   0.0177   0.0301   0.0058  -0.0085  -0.0095   0.00    0.0
2019/03/15 03:20:30.000  -25.890102424   27.686983733  1414.2348   6   9   0.0134   0.0175   0.0296   0.0067  -0.0076  -0.0101   0.00    0.0
2019/03/15 03:21:00.000  -25.890102494   27.686983788  1414.2379   6   9   0.0134   0.0177   0.0300   0.0070  -0.0087  -0.0092   0.00    0.0
2019/03/15 03:21:30.000  -25.890102514   27.686983781  1414.2288   6   9   0.0136   0.0179   0.0300   0.0071  -0.0091  -0.0110   0.00    0.0
2019/03/15 03:22:00.000  -25.890102501   27.686983753  1414.2269   6   9   0.0130   0.0179   0.0298   0.0063  -0.0086  -0.0101   0.00    0.0
2019/03/15 03:22:30.000  -25.890102453   27.686983764  1414.2231   6   9   0.0131   0.0178   0.0298   0.0072  -0.0083  -0.0099   0.00    0.0
2019/03/15 03:23:00.000  -25.890102534   27.686983747  1414.2254   6   9   0.0136   0.0176   0.0297   0.0071  -0.0090  -0.0117   0.00    0.0
2019/03/15 03:23:30.000  -25.890102531   27.686983769  1414.2187   6   9   0.0137   0.0179   0.0298   0.0063  -0.0093  -0.0096   0.00    0.0
2019/03/15 03:24:00.000  -25.890102484   27.686983747  1414.2129   6   9   0.0135   0.0173   0.0301   0.0071  -0.0080  -0.0114   0.00    0.0
2019/03/15 03:24:30.000  -25.890102476   27.686983767  1414.2264   6   9   0.0137   0.0177   0.0300   0.0074  -0.0080  -0.0110   0.00    0.0
2019/03/15 03:25:00.000  -25.890102481   27.686983718  1414.2299   6   9   0.0140   0.0180   0.0303   0.0068  -0.0090  -0.0118   0.00    0.0
2019/03/15 03:25:30.000  -25.890102441   27.686983747  1414.2199   6   9   0.0137   0.0177   0.0300   0.0058  -0.0090  -0.0117   0.00    0.0
2019/03/15 03:26:00.000  -25.890102477   27.686983772  1414.2242   6   9   0.0144   0.0176   0.0309   0.0062  -0.0079  -0.0122   0.00    0.0
2019/03/15 03:26:30.000  -25.890102466   27.686983747  1414.2174   6   9   0.0148   0.0180   0.0315   0.0062  -0.0078  -0.0129   0.00    0.0
2019/03/15 03:27:00.000  -25.890102432   27.686983730  1414.2099   6   8   0.0153   0.0180   0.0323   0.0050  -0.0078  -0.0138   0.00    0.0
2019/03/15 03:27:30.000  -25.890102433   27.686983758  1414.2079   6   8   0.0151   0.0181   0.0325   0.0062  -0.0069  -0.0138   0.00    0.0
2019/03/15 03:28:00.000  -25.890102474   27.686983730  1414.2119   6   8   0.0153   0.0178   0.0327   0.0059  -0.0071  -0.0141   0.00    0.0
2019/03/15 03:28:30.000  -25.890102463   27.686983750  1414.2168   6   8   0.0155   0.0179   0.0333   0.0052  -0.0071  -0.0144   0.00    0.0
2019/03/15 03:29:00.000  -25.890102458   27.686983772  1414.2248   6   8   0.0156   0.0178   0.0329   0.0066  -0.0065  -0.0135   0.00    0.0
