% program   : RTKPOST ver.2.4.2
% inp file  : D:\WORK\madrid\MAD2 01032019-01052019\mad20610.19o
% inp file  : D:\WORK\madrid\MAD2 01032019-01052019\mad20*.19n
% inp file  : D:\WORK\madrid\rtklib_2.4.2_bin\rtklib_2.4.2\data\final sp3\Sta20*.sp3
% inp file  : D:\WORK\madrid\MAD2 01032019-01052019\final CLK\19061\final\*.clk
% obs start : 2019/03/02 00:00:00.0 GPST (week2042 518400.0s)
% obs end   : 2019/03/02 23:59:30.0 GPST (week2042 604770.0s)
% pos mode  : ppp-kinematic
% solution  : combined
% elev mask : 15.0 deg
% dynamics  : off
% tidecorr  : off
% tropo opt : est ztd+grad
% ephemeris : precise
% antenna1  : AOAD/M_T        NONE  ( 0.0000  0.0000  0.0250)
%
% (lat/lon/height=WGS84/geodetic,Q=1:fix,2:float,3:sbas,4:dgps,5:single,6:ppp,ns=# of satellites)
%  GPST                  latitude(deg) longitude(deg)  height(m)   Q  ns   sdn(m)   sde(m)   sdu(m)  sdne(m)  sdeu(m)  sdun(m) age(s)  ratio
2019/03/02 00:00:00.000   40.429163762   -4.249655944   829.5138   6  10   0.0199   0.0161   0.0437   0.0119   0.0153   0.0049   0.00    0.0
2019/03/02 00:00:30.000   40.429163758   -4.249655980   829.5131   6  11   0.0179   0.0130   0.0414   0.0033   0.0112  -0.0116   0.00    0.0
2019/03/02 00:01:00.000   40.429163849   -4.249655963   829.5014   6  11   0.0180   0.0153   0.0405   0.0078   0.0146  -0.0117   0.00    0.0
2019/03/02 00:01:30.000   40.429163837   -4.249655983   829.5024   6  11   0.0166   0.0153   0.0405   0.0092   0.0117  -0.0124   0.00    0.0
2019/03/02 00:02:00.000   40.429163853   -4.249655989   829.4933   6  11   0.0174   0.0168   0.0417   0.0086   0.0087  -0.0114   0.00    0.0
2019/03/02 00:02:30.000   40.429163795   -4.249656008   829.5035   6  11   0.0176   0.0149   0.0413   0.0018   0.0112  -0.0098   0.00    0.0
2019/03/02 00:03:00.000   40.429163791   -4.249655995   829.5058   6  11   0.0168   0.0162   0.0411   0.0032   0.0130  -0.0108   0.00    0.0
2019/03/02 00:03:30.000   40.429163756   -4.249656042   829.5116   6  11   0.0167   0.0153   0.0413   0.0050   0.0112  -0.0094   0.00    0.0
2019/03/02 00:04:00.000   40.429163780   -4.249655995   829.5056   6  11   0.0169   0.0181   0.0419   0.0072   0.0063  -0.0106   0.00    0.0
2019/03/02 00:04:30.000   40.429163829   -4.249656035   829.5054   6  11   0.0162   0.0149   0.0415   0.0098   0.0106  -0.0094   0.00    0.0
2019/03/02 00:05:00.000   40.429163884   -4.249656044   829.4920   6  11   0.0187   0.0168   0.0422   0.0048   0.0133  -0.0111   0.00    0.0
2019/03/02 00:05:30.000   40.429163939   -4.249656171   829.4643   6  11   0.0165   0.0175   0.0416   0.0038   0.0113  -0.0098   0.00    0.0
2019/03/02 00:06:00.000   40.429163870   -4.249656192   829.4686   6  11   0.0167   0.0158   0.0413   0.0068   0.0113  -0.0099   0.00    0.0
2019/03/02 00:06:30.000   40.429163827   -4.249656123   829.4781   6  11   0.0158   0.0178   0.0419   0.0091   0.0081  -0.0101   0.00    0.0
2019/03/02 00:07:00.000   40.429163771   -4.249656124   829.4811   6  11   0.0183   0.0160   0.0400   0.0110   0.0117  -0.0104   0.00    0.0
2019/03/02 00:07:30.000   40.429163737   -4.249656068   829.4866   6  11   0.0166   0.0168   0.0410   0.0068   0.0118  -0.0109   0.00    0.0
2019/03/02 00:08:00.000   40.429163722   -4.249656057   829.4951   6  11   0.0152   0.0172   0.0415   0.0074   0.0106  -0.0080   0.00    0.0
2019/03/02 00:08:30.000   40.429163718   -4.249656124   829.4856   6  11   0.0175   0.0149   0.0398   0.0036   0.0122  -0.0105   0.00    0.0
2019/03/02 00:09:00.000   40.429163807   -4.249656130   829.4815   6  11   0.0158   0.0159   0.0423   0.0062   0.0104  -0.0100   0.00    0.0
2019/03/02 00:09:30.000   40.429163906   -4.249656158   829.4675   6  11   0.0162   0.0188   0.0421   0.0079   0.0088  -0.0067   0.00    0.0
2019/03/02 00:10:00.000   40.429163898   -4.249656194   829.4651   6  11   0.0151   0.0159   0.0403   0.0071   0.0123  -0.0087   0.00    0.0
2019/03/02 00:10:30.000   40.429163930   -4.249656232   829.4626   6  11   0.0163   0.0149   0.0414   0.0083   0.0097  -0.0105   0.00    0.0
2019/03/02 00:11:00.000   40.429163882   -4.249656259   829.4670   6  11   0.0170   0.0157   0.0412   0.0066   0.0106  -0.0106   0.00    0.0
2019/03/02 00:11:30.000   40.429163841   -4.249656180   829.4805   6  11   0.0171   0.0146   0.0409   0.0075   0.0123  -0.0107   0.00    0.0
2019/03/02 00:12:00.000   40.429163812   -4.249656066   829.5073   6  11   0.0162   0.0165   0.0422   0.0075   0.0105  -0.0095   0.00    0.0
2019/03/02 00:12:30.000   40.429163850   -4.249656136   829.5044   6  11   0.0166   0.0154   0.0418   0.0037   0.0103  -0.0110   0.00    0.0
2019/03/02 00:13:00.000   40.429163897   -4.249656114   829.5001   6  11   0.0149   0.0163   0.0404   0.0073   0.0114  -0.0082   0.00    0.0
2019/03/02 00:13:30.000   40.429163927   -4.249656072   829.4999   6  11   0.0178   0.0162   0.0401   0.0088   0.0111  -0.0117   0.00    0.0
2019/03/02 00:14:00.000   40.429163948   -4.249656141   829.4909   6  11   0.0155   0.0159   0.0411   0.0056   0.0121  -0.0103   0.00    0.0
2019/03/02 00:14:30.000   40.429163956   -4.249656151   829.4850   6  11   0.0157   0.0166   0.0405   0.0075   0.0111  -0.0093   0.00    0.0
2019/03/02 00:15:00.000   40.429163932   -4.249656203   829.4840   6  11   0.0166   0.0170   0.0408   0.0086   0.0119  -0.0111   0.00    0.0
2019/03/02 00:15:30.000   40.429163919   -4.249656168   829.4791   6  11   0.0157   0.0172   0.0402   0.0068   0.0097  -0.0092   0.00    0.0
2019/03/02 00:16:00.000   40.429163926   -4.249656196   829.4922   6  11   0.0174   0.0154   0.0399   0.0071   0.0128  -0.0116   0.00    0.0
2019/03/02 00:16:30.000   40.429163873   -4.249656146   829.4879   6  11   0.0167   0.0169   0.0405   0.0094   0.0091  -0.0136   0.00    0.0
2019/03/02 00:17:00.000   40.429163903   -4.249656176   829.4864   6  11   0.0168   0.0162   0.0392   0.0054   0.0123  -0.0107   0.00    0.0
2019/03/02 00:17:30.000   40.429163926   -4.249656050   829.4995   6  11   0.0159   0.0163   0.0408   0.0075   0.0108  -0.0107   0.00    0.0
2019/03/02 00:18:00.000   40.429163952   -4.249656054   829.4996   6  11   0.0146   0.0156   0.0409   0.0089   0.0106  -0.0093   0.00    0.0
2019/03/02 00:18:30.000   40.429163942   -4.249656038   829.5047   6  11   0.0161   0.0165   0.0405   0.0075   0.0101  -0.0115   0.00    0.0
2019/03/02 00:19:00.000   40.429163889   -4.249656077   829.5029   6  11   0.0163   0.0171   0.0403   0.0083   0.0107  -0.0124   0.00    0.0
2019/03/02 00:19:30.000   40.429163933   -4.249656073   829.5028   6  11   0.0159   0.0141   0.0391   0.0059   0.0135  -0.0129   0.00    0.0
2019/03/02 00:20:00.000   40.429164036   -4.249656073   829.5050   6  11   0.0168   0.0159   0.0398   0.0067   0.0137  -0.0129   0.00    0.0
2019/03/02 00:20:30.000   40.429163997   -4.249656135   829.5120   6  11   0.0178   0.0144   0.0397   0.0052   0.0133  -0.0148   0.00    0.0
2019/03/02 00:21:00.000   40.429164041   -4.249656220   829.4961   6  11   0.0162   0.0130   0.0395   0.0084   0.0099  -0.0132   0.00    0.0
2019/03/02 00:21:30.000   40.429164033   -4.249656120   829.4955   6  11   0.0158   0.0151   0.0402   0.0046   0.0101  -0.0117   0.00    0.0
2019/03/02 00:22:00.000   40.429163986   -4.249656096   829.4935   6  11   0.0155   0.0166   0.0405   0.0043   0.0093  -0.0110   0.00    0.0
2019/03/02 00:22:30.000   40.429163998   -4.249656175   829.4837   6  11   0.0160   0.0166   0.0410   0.0078   0.0122  -0.0150   0.00    0.0
2019/03/02 00:23:00.000   40.429163972   -4.249656131   829.4924   6  10   0.0165   0.0157   0.0410   0.0056   0.0121  -0.0152   0.00    0.0
2019/03/02 00:23:30.000   40.429163945   -4.249656078   829.4966   6  10   0.0163   0.0169   0.0413   0.0043   0.0108  -0.0139   0.00    0.0
2019/03/02 00:24:00.000   40.429164016   -4.249656067   829.4941   6  10   0.0158   0.0177   0.0405   0.0055   0.0123  -0.0139   0.00    0.0
2019/03/02 00:24:30.000   40.429163933   -4.249655984   829.5015   6  10   0.0163   0.0173   0.0414   0.0056   0.0094  -0.0143   0.00    0.0
2019/03/02 00:25:00.000   40.429164015   -4.249655985   829.5071   6  10   0.0161   0.0166   0.0419   0.0069   0.0112  -0.0157   0.00    0.0
2019/03/02 00:25:30.000   40.429164012   -4.249656005   829.4963   6  10   0.0157   0.0159   0.0411   0.0061   0.0102  -0.0145   0.00    0.0
2019/03/02 00:26:00.000   40.429164021   -4.249656038   829.4886   6  10   0.0163   0.0163   0.0405   0.0048   0.0110  -0.0146   0.00    0.0
2019/03/02 00:26:30.000   40.429163968   -4.249656073   829.4820   6  10   0.0164   0.0171   0.0409   0.0047   0.0104  -0.0148   0.00    0.0
2019/03/02 00:27:00.000   40.429164014   -4.249656088   829.4745   6  10   0.0156   0.0159   0.0409   0.0061   0.0101  -0.0145   0.00    0.0
2019/03/02 00:27:30.000   40.429164005   -4.249656134   829.4688   6  10   0.0164   0.0150   0.0408  -0.0024   0.0131  -0.0151   0.00    0.0
2019/03/02 00:28:00.000   40.429164040   -4.249656111   829.4649   6  10   0.0149   0.0151   0.0408   0.0061   0.0106  -0.0145   0.00    0.0
2019/03/02 00:28:30.000   40.429164044   -4.249656142   829.4650   6  10   0.0149   0.0160   0.0403   0.0056   0.0105  -0.0137   0.00    0.0
2019/03/02 00:29:00.000   40.429164057   -4.249656068   829.4585   6  10   0.0150   0.0160   0.0408   0.0013   0.0119  -0.0139   0.00    0.0
2019/03/02 00:29:30.000   40.429164029   -4.249656082   829.4644   6  10   0.0156   0.0172   0.0395  -0.0029   0.0142  -0.0148   0.00    0.0
2019/03/02 00:30:00.000   40.429163995   -4.249656108   829.4485   6  10   0.0156   0.0176   0.0411   0.0032   0.0087  -0.0135   0.00    0.0
2019/03/02 00:30:30.000   40.429164026   -4.249656146   829.4491   6  10   0.0156   0.0160   0.0395  -0.0036   0.0133  -0.0141   0.00    0.0
2019/03/02 00:31:00.000   40.429163985   -4.249656188   829.4462   6  10   0.0154   0.0164   0.0393   0.0041   0.0115  -0.0139   0.00    0.0
2019/03/02 00:31:30.000   40.429163979   -4.249656217   829.4502   6  10   0.0155   0.0155   0.0404   0.0053   0.0117  -0.0156   0.00    0.0
2019/03/02 00:32:00.000   40.429163999   -4.249656244   829.4329   6  10   0.0144   0.0164   0.0403   0.0055   0.0104  -0.0136   0.00    0.0
2019/03/02 00:32:30.000   40.429163980   -4.249656242   829.4387   6  10   0.0152   0.0161   0.0385   0.0028   0.0125  -0.0148   0.00    0.0
2019/03/02 00:33:00.000   40.429164011   -4.249656208   829.4257   6  10   0.0150   0.0164   0.0397   0.0020   0.0106  -0.0140   0.00    0.0
2019/03/02 00:33:30.000   40.429164030   -4.249656243   829.4229   6  10   0.0154   0.0168   0.0404   0.0030   0.0111  -0.0149   0.00    0.0
2019/03/02 00:34:00.000   40.429163979   -4.249656248   829.4121   6  10   0.0162   0.0166   0.0394  -0.0046   0.0135  -0.0150   0.00    0.0
2019/03/02 00:34:30.000   40.429163995   -4.249656288   829.3973   6  10   0.0152   0.0156   0.0399  -0.0056   0.0129  -0.0144   0.00    0.0
2019/03/02 00:35:00.000   40.429163937   -4.249656366   829.4110   6  10   0.0163   0.0162   0.0400   0.0023   0.0132  -0.0164   0.00    0.0
2019/03/02 00:35:30.000   40.429163932   -4.249656365   829.4057   6  10   0.0160   0.0171   0.0401  -0.0028   0.0120  -0.0156   0.00    0.0
2019/03/02 00:36:00.000   40.429163953   -4.249656352   829.4044   6  10   0.0156   0.0142   0.0400   0.0059   0.0101  -0.0149   0.00    0.0
2019/03/02 00:36:30.000   40.429163975   -4.249656351   829.4024   6  10   0.0145   0.0164   0.0393   0.0015   0.0105  -0.0137   0.00    0.0
2019/03/02 00:37:00.000   40.429163987   -4.249656360   829.4053   6  10   0.0158   0.0172   0.0404  -0.0030   0.0116  -0.0154   0.00    0.0
2019/03/02 00:37:30.000   40.429163976   -4.249656387   829.3920   6  10   0.0160   0.0161   0.0403  -0.0020   0.0099  -0.0151   0.00    0.0
2019/03/02 00:38:00.000   40.429163996   -4.249656393   829.3864   6  10   0.0139   0.0162   0.0401   0.0043   0.0087  -0.0132   0.00    0.0
2019/03/02 00:38:30.000   40.429163993   -4.249656347   829.3922   6  10   0.0148   0.0169   0.0403  -0.0036   0.0114  -0.0144   0.00    0.0
2019/03/02 00:39:00.000   40.429163975   -4.249656395   829.3962   6  10   0.0150   0.0159   0.0387   0.0024   0.0127  -0.0139   0.00    0.0
2019/03/02 00:39:30.000   40.429163975   -4.249656419   829.3947   6  10   0.0155   0.0159   0.0386  -0.0031   0.0131  -0.0152   0.00    0.0
2019/03/02 00:40:00.000   40.429163956   -4.249656342   829.4008   6  10   0.0161   0.0152   0.0392  -0.0013   0.0127  -0.0161   0.00    0.0
2019/03/02 00:40:30.000   40.429163958   -4.249656384   829.3872   6  10   0.0153   0.0164   0.0389  -0.0032   0.0115  -0.0146   0.00    0.0
2019/03/02 00:41:00.000   40.429163942   -4.249656332   829.3985   6  10   0.0148   0.0163   0.0393   0.0029   0.0099  -0.0146   0.00    0.0
2019/03/02 00:41:30.000   40.429163961   -4.249656355   829.3969   6  10   0.0142   0.0163   0.0391   0.0038   0.0128  -0.0142   0.00    0.0
2019/03/02 00:42:00.000   40.429164022   -4.249656344   829.3831   6  10   0.0149   0.0141   0.0395   0.0044   0.0126  -0.0150   0.00    0.0
2019/03/02 00:42:30.000   40.429164038   -4.249656401   829.3835   6  10   0.0144   0.0166   0.0389  -0.0033   0.0141  -0.0147   0.00    0.0
2019/03/02 00:43:00.000   40.429164027   -4.249656330   829.3881   6  10   0.0158   0.0175   0.0398  -0.0043   0.0120  -0.0151   0.00    0.0
2019/03/02 00:43:30.000   40.429164013   -4.249656368   829.3852   6  10   0.0151   0.0155   0.0383  -0.0014   0.0120  -0.0134   0.00    0.0
2019/03/02 00:44:00.000   40.429164022   -4.249656403   829.3869   6  10   0.0152   0.0169   0.0391  -0.0049   0.0125  -0.0151   0.00    0.0
2019/03/02 00:44:30.000   40.429164071   -4.249656418   829.3887   6  10   0.0139   0.0169   0.0388  -0.0024   0.0118  -0.0126   0.00    0.0
2019/03/02 00:45:00.000   40.429164051   -4.249656415   829.3935   6  10   0.0150   0.0167   0.0384  -0.0011   0.0128  -0.0149   0.00    0.0
2019/03/02 00:45:30.000   40.429164058   -4.249656449   829.3869   6  10   0.0152   0.0159   0.0392  -0.0050   0.0128  -0.0148   0.00    0.0
2019/03/02 00:46:00.000   40.429164052   -4.249656445   829.3684   6  10   0.0149   0.0163   0.0388   0.0022   0.0105  -0.0133   0.00    0.0
2019/03/02 00:46:30.000   40.429164115   -4.249656429   829.3770   6  10   0.0154   0.0161   0.0393  -0.0039   0.0136  -0.0152   0.00    0.0
2019/03/02 00:47:00.000   40.429164073   -4.249656371   829.3735   6  10   0.0141   0.0159   0.0392   0.0039   0.0109  -0.0140   0.00    0.0
2019/03/02 00:47:30.000   40.429164122   -4.249656364   829.3755   6  10   0.0148   0.0156   0.0397  -0.0028   0.0110  -0.0144   0.00    0.0
2019/03/02 00:48:00.000   40.429164127   -4.249656418   829.3784   6  10   0.0152   0.0169   0.0392  -0.0007   0.0129  -0.0148   0.00    0.0
2019/03/02 00:48:30.000   40.429164071   -4.249656344   829.3923   6  10   0.0142   0.0165   0.0389  -0.0021   0.0121  -0.0137   0.00    0.0
2019/03/02 00:49:00.000   40.429164044   -4.249656398   829.3855   6  10   0.0146   0.0164   0.0389  -0.0046   0.0122  -0.0127   0.00    0.0
2019/03/02 00:49:30.000   40.429164092   -4.249656366   829.3971   6  10   0.0141   0.0160   0.0392   0.0014   0.0100  -0.0134   0.00    0.0
2019/03/02 00:50:00.000   40.429164093   -4.249656326   829.3876   6  10   0.0141   0.0169   0.0389  -0.0053   0.0117  -0.0131   0.00    0.0
2019/03/02 00:50:30.000   40.429164093   -4.249656367   829.3901   6  10   0.0143   0.0169   0.0387  -0.0051   0.0124  -0.0131   0.00    0.0
2019/03/02 00:51:00.000   40.429164033   -4.249656311   829.3944   6  10   0.0143   0.0159   0.0384  -0.0041   0.0121  -0.0128   0.00    0.0
2019/03/02 00:51:30.000   40.429164067   -4.249656282   829.3950   6  10   0.0143   0.0156   0.0390   0.0034   0.0114  -0.0144   0.00    0.0
2019/03/02 00:52:00.000   40.429164060   -4.249656361   829.3840   6  10   0.0148   0.0153   0.0379  -0.0043   0.0122  -0.0130   0.00    0.0
2019/03/02 00:52:30.000   40.429164088   -4.249656337   829.3875   6  10   0.0138   0.0162   0.0385   0.0017   0.0121  -0.0127   0.00    0.0
2019/03/02 00:53:00.000   40.429164128   -4.249656464   829.3726   6  10   0.0149   0.0155   0.0383  -0.0025   0.0128  -0.0132   0.00    0.0
2019/03/02 00:53:30.000   40.429164099   -4.249656340   829.3705   6  10   0.0139   0.0164   0.0390  -0.0035   0.0111  -0.0136   0.00    0.0
2019/03/02 00:54:00.000   40.429164032   -4.249656364   829.3635   6  10   0.0141   0.0166   0.0387  -0.0043   0.0106  -0.0136   0.00    0.0
2019/03/02 00:54:30.000   40.429164038   -4.249656482   829.3606   6  10   0.0153   0.0160   0.0387  -0.0033   0.0116  -0.0142   0.00    0.0
2019/03/02 00:55:00.000   40.429164082   -4.249656500   829.3797   6  10   0.0158   0.0157   0.0381  -0.0053   0.0138  -0.0138   0.00    0.0
2019/03/02 00:55:30.000   40.429164110   -4.249656414   829.3864   6  10   0.0152   0.0163   0.0386  -0.0063   0.0107  -0.0124   0.00    0.0
2019/03/02 00:56:00.000   40.429164090   -4.249656462   829.3689   6   9   0.0156   0.0167   0.0398  -0.0050   0.0117  -0.0117   0.00    0.0
2019/03/02 00:56:30.000   40.429164119   -4.249656452   829.3683   6   9   0.0153   0.0166   0.0394  -0.0044   0.0105  -0.0110   0.00    0.0
2019/03/02 00:57:00.000   40.429164103   -4.249656488   829.3693   6   9   0.0152   0.0167   0.0393  -0.0066   0.0104  -0.0100   0.00    0.0
2019/03/02 00:57:30.000   40.429164058   -4.249656513   829.3648   6   9   0.0153   0.0166   0.0391  -0.0046   0.0110  -0.0117   0.00    0.0
2019/03/02 00:58:00.000   40.429164015   -4.249656491   829.3808   6   9   0.0160   0.0171   0.0393  -0.0065   0.0111  -0.0112   0.00    0.0
2019/03/02 00:58:30.000   40.429164031   -4.249656430   829.3768   6   9   0.0152   0.0165   0.0396  -0.0035   0.0101  -0.0094   0.00    0.0
2019/03/02 00:59:00.000   40.429164042   -4.249656486   829.3642   6   9   0.0146   0.0168   0.0388  -0.0048   0.0111  -0.0104   0.00    0.0
2019/03/02 00:59:30.000   40.429164046   -4.249656504   829.3802   6   9   0.0152   0.0164   0.0381  -0.0068   0.0121  -0.0096   0.00    0.0
2019/03/02 01:00:00.000   40.429164066   -4.249656509   829.3826   6   9   0.0156   0.0162   0.0388  -0.0057   0.0117  -0.0098   0.00    0.0
2019/03/02 01:00:30.000   40.429164076   -4.249656500   829.3773   6   9   0.0155   0.0155   0.0391  -0.0038   0.0111  -0.0107   0.00    0.0
2019/03/02 01:01:00.000   40.429163982   -4.249656381   829.3968   6   9   0.0159   0.0172   0.0385  -0.0063   0.0117  -0.0101   0.00    0.0
2019/03/02 01:01:30.000   40.429163997   -4.249656447   829.3933   6   9   0.0153   0.0165   0.0383  -0.0051   0.0105  -0.0104   0.00    0.0
2019/03/02 01:02:00.000   40.429163992   -4.249656456   829.3885   6   9   0.0158   0.0169   0.0387  -0.0066   0.0118  -0.0119   0.00    0.0
2019/03/02 01:02:30.000   40.429164011   -4.249656465   829.4033   6   9   0.0155   0.0162   0.0377  -0.0076   0.0110  -0.0105   0.00    0.0
2019/03/02 01:03:00.000   40.429163950   -4.249656484   829.4015   6   9   0.0159   0.0167   0.0388  -0.0050   0.0103  -0.0107   0.00    0.0
2019/03/02 01:03:30.000   40.429164004   -4.249656450   829.4053   6   9   0.0150   0.0164   0.0374  -0.0068   0.0118  -0.0109   0.00    0.0
2019/03/02 01:04:00.000   40.429164026   -4.249656517   829.3801   6   9   0.0166   0.0167   0.0387  -0.0048   0.0106  -0.0126   0.00    0.0
2019/03/02 01:04:30.000   40.429163928   -4.249656524   829.4078   6   9   0.0161   0.0164   0.0382  -0.0063   0.0126  -0.0119   0.00    0.0
2019/03/02 01:05:00.000   40.429163949   -4.249656475   829.3941   6   9   0.0161   0.0164   0.0379  -0.0047   0.0114  -0.0116   0.00    0.0
2019/03/02 01:05:30.000   40.429163938   -4.249656420   829.3990   6   9   0.0156   0.0166   0.0382  -0.0053   0.0110  -0.0105   0.00    0.0
2019/03/02 01:06:00.000   40.429163943   -4.249656514   829.4212   6   9   0.0158   0.0164   0.0375  -0.0075   0.0114  -0.0109   0.00    0.0
2019/03/02 01:06:30.000   40.429163998   -4.249656450   829.4039   6   9   0.0157   0.0166   0.0375  -0.0064   0.0121  -0.0115   0.00    0.0
2019/03/02 01:07:00.000   40.429163966   -4.249656517   829.4089   6   9   0.0154   0.0163   0.0373  -0.0063   0.0123  -0.0097   0.00    0.0
2019/03/02 01:07:30.000   40.429163938   -4.249656498   829.4015   6   9   0.0161   0.0158   0.0375  -0.0047   0.0119  -0.0108   0.00    0.0
2019/03/02 01:08:00.000   40.429163976   -4.249656478   829.3879   6   9   0.0157   0.0163   0.0387  -0.0065   0.0092  -0.0118   0.00    0.0
2019/03/02 01:08:30.000   40.429163892   -4.249656520   829.4136   6   9   0.0161   0.0162   0.0362  -0.0077   0.0127  -0.0102   0.00    0.0
2019/03/02 01:09:00.000   40.429163933   -4.249656551   829.4097   6   9   0.0157   0.0166   0.0377  -0.0049   0.0104  -0.0104   0.00    0.0
2019/03/02 01:09:30.000   40.429163970   -4.249656493   829.4105   6   9   0.0153   0.0170   0.0376  -0.0058   0.0104  -0.0093   0.00    0.0
2019/03/02 01:10:00.000   40.429164030   -4.249656565   829.4012   6   9   0.0153   0.0162   0.0372  -0.0060   0.0111  -0.0096   0.00    0.0
2019/03/02 01:10:30.000   40.429163957   -4.249656489   829.4012   6   9   0.0157   0.0169   0.0370  -0.0068   0.0107  -0.0103   0.00    0.0
2019/03/02 01:11:00.000   40.429163865   -4.249656469   829.4088   6   9   0.0159   0.0165   0.0372  -0.0075   0.0105  -0.0093   0.00    0.0
2019/03/02 01:11:30.000   40.429163889   -4.249656515   829.4124   6   9   0.0154   0.0160   0.0364  -0.0065   0.0119  -0.0110   0.00    0.0
2019/03/02 01:12:00.000   40.429163900   -4.249656495   829.4090   6   9   0.0162   0.0163   0.0370  -0.0066   0.0119  -0.0113   0.00    0.0
2019/03/02 01:12:30.000   40.429163916   -4.249656477   829.3993   6   9   0.0163   0.0164   0.0369  -0.0066   0.0104  -0.0114   0.00    0.0
2019/03/02 01:13:00.000   40.429163943   -4.249656456   829.3902   6   9   0.0158   0.0162   0.0372  -0.0047   0.0100  -0.0112   0.00    0.0
2019/03/02 01:13:30.000   40.429163964   -4.249656541   829.3789   6   9   0.0156   0.0163   0.0372  -0.0049   0.0109  -0.0105   0.00    0.0
2019/03/02 01:14:00.000   40.429163969   -4.249656527   829.3852   6   9   0.0160   0.0166   0.0365  -0.0059   0.0108  -0.0108   0.00    0.0
2019/03/02 01:14:30.000   40.429163961   -4.249656524   829.3848   6   9   0.0157   0.0165   0.0372  -0.0056   0.0102  -0.0102   0.00    0.0
2019/03/02 01:15:00.000   40.429163978   -4.249656548   829.3847   6   9   0.0158   0.0158   0.0365  -0.0067   0.0105  -0.0107   0.00    0.0
2019/03/02 01:15:30.000   40.429163952   -4.249656467   829.3733   6   9   0.0158   0.0164   0.0358  -0.0067   0.0114  -0.0098   0.00    0.0
2019/03/02 01:16:00.000   40.429163977   -4.249656460   829.3723   6  10   0.0161   0.0158   0.0354  -0.0030   0.0095  -0.0093   0.00    0.0
2019/03/02 01:16:30.000   40.429163970   -4.249656442   829.3723   6  10   0.0147   0.0158   0.0344  -0.0064   0.0086  -0.0079   0.00    0.0
2019/03/02 01:17:00.000   40.429164014   -4.249656493   829.3732   6  10   0.0156   0.0155   0.0347  -0.0052   0.0082  -0.0098   0.00    0.0
2019/03/02 01:17:30.000   40.429163991   -4.249656526   829.3615   6  10   0.0155   0.0164   0.0354  -0.0045   0.0082  -0.0077   0.00    0.0
2019/03/02 01:18:00.000   40.429164037   -4.249656453   829.3781   6  10   0.0161   0.0158   0.0338  -0.0051   0.0091  -0.0099   0.00    0.0
2019/03/02 01:18:30.000   40.429164012   -4.249656518   829.3691   6  10   0.0157   0.0158   0.0346  -0.0039   0.0084  -0.0096   0.00    0.0
2019/03/02 01:19:00.000   40.429163996   -4.249656517   829.3695   6  10   0.0150   0.0158   0.0347  -0.0040   0.0059  -0.0070   0.00    0.0
2019/03/02 01:19:30.000   40.429163946   -4.249656510   829.3659   6  10   0.0151   0.0158   0.0338  -0.0058   0.0081  -0.0071   0.00    0.0
2019/03/02 01:20:00.000   40.429163952   -4.249656537   829.3510   6  10   0.0149   0.0159   0.0343  -0.0049   0.0084  -0.0068   0.00    0.0
2019/03/02 01:20:30.000   40.429163990   -4.249656494   829.3458   6  10   0.0149   0.0159   0.0326  -0.0060   0.0086  -0.0071   0.00    0.0
2019/03/02 01:21:00.000   40.429164015   -4.249656492   829.3561   6  10   0.0148   0.0160   0.0336  -0.0063   0.0075  -0.0068   0.00    0.0
2019/03/02 01:21:30.000   40.429163989   -4.249656555   829.3606   6  10   0.0153   0.0155   0.0336  -0.0045   0.0078  -0.0091   0.00    0.0
2019/03/02 01:22:00.000   40.429163989   -4.249656568   829.3520   6  10   0.0145   0.0159   0.0335  -0.0056   0.0085  -0.0048   0.00    0.0
2019/03/02 01:22:30.000   40.429164027   -4.249656529   829.3443   6  10   0.0153   0.0159   0.0333  -0.0067   0.0085  -0.0073   0.00    0.0
2019/03/02 01:23:00.000   40.429163981   -4.249656469   829.3382   6  10   0.0157   0.0157   0.0330  -0.0039   0.0085  -0.0080   0.00    0.0
2019/03/02 01:23:30.000   40.429163998   -4.249656439   829.3527   6  10   0.0152   0.0154   0.0336  -0.0034   0.0075  -0.0094   0.00    0.0
2019/03/02 01:24:00.000   40.429163982   -4.249656414   829.3511   6  10   0.0149   0.0159   0.0333  -0.0049   0.0090  -0.0052   0.00    0.0
2019/03/02 01:24:30.000   40.429164056   -4.249656407   829.3484   6  10   0.0150   0.0159   0.0338  -0.0040   0.0073  -0.0084   0.00    0.0
2019/03/02 01:25:00.000   40.429164017   -4.249656360   829.3454   6  10   0.0148   0.0161   0.0339  -0.0051   0.0065  -0.0075   0.00    0.0
2019/03/02 01:25:30.000   40.429163992   -4.249656440   829.3330   6  10   0.0148   0.0157   0.0330  -0.0060   0.0078  -0.0065   0.00    0.0
2019/03/02 01:26:00.000   40.429163972   -4.249656470   829.3300   6  10   0.0154   0.0158   0.0327  -0.0044   0.0084  -0.0084   0.00    0.0
2019/03/02 01:26:30.000   40.429164001   -4.249656457   829.3382   6  10   0.0149   0.0157   0.0330  -0.0062   0.0067  -0.0053   0.00    0.0
2019/03/02 01:27:00.000   40.429164037   -4.249656362   829.3551   6  10   0.0149   0.0153   0.0320  -0.0057   0.0080  -0.0074   0.00    0.0
2019/03/02 01:27:30.000   40.429164114   -4.249656335   829.3448   6  10   0.0153   0.0156   0.0330  -0.0042   0.0076  -0.0076   0.00    0.0
2019/03/02 01:28:00.000   40.429164095   -4.249656319   829.3433   6  10   0.0144   0.0157   0.0325  -0.0054   0.0045  -0.0066   0.00    0.0
2019/03/02 01:28:30.000   40.429164063   -4.249656288   829.3568   6  10   0.0152   0.0156   0.0316  -0.0050   0.0077  -0.0084   0.00    0.0
2019/03/02 01:29:00.000   40.429164115   -4.249656298   829.3661   6  10   0.0142   0.0153   0.0322  -0.0057   0.0063  -0.0061   0.00    0.0
2019/03/02 01:29:30.000   40.429164097   -4.249656283   829.3613   6  10   0.0146   0.0157   0.0324  -0.0042   0.0069  -0.0071   0.00    0.0
2019/03/02 01:30:00.000   40.429164052   -4.249656354   829.3557   6  10   0.0151   0.0154   0.0316  -0.0048   0.0068  -0.0088   0.00    0.0
2019/03/02 01:30:30.000   40.429164049   -4.249656359   829.3642   6  10   0.0143   0.0151   0.0310  -0.0054   0.0077  -0.0076   0.00    0.0
2019/03/02 01:31:00.000   40.429164049   -4.249656385   829.3444   6  10   0.0150   0.0153   0.0317  -0.0051   0.0068  -0.0084   0.00    0.0
2019/03/02 01:31:30.000   40.429164036   -4.249656356   829.3707   6  10   0.0153   0.0151   0.0312  -0.0042   0.0060  -0.0098   0.00    0.0
2019/03/02 01:32:00.000   40.429164006   -4.249656324   829.3722   6  10   0.0151   0.0154   0.0321  -0.0055   0.0071  -0.0073   0.00    0.0
2019/03/02 01:32:30.000   40.429164097   -4.249656373   829.3798   6  10   0.0155   0.0152   0.0314  -0.0038   0.0065  -0.0083   0.00    0.0
2019/03/02 01:33:00.000   40.429164082   -4.249656431   829.3672   6  10   0.0149   0.0152   0.0316  -0.0045   0.0064  -0.0069   0.00    0.0
2019/03/02 01:33:30.000   40.429164033   -4.249656416   829.3646   6  10   0.0148   0.0153   0.0319  -0.0031   0.0071  -0.0078   0.00    0.0
2019/03/02 01:34:00.000   40.429163988   -4.249656360   829.3655   6  10   0.0152   0.0153   0.0314  -0.0047   0.0052  -0.0091   0.00    0.0
2019/03/02 01:34:30.000   40.429163981   -4.249656324   829.3937   6  10   0.0148   0.0150   0.0314  -0.0047   0.0048  -0.0081   0.00    0.0
2019/03/02 01:35:00.000   40.429163987   -4.249656435   829.3981   6  10   0.0150   0.0155   0.0311  -0.0046   0.0070  -0.0059   0.00    0.0
2019/03/02 01:35:30.000   40.429164060   -4.249656478   829.3794   6  10   0.0147   0.0151   0.0313  -0.0022   0.0062  -0.0064   0.00    0.0
2019/03/02 01:36:00.000   40.429164158   -4.249656567   829.3695   6  10   0.0142   0.0157   0.0319  -0.0050   0.0051  -0.0071   0.00    0.0
2019/03/02 01:36:30.000   40.429164020   -4.249656449   829.3794   6  10   0.0148   0.0152   0.0307  -0.0043   0.0070  -0.0071   0.00    0.0
2019/03/02 01:37:00.000   40.429163942   -4.249656375   829.3886   6  10   0.0147   0.0153   0.0308  -0.0046   0.0056  -0.0071   0.00    0.0
2019/03/02 01:37:30.000   40.429164010   -4.249656384   829.3782   6  11   0.0145   0.0156   0.0301  -0.0019   0.0072  -0.0101   0.00    0.0
2019/03/02 01:38:00.000   40.429164009   -4.249656401   829.3743   6  11   0.0130   0.0153   0.0308  -0.0022   0.0046  -0.0081   0.00    0.0
2019/03/02 01:38:30.000   40.429164086   -4.249656522   829.3645   6  11   0.0129   0.0157   0.0303  -0.0029   0.0062  -0.0083   0.00    0.0
2019/03/02 01:39:00.000   40.429164067   -4.249656545   829.3823   6  11   0.0125   0.0160   0.0291  -0.0050   0.0072  -0.0076   0.00    0.0
2019/03/02 01:39:30.000   40.429164050   -4.249656511   829.3824   6  11   0.0129   0.0156   0.0293  -0.0036   0.0057  -0.0083   0.00    0.0
2019/03/02 01:40:00.000   40.429163959   -4.249656424   829.3912   6  11   0.0139   0.0147   0.0303  -0.0041   0.0049  -0.0106   0.00    0.0
2019/03/02 01:40:30.000   40.429163970   -4.249656487   829.3848   6  11   0.0132   0.0150   0.0295  -0.0048   0.0038  -0.0111   0.00    0.0
2019/03/02 01:41:00.000   40.429164029   -4.249656513   829.3806   6  11   0.0138   0.0147   0.0298   0.0007   0.0049  -0.0109   0.00    0.0
2019/03/02 01:41:30.000   40.429164054   -4.249656614   829.3686   6  11   0.0132   0.0156   0.0289  -0.0025   0.0067  -0.0099   0.00    0.0
2019/03/02 01:42:00.000   40.429164151   -4.249656501   829.3746   6  11   0.0132   0.0149   0.0287  -0.0047   0.0046  -0.0104   0.00    0.0
2019/03/02 01:42:30.000   40.429164170   -4.249656483   829.3721   6  11   0.0141   0.0148   0.0299  -0.0036   0.0038  -0.0105   0.00    0.0
2019/03/02 01:43:00.000   40.429164091   -4.249656572   829.3752   6  11   0.0138   0.0154   0.0293  -0.0048   0.0055  -0.0109   0.00    0.0
2019/03/02 01:43:30.000   40.429164082   -4.249656604   829.3561   6  11   0.0130   0.0150   0.0305   0.0002   0.0044  -0.0097   0.00    0.0
2019/03/02 01:44:00.000   40.429164148   -4.249656724   829.3499   6  11   0.0122   0.0148   0.0303  -0.0030   0.0042  -0.0095   0.00    0.0
2019/03/02 01:44:30.000   40.429164161   -4.249656655   829.3550   6  11   0.0138   0.0153   0.0291  -0.0022   0.0047  -0.0107   0.00    0.0
2019/03/02 01:45:00.000   40.429164231   -4.249656629   829.3568   6  11   0.0122   0.0151   0.0289  -0.0041   0.0055  -0.0094   0.00    0.0
2019/03/02 01:45:30.000   40.429164223   -4.249656553   829.3537   6  11   0.0129   0.0147   0.0301  -0.0016   0.0042  -0.0098   0.00    0.0
2019/03/02 01:46:00.000   40.429164134   -4.249656567   829.3540   6  11   0.0133   0.0150   0.0282  -0.0047   0.0039  -0.0111   0.00    0.0
2019/03/02 01:46:30.000   40.429164115   -4.249656660   829.3460   6  11   0.0132   0.0153   0.0300  -0.0031   0.0028  -0.0107   0.00    0.0
2019/03/02 01:47:00.000   40.429164111   -4.249656652   829.3473   6  11   0.0132   0.0149   0.0297  -0.0052   0.0050  -0.0107   0.00    0.0
2019/03/02 01:47:30.000   40.429164233   -4.249656612   829.3513   6  11   0.0138   0.0147   0.0281  -0.0047   0.0029  -0.0115   0.00    0.0
2019/03/02 01:48:00.000   40.429164202   -4.249656647   829.3412   6  11   0.0132   0.0151   0.0297  -0.0012   0.0050  -0.0097   0.00    0.0
2019/03/02 01:48:30.000   40.429164281   -4.249656654   829.3475   6  11   0.0127   0.0148   0.0291  -0.0053   0.0007  -0.0104   0.00    0.0
2019/03/02 01:49:00.000   40.429164362   -4.249656753   829.3457   6  11   0.0129   0.0152   0.0292  -0.0037   0.0036  -0.0104   0.00    0.0
2019/03/02 01:49:30.000   40.429164312   -4.249656734   829.3383   6  11   0.0132   0.0150   0.0294  -0.0027   0.0051  -0.0107   0.00    0.0
2019/03/02 01:50:00.000   40.429164193   -4.249656712   829.3369   6  11   0.0117   0.0151   0.0293   0.0015   0.0003  -0.0097   0.00    0.0
2019/03/02 01:50:30.000   40.429164151   -4.249656622   829.3297   6  11   0.0132   0.0147   0.0301  -0.0021   0.0053  -0.0103   0.00    0.0
2019/03/02 01:51:00.000   40.429164249   -4.249656679   829.3373   6  11   0.0125   0.0152   0.0290  -0.0046   0.0032  -0.0111   0.00    0.0
2019/03/02 01:51:30.000   40.429164228   -4.249656745   829.3462   6  11   0.0139   0.0153   0.0294   0.0011   0.0056  -0.0108   0.00    0.0
2019/03/02 01:52:00.000   40.429164224   -4.249656753   829.3502   6  11   0.0129   0.0146   0.0295  -0.0037   0.0020  -0.0112   0.00    0.0
2019/03/02 01:52:30.000   40.429164152   -4.249656751   829.3452   6  11   0.0129   0.0151   0.0287  -0.0024   0.0010  -0.0111   0.00    0.0
2019/03/02 01:53:00.000   40.429164084   -4.249656650   829.3419   6  11   0.0131   0.0147   0.0289  -0.0047   0.0050  -0.0113   0.00    0.0
2019/03/02 01:53:30.000   40.429164111   -4.249656642   829.3234   6  11   0.0127   0.0151   0.0302  -0.0033   0.0037  -0.0098   0.00    0.0
2019/03/02 01:54:00.000   40.429164165   -4.249656713   829.3261   6  11   0.0124   0.0154   0.0288   0.0014   0.0030  -0.0112   0.00    0.0
2019/03/02 01:54:30.000   40.429164171   -4.249656743   829.3320   6  11   0.0125   0.0149   0.0296   0.0014   0.0027  -0.0115   0.00    0.0
2019/03/02 01:55:00.000   40.429164181   -4.249656709   829.3480   6  11   0.0129   0.0140   0.0288  -0.0024  -0.0019  -0.0118   0.00    0.0
2019/03/02 01:55:30.000   40.429164160   -4.249656727   829.3372   6  11   0.0133   0.0150   0.0294  -0.0025   0.0035  -0.0111   0.00    0.0
2019/03/02 01:56:00.000   40.429164225   -4.249656760   829.3342   6  11   0.0129   0.0150   0.0290  -0.0044   0.0038  -0.0109   0.00    0.0
2019/03/02 01:56:30.000   40.429164240   -4.249656691   829.3501   6  11   0.0126   0.0149   0.0295   0.0008   0.0020  -0.0113   0.00    0.0
2019/03/02 01:57:00.000   40.429164227   -4.249656611   829.3540   6  11   0.0132   0.0145   0.0291  -0.0026   0.0028  -0.0106   0.00    0.0
2019/03/02 01:57:30.000   40.429164169   -4.249656666   829.3453   6  11   0.0132   0.0151   0.0292   0.0011   0.0015  -0.0115   0.00    0.0
2019/03/02 01:58:00.000   40.429164110   -4.249656637   829.3469   6  11   0.0139   0.0151   0.0286   0.0013   0.0033  -0.0119   0.00    0.0
2019/03/02 01:58:30.000   40.429164191   -4.249656725   829.3581   6  11   0.0128   0.0149   0.0293   0.0021   0.0036  -0.0117   0.00    0.0
2019/03/02 01:59:00.000   40.429164203   -4.249656697   829.3590   6  11   0.0134   0.0146   0.0287  -0.0030  -0.0032  -0.0119   0.00    0.0
2019/03/02 01:59:30.000   40.429164150   -4.249656632   829.3447   6  11   0.0131   0.0154   0.0284   0.0016   0.0025  -0.0122   0.00    0.0
2019/03/02 02:00:00.000   40.429164116   -4.249656511   829.3441   6  11   0.0130   0.0145   0.0295   0.0043  -0.0022  -0.0116   0.00    0.0
2019/03/02 02:00:30.000   40.429164134   -4.249656576   829.3427   6  11   0.0128   0.0149   0.0305  -0.0035  -0.0034  -0.0130   0.00    0.0
2019/03/02 02:01:00.000   40.429164097   -4.249656603   829.3565   6  10   0.0135   0.0152   0.0305   0.0051  -0.0015  -0.0124   0.00    0.0
2019/03/02 02:01:30.000   40.429164162   -4.249656619   829.3517   6  10   0.0134   0.0158   0.0307   0.0045  -0.0026  -0.0130   0.00    0.0
2019/03/02 02:02:00.000   40.429164117   -4.249656612   829.3558   6  10   0.0133   0.0153   0.0308   0.0030  -0.0045  -0.0132   0.00    0.0
2019/03/02 02:02:30.000   40.429164072   -4.249656540   829.3506   6  10   0.0132   0.0155   0.0307   0.0036  -0.0033  -0.0130   0.00    0.0
2019/03/02 02:03:00.000   40.429164011   -4.249656568   829.3463   6  10   0.0132   0.0148   0.0308   0.0023  -0.0059  -0.0127   0.00    0.0
2019/03/02 02:03:30.000   40.429164050   -4.249656660   829.3477   6  10   0.0130   0.0152   0.0306   0.0030  -0.0041  -0.0125   0.00    0.0
2019/03/02 02:04:00.000   40.429164027   -4.249656648   829.3533   6  10   0.0134   0.0153   0.0305   0.0019  -0.0048  -0.0130   0.00    0.0
2019/03/02 02:04:30.000   40.429164082   -4.249656614   829.3432   6  10   0.0130   0.0154   0.0303   0.0035  -0.0033  -0.0127   0.00    0.0
2019/03/02 02:05:00.000   40.429164123   -4.249656569   829.3344   6  10   0.0132   0.0146   0.0307   0.0038  -0.0044  -0.0127   0.00    0.0
2019/03/02 02:05:30.000   40.429164053   -4.249656560   829.3373   6  10   0.0134   0.0158   0.0314   0.0027  -0.0030  -0.0126   0.00    0.0
2019/03/02 02:06:00.000   40.429164083   -4.249656537   829.3425   6  10   0.0133   0.0158   0.0313  -0.0028  -0.0020  -0.0126   0.00    0.0
2019/03/02 02:06:30.000   40.429164073   -4.249656422   829.3279   6  10   0.0131   0.0156   0.0310   0.0038  -0.0043  -0.0132   0.00    0.0
2019/03/02 02:07:00.000   40.429164049   -4.249656542   829.3120   6   9   0.0139   0.0164   0.0320   0.0046   0.0046  -0.0126   0.00    0.0
2019/03/02 02:07:30.000   40.429164088   -4.249656465   829.3299   6  10   0.0135   0.0161   0.0319   0.0045   0.0045  -0.0122   0.00    0.0
2019/03/02 02:08:00.000   40.429164071   -4.249656607   829.3242   6  10   0.0130   0.0157   0.0319   0.0040   0.0037  -0.0126   0.00    0.0
2019/03/02 02:08:30.000   40.429164076   -4.249656567   829.3295   6  10   0.0130   0.0149   0.0316   0.0042  -0.0037  -0.0124   0.00    0.0
2019/03/02 02:09:00.000   40.429164156   -4.249656443   829.3190   6  10   0.0135   0.0157   0.0321   0.0046  -0.0021  -0.0120   0.00    0.0
2019/03/02 02:09:30.000   40.429164148   -4.249656384   829.3165   6  10   0.0137   0.0158   0.0314   0.0023  -0.0012  -0.0127   0.00    0.0
2019/03/02 02:10:00.000   40.429164132   -4.249656435   829.3242   6  10   0.0131   0.0150   0.0306   0.0034  -0.0054  -0.0131   0.00    0.0
2019/03/02 02:10:30.000   40.429164034   -4.249656503   829.3285   6  10   0.0129   0.0156   0.0314   0.0035  -0.0040  -0.0132   0.00    0.0
2019/03/02 02:11:00.000   40.429163962   -4.249656486   829.3383   6  10   0.0136   0.0154   0.0315   0.0038  -0.0042  -0.0125   0.00    0.0
2019/03/02 02:11:30.000   40.429164042   -4.249656543   829.3387   6  10   0.0135   0.0154   0.0310   0.0034  -0.0049  -0.0125   0.00    0.0
2019/03/02 02:12:00.000   40.429164072   -4.249656422   829.3276   6  10   0.0126   0.0151   0.0323   0.0027  -0.0043  -0.0119   0.00    0.0
2019/03/02 02:12:30.000   40.429164131   -4.249656506   829.3274   6  10   0.0132   0.0159   0.0312   0.0037   0.0021  -0.0129   0.00    0.0
2019/03/02 02:13:00.000   40.429164107   -4.249656544   829.3250   6  10   0.0134   0.0161   0.0318   0.0049   0.0023  -0.0129   0.00    0.0
2019/03/02 02:13:30.000   40.429164083   -4.249656592   829.3156   6  10   0.0134   0.0149   0.0323   0.0041  -0.0037  -0.0120   0.00    0.0
2019/03/02 02:14:00.000   40.429164072   -4.249656582   829.3123   6  10   0.0129   0.0157   0.0323   0.0045   0.0027  -0.0126   0.00    0.0
2019/03/02 02:14:30.000   40.429164081   -4.249656569   829.3348   6  10   0.0131   0.0158   0.0323   0.0043  -0.0031  -0.0126   0.00    0.0
2019/03/02 02:15:00.000   40.429164115   -4.249656661   829.3449   6  10   0.0132   0.0155   0.0316   0.0020  -0.0023  -0.0131   0.00    0.0
2019/03/02 02:15:30.000   40.429164079   -4.249656656   829.3391   6  10   0.0134   0.0156   0.0330   0.0040   0.0012  -0.0120   0.00    0.0
2019/03/02 02:16:00.000   40.429164021   -4.249656736   829.3317   6  10   0.0132   0.0167   0.0333   0.0045   0.0061  -0.0122   0.00    0.0
2019/03/02 02:16:30.000   40.429163970   -4.249656708   829.3265   6  10   0.0138   0.0162   0.0327   0.0051   0.0040  -0.0127   0.00    0.0
2019/03/02 02:17:00.000   40.429163985   -4.249656717   829.3336   6  10   0.0134   0.0153   0.0328   0.0051   0.0021  -0.0125   0.00    0.0
2019/03/02 02:17:30.000   40.429164032   -4.249656689   829.3286   6  10   0.0135   0.0167   0.0331   0.0058   0.0044  -0.0122   0.00    0.0
2019/03/02 02:18:00.000   40.429164100   -4.249656629   829.3357   6  10   0.0132   0.0159   0.0325   0.0054  -0.0015  -0.0121   0.00    0.0
2019/03/02 02:18:30.000   40.429164147   -4.249656658   829.3204   6   9   0.0139   0.0159   0.0330   0.0049  -0.0017  -0.0117   0.00    0.0
2019/03/02 02:19:00.000   40.429164162   -4.249656655   829.3260   6   9   0.0130   0.0156   0.0344   0.0042  -0.0010  -0.0106   0.00    0.0
2019/03/02 02:19:30.000   40.429164166   -4.249656660   829.3307   6   9   0.0138   0.0158   0.0342   0.0058   0.0015  -0.0111   0.00    0.0
2019/03/02 02:20:00.000   40.429164109   -4.249656764   829.3231   6  10   0.0134   0.0150   0.0325   0.0049  -0.0056  -0.0112   0.00    0.0
2019/03/02 02:20:30.000   40.429164072   -4.249656752   829.3316   6  10   0.0132   0.0154   0.0331   0.0047  -0.0051  -0.0105   0.00    0.0
2019/03/02 02:21:00.000   40.429164136   -4.249656746   829.3249   6  10   0.0131   0.0154   0.0328   0.0065  -0.0055  -0.0105   0.00    0.0
2019/03/02 02:21:30.000   40.429164142   -4.249656760   829.3341   6  10   0.0128   0.0156   0.0328   0.0050  -0.0044  -0.0110   0.00    0.0
2019/03/02 02:22:00.000   40.429164152   -4.249656750   829.3451   6  10   0.0136   0.0151   0.0331   0.0057  -0.0052  -0.0098   0.00    0.0
2019/03/02 02:22:30.000   40.429164195   -4.249656744   829.3321   6  10   0.0134   0.0158   0.0330   0.0032  -0.0040  -0.0108   0.00    0.0
2019/03/02 02:23:00.000   40.429164199   -4.249656679   829.3182   6  10   0.0133   0.0150   0.0335   0.0037  -0.0041  -0.0108   0.00    0.0
2019/03/02 02:23:30.000   40.429164204   -4.249656684   829.3277   6  10   0.0130   0.0156   0.0334   0.0048  -0.0043  -0.0104   0.00    0.0
2019/03/02 02:24:00.000   40.429164211   -4.249656681   829.3330   6  10   0.0128   0.0153   0.0335   0.0038  -0.0035  -0.0100   0.00    0.0
2019/03/02 02:24:30.000   40.429164219   -4.249656705   829.3403   6  10   0.0130   0.0158   0.0331   0.0053  -0.0048  -0.0105   0.00    0.0
2019/03/02 02:25:00.000   40.429164278   -4.249656688   829.3395   6  10   0.0135   0.0155   0.0335   0.0051  -0.0045  -0.0107   0.00    0.0
2019/03/02 02:25:30.000   40.429164295   -4.249656726   829.3222   6  10   0.0131   0.0148   0.0335   0.0044  -0.0053  -0.0103   0.00    0.0
2019/03/02 02:26:00.000   40.429164291   -4.249656761   829.3150   6  10   0.0125   0.0154   0.0345   0.0049  -0.0031  -0.0099   0.00    0.0
2019/03/02 02:26:30.000   40.429164241   -4.249656774   829.3163   6  10   0.0130   0.0155   0.0329   0.0052  -0.0050  -0.0102   0.00    0.0
2019/03/02 02:27:00.000   40.429164206   -4.249656729   829.3200   6  10   0.0132   0.0148   0.0336   0.0067  -0.0051  -0.0102   0.00    0.0
2019/03/02 02:27:30.000   40.429164299   -4.249656745   829.3128   6  10   0.0131   0.0154   0.0339   0.0050  -0.0033  -0.0097   0.00    0.0
2019/03/02 02:28:00.000   40.429164310   -4.249656763   829.3138   6  10   0.0126   0.0158   0.0344   0.0052  -0.0033  -0.0097   0.00    0.0
2019/03/02 02:28:30.000   40.429164350   -4.249656689   829.3086   6  10   0.0126   0.0154   0.0343   0.0054  -0.0041  -0.0091   0.00    0.0
2019/03/02 02:29:00.000   40.429164322   -4.249656696   829.3203   6  10   0.0132   0.0154   0.0343   0.0042  -0.0039  -0.0104   0.00    0.0
2019/03/02 02:29:30.000   40.429164379   -4.249656688   829.3243   6  10   0.0134   0.0159   0.0343   0.0034   0.0021  -0.0104   0.00    0.0
2019/03/02 02:30:00.000   40.429164373   -4.249656676   829.3227   6  10   0.0133   0.0155   0.0340   0.0054  -0.0034  -0.0099   0.00    0.0
2019/03/02 02:30:30.000   40.429164359   -4.249656717   829.3095   6  10   0.0130   0.0156   0.0351   0.0052   0.0026  -0.0093   0.00    0.0
2019/03/02 02:31:00.000   40.429164347   -4.249656733   829.3040   6  10   0.0127   0.0156   0.0338   0.0065  -0.0036  -0.0106   0.00    0.0
2019/03/02 02:31:30.000   40.429164311   -4.249656688   829.2994   6  10   0.0132   0.0156   0.0346   0.0062  -0.0031  -0.0105   0.00    0.0
2019/03/02 02:32:00.000   40.429164361   -4.249656614   829.3113   6  10   0.0127   0.0155   0.0350   0.0064  -0.0012  -0.0093   0.00    0.0
2019/03/02 02:32:30.000   40.429164343   -4.249656661   829.3254   6  10   0.0131   0.0157   0.0355   0.0039   0.0034  -0.0102   0.00    0.0
2019/03/02 02:33:00.000   40.429164363   -4.249656693   829.3180   6  10   0.0130   0.0158   0.0348   0.0069  -0.0022  -0.0100   0.00    0.0
2019/03/02 02:33:30.000   40.429164389   -4.249656733   829.3029   6  10   0.0128   0.0157   0.0345   0.0060  -0.0023  -0.0105   0.00    0.0
2019/03/02 02:34:00.000   40.429164344   -4.249656748   829.3114   6  10   0.0130   0.0157   0.0359   0.0050   0.0031  -0.0093   0.00    0.0
2019/03/02 02:34:30.000   40.429164325   -4.249656730   829.3336   6   9   0.0127   0.0163   0.0358   0.0074   0.0063  -0.0086   0.00    0.0
2019/03/02 02:35:00.000   40.429164271   -4.249656662   829.3464   6   9   0.0136   0.0163   0.0362   0.0066   0.0067  -0.0088   0.00    0.0
2019/03/02 02:35:30.000   40.429164341   -4.249656756   829.3344   6   9   0.0133   0.0160   0.0365   0.0063   0.0060  -0.0087   0.00    0.0
2019/03/02 02:36:00.000   40.429164379   -4.249656807   829.3283   6   9   0.0135   0.0163   0.0361   0.0055   0.0062  -0.0088   0.00    0.0
2019/03/02 02:36:30.000   40.429164381   -4.249656793   829.3275   6   9   0.0133   0.0162   0.0364   0.0067   0.0059  -0.0083   0.00    0.0
2019/03/02 02:37:00.000   40.429164324   -4.249656767   829.3351   6   9   0.0134   0.0162   0.0364   0.0063   0.0067  -0.0084   0.00    0.0
2019/03/02 02:37:30.000   40.429164308   -4.249656827   829.3338   6   9   0.0133   0.0160   0.0366   0.0071   0.0060  -0.0088   0.00    0.0
2019/03/02 02:38:00.000   40.429164332   -4.249656828   829.3287   6   9   0.0133   0.0161   0.0362   0.0071   0.0057  -0.0092   0.00    0.0
2019/03/02 02:38:30.000   40.429164364   -4.249656792   829.3349   6   9   0.0138   0.0161   0.0362   0.0049   0.0055  -0.0091   0.00    0.0
2019/03/02 02:39:00.000   40.429164352   -4.249656863   829.3255   6   9   0.0134   0.0161   0.0367   0.0061   0.0064  -0.0084   0.00    0.0
2019/03/02 02:39:30.000   40.429164311   -4.249656913   829.3312   6   9   0.0136   0.0161   0.0367   0.0069   0.0054  -0.0091   0.00    0.0
2019/03/02 02:40:00.000   40.429164272   -4.249656862   829.3495   6   9   0.0137   0.0165   0.0372   0.0061   0.0070  -0.0092   0.00    0.0
2019/03/02 02:40:30.000   40.429164321   -4.249656795   829.3407   6   9   0.0133   0.0160   0.0373   0.0077   0.0061  -0.0082   0.00    0.0
2019/03/02 02:41:00.000   40.429164326   -4.249656830   829.3292   6   9   0.0132   0.0164   0.0370   0.0062   0.0067  -0.0092   0.00    0.0
2019/03/02 02:41:30.000   40.429164401   -4.249656808   829.3235   6   9   0.0138   0.0159   0.0375   0.0066   0.0064  -0.0099   0.00    0.0
2019/03/02 02:42:00.000   40.429164389   -4.249656852   829.3306   6   9   0.0134   0.0166   0.0377   0.0075   0.0076  -0.0084   0.00    0.0
2019/03/02 02:42:30.000   40.429164385   -4.249656838   829.3303   6   9   0.0134   0.0164   0.0378   0.0078   0.0072  -0.0093   0.00    0.0
2019/03/02 02:43:00.000   40.429164389   -4.249656858   829.3227   6   9   0.0132   0.0164   0.0388   0.0076   0.0063  -0.0094   0.00    0.0
2019/03/02 02:43:30.000   40.429164413   -4.249656943   829.3041   6   9   0.0144   0.0171   0.0415   0.0087  -0.0044  -0.0132   0.00    0.0
2019/03/02 02:44:00.000   40.429164454   -4.249656900   829.2984   6   9   0.0142   0.0169   0.0403   0.0083   0.0042  -0.0118   0.00    0.0
2019/03/02 02:44:30.000   40.429164345   -4.249656913   829.3128   6   8   0.0151   0.0169   0.0410   0.0081  -0.0051  -0.0135   0.00    0.0
2019/03/02 02:45:00.000   40.429164350   -4.249656976   829.3094   6   8   0.0146   0.0172   0.0414   0.0085  -0.0032  -0.0134   0.00    0.0
2019/03/02 02:45:30.000   40.429164272   -4.249656992   829.3285   6   8   0.0149   0.0172   0.0413   0.0084  -0.0032  -0.0135   0.00    0.0
2019/03/02 02:46:00.000   40.429164286   -4.249657038   829.3167   6   8   0.0145   0.0168   0.0417   0.0091  -0.0036  -0.0132   0.00    0.0
2019/03/02 02:46:30.000   40.429164343   -4.249657019   829.3019   6   8   0.0145   0.0165   0.0415   0.0089  -0.0037  -0.0127   0.00    0.0
2019/03/02 02:47:00.000   40.429164370   -4.249656966   829.3045   6   8   0.0147   0.0165   0.0414   0.0094  -0.0045  -0.0122   0.00    0.0
2019/03/02 02:47:30.000   40.429164363   -4.249657004   829.2997   6   8   0.0142   0.0168   0.0417   0.0092  -0.0038  -0.0130   0.00    0.0
2019/03/02 02:48:00.000   40.429164314   -4.249656986   829.2983   6   8   0.0147   0.0167   0.0414   0.0081  -0.0035  -0.0126   0.00    0.0
2019/03/02 02:48:30.000   40.429164275   -4.249657024   829.3102   6   8   0.0147   0.0168   0.0417   0.0084   0.0032  -0.0125   0.00    0.0
2019/03/02 02:49:00.000   40.429164204   -4.249657064   829.3334   6   8   0.0145   0.0170   0.0414   0.0087  -0.0023  -0.0125   0.00    0.0
2019/03/02 02:49:30.000   40.429164264   -4.249657093   829.3012   6   8   0.0146   0.0168   0.0417   0.0079   0.0043  -0.0130   0.00    0.0
2019/03/02 02:50:00.000   40.429164312   -4.249657068   829.3015   6   8   0.0139   0.0170   0.0420   0.0090   0.0053  -0.0124   0.00    0.0
2019/03/02 02:50:30.000   40.429164283   -4.249657060   829.2949   6   8   0.0142   0.0164   0.0416   0.0086   0.0034  -0.0127   0.00    0.0
2019/03/02 02:51:00.000   40.429164304   -4.249657028   829.3010   6   8   0.0142   0.0171   0.0419   0.0088   0.0053  -0.0123   0.00    0.0
2019/03/02 02:51:30.000   40.429164243   -4.249657060   829.3075   6   8   0.0143   0.0167   0.0414   0.0083   0.0013  -0.0125   0.00    0.0
2019/03/02 02:52:00.000   40.429164200   -4.249656997   829.3209   6   8   0.0143   0.0158   0.0413   0.0091   0.0028  -0.0123   0.00    0.0
2019/03/02 02:52:30.000   40.429164231   -4.249656940   829.3038   6   8   0.0145   0.0166   0.0416   0.0084   0.0057  -0.0120   0.00    0.0
2019/03/02 02:53:00.000   40.429164234   -4.249657032   829.2863   6   8   0.0146   0.0170   0.0416   0.0085   0.0054  -0.0123   0.00    0.0
2019/03/02 02:53:30.000   40.429164248   -4.249657057   829.2973   6   8   0.0143   0.0161   0.0416   0.0092   0.0045  -0.0123   0.00    0.0
2019/03/02 02:54:00.000   40.429164270   -4.249657063   829.2792   6   8   0.0145   0.0162   0.0418   0.0080   0.0066  -0.0124   0.00    0.0
2019/03/02 02:54:30.000   40.429164148   -4.249657041   829.3048   6   8   0.0142   0.0159   0.0413   0.0086   0.0037  -0.0123   0.00    0.0
2019/03/02 02:55:00.000   40.429164070   -4.249657144   829.3370   6   8   0.0146   0.0162   0.0418   0.0086   0.0053  -0.0120   0.00    0.0
2019/03/02 02:55:30.000   40.429164122   -4.249657071   829.3337   6   8   0.0144   0.0159   0.0411   0.0076   0.0041  -0.0124   0.00    0.0
2019/03/02 02:56:00.000   40.429164066   -4.249657103   829.3293   6   8   0.0145   0.0164   0.0416   0.0080   0.0057  -0.0123   0.00    0.0
2019/03/02 02:56:30.000   40.429164191   -4.249657058   829.2866   6   8   0.0144   0.0161   0.0414   0.0082   0.0050  -0.0122   0.00    0.0
2019/03/02 02:57:00.000   40.429164190   -4.249657062   829.2869   6   8   0.0143   0.0163   0.0417   0.0074   0.0068  -0.0121   0.00    0.0
2019/03/02 02:57:30.000   40.429164138   -4.249657100   829.2938   6   8   0.0143   0.0164   0.0417   0.0077   0.0073  -0.0123   0.00    0.0
2019/03/02 02:58:00.000   40.429164098   -4.249657077   829.2908   6   8   0.0138   0.0160   0.0415   0.0076   0.0063  -0.0116   0.00    0.0
2019/03/02 02:58:30.000   40.429164078   -4.249657039   829.2910   6   8   0.0140   0.0167   0.0416   0.0081   0.0068  -0.0114   0.00    0.0
2019/03/02 02:59:00.000   40.429164109   -4.249656972   829.3025   6   8   0.0146   0.0164   0.0420   0.0079   0.0084  -0.0125   0.00    0.0
2019/03/02 02:59:30.000   40.429164105   -4.249656965   829.2788   6   8   0.0141   0.0159   0.0415   0.0076   0.0069  -0.0119   0.00    0.0
2019/03/02 03:00:00.000   40.429164115   -4.249656994   829.2722   6   8   0.0139   0.0163   0.0414   0.0079   0.0083  -0.0116   0.00    0.0
2019/03/02 03:00:30.000   40.429164085   -4.249657050   829.2955   6   8   0.0142   0.0159   0.0419   0.0081   0.0077  -0.0120   0.00    0.0
2019/03/02 03:01:00.000   40.429164008   -4.249657142   829.2909   6   8   0.0144   0.0167   0.0415   0.0062   0.0084  -0.0123   0.00    0.0
2019/03/02 03:01:30.000   40.429164024   -4.249657206   829.3063   6   8   0.0141   0.0157   0.0417   0.0084   0.0078  -0.0114   0.00    0.0
2019/03/02 03:02:00.000   40.429163993   -4.249657147   829.2927   6   8   0.0143   0.0157   0.0417   0.0079   0.0092  -0.0114   0.00    0.0
2019/03/02 03:02:30.000   40.429163987   -4.249657165   829.2926   6   8   0.0148   0.0160   0.0414   0.0070   0.0083  -0.0124   0.00    0.0
2019/03/02 03:03:00.000   40.429164011   -4.249657180   829.2782   6   8   0.0139   0.0161   0.0414   0.0079   0.0076  -0.0112   0.00    0.0
2019/03/02 03:03:30.000   40.429164084   -4.249657165   829.2938   6   8   0.0141   0.0163   0.0419   0.0068   0.0094  -0.0113   0.00    0.0
2019/03/02 03:04:00.000   40.429164027   -4.249657199   829.2977   6   8   0.0147   0.0163   0.0411   0.0071   0.0085  -0.0118   0.00    0.0
2019/03/02 03:04:30.000   40.429164054   -4.249657209   829.2988   6   8   0.0143   0.0161   0.0414   0.0063   0.0090  -0.0117   0.00    0.0
2019/03/02 03:05:00.000   40.429163979   -4.249657262   829.3049   6   9   0.0129   0.0159   0.0403   0.0057   0.0083  -0.0136   0.00    0.0
2019/03/02 03:05:30.000   40.429164044   -4.249657236   829.2764   6   9   0.0133   0.0147   0.0398   0.0061   0.0055  -0.0135   0.00    0.0
2019/03/02 03:06:00.000   40.429163996   -4.249657225   829.2920   6   9   0.0140   0.0156   0.0399   0.0043   0.0065  -0.0145   0.00    0.0
2019/03/02 03:06:30.000   40.429163990   -4.249657266   829.2834   6   9   0.0137   0.0155   0.0399   0.0049   0.0070  -0.0140   0.00    0.0
2019/03/02 03:07:00.000   40.429163994   -4.249657203   829.2896   6   9   0.0129   0.0159   0.0397   0.0048   0.0074  -0.0141   0.00    0.0
2019/03/02 03:07:30.000   40.429164011   -4.249657191   829.3082   6   9   0.0131   0.0159   0.0394   0.0043   0.0068  -0.0145   0.00    0.0
2019/03/02 03:08:00.000   40.429164055   -4.249657173   829.3015   6   9   0.0130   0.0153   0.0393   0.0041   0.0066  -0.0144   0.00    0.0
2019/03/02 03:08:30.000   40.429164039   -4.249657209   829.2922   6   9   0.0130   0.0155   0.0394   0.0049   0.0073  -0.0140   0.00    0.0
2019/03/02 03:09:00.000   40.429164016   -4.249657224   829.3003   6   9   0.0130   0.0150   0.0396   0.0030   0.0078  -0.0140   0.00    0.0
2019/03/02 03:09:30.000   40.429164081   -4.249657225   829.2969   6   9   0.0129   0.0146   0.0390   0.0049   0.0059  -0.0135   0.00    0.0
2019/03/02 03:10:00.000   40.429164139   -4.249657199   829.2941   6   9   0.0135   0.0160   0.0390   0.0039   0.0074  -0.0144   0.00    0.0
2019/03/02 03:10:30.000   40.429164082   -4.249657181   829.3002   6   9   0.0137   0.0157   0.0400   0.0014   0.0083  -0.0144   0.00    0.0
2019/03/02 03:11:00.000   40.429164093   -4.249657215   829.3151   6   9   0.0129   0.0150   0.0398   0.0028   0.0073  -0.0138   0.00    0.0
2019/03/02 03:11:30.000   40.429164052   -4.249657250   829.3053   6   9   0.0133   0.0156   0.0395   0.0026   0.0084  -0.0140   0.00    0.0
2019/03/02 03:12:00.000   40.429164099   -4.249657194   829.3061   6   9   0.0126   0.0156   0.0397   0.0029   0.0082  -0.0137   0.00    0.0
2019/03/02 03:12:30.000   40.429164152   -4.249657224   829.2938   6   9   0.0124   0.0153   0.0393   0.0019   0.0087  -0.0135   0.00    0.0
2019/03/02 03:13:00.000   40.429164180   -4.249657211   829.3062   6   9   0.0133   0.0157   0.0394   0.0023   0.0089  -0.0142   0.00    0.0
2019/03/02 03:13:30.000   40.429164171   -4.249657165   829.3213   6   9   0.0128   0.0146   0.0394   0.0032   0.0070  -0.0136   0.00    0.0
2019/03/02 03:14:00.000   40.429164174   -4.249657178   829.3156   6   9   0.0135   0.0147   0.0392   0.0026   0.0073  -0.0136   0.00    0.0
2019/03/02 03:14:30.000   40.429164159   -4.249657200   829.3092   6   9   0.0133   0.0153   0.0392  -0.0012   0.0083  -0.0146   0.00    0.0
2019/03/02 03:15:00.000   40.429164178   -4.249657187   829.3190   6   9   0.0126   0.0147   0.0395   0.0025   0.0087  -0.0141   0.00    0.0
2019/03/02 03:15:30.000   40.429164170   -4.249657195   829.3240   6   9   0.0135   0.0146   0.0393  -0.0021   0.0088  -0.0143   0.00    0.0
2019/03/02 03:16:00.000   40.429164155   -4.249657175   829.3346   6   9   0.0132   0.0155   0.0396   0.0036   0.0091  -0.0141   0.00    0.0
2019/03/02 03:16:30.000   40.429164183   -4.249657157   829.3236   6   9   0.0137   0.0154   0.0394   0.0035   0.0100  -0.0144   0.00    0.0
2019/03/02 03:17:00.000   40.429164207   -4.249657217   829.3207   6   9   0.0136   0.0148   0.0393   0.0004   0.0089  -0.0142   0.00    0.0
2019/03/02 03:17:30.000   40.429164175   -4.249657202   829.3513   6   9   0.0133   0.0157   0.0396   0.0016   0.0095  -0.0135   0.00    0.0
2019/03/02 03:18:00.000   40.429164106   -4.249657189   829.3402   6   9   0.0128   0.0145   0.0397   0.0040   0.0086  -0.0136   0.00    0.0
2019/03/02 03:18:30.000   40.429164115   -4.249657203   829.3384   6   9   0.0129   0.0149   0.0395  -0.0009   0.0097  -0.0139   0.00    0.0
2019/03/02 03:19:00.000   40.429164147   -4.249657211   829.3364   6   9   0.0137   0.0147   0.0393   0.0021   0.0092  -0.0139   0.00    0.0
2019/03/02 03:19:30.000   40.429164217   -4.249657101   829.3233   6   9   0.0128   0.0145   0.0398   0.0029   0.0093  -0.0141   0.00    0.0
2019/03/02 03:20:00.000   40.429164269   -4.249657099   829.3304   6   9   0.0133   0.0148   0.0395   0.0027   0.0095  -0.0141   0.00    0.0
2019/03/02 03:20:30.000   40.429164278   -4.249657074   829.3459   6   9   0.0140   0.0146   0.0400  -0.0032   0.0089  -0.0140   0.00    0.0
2019/03/02 03:21:00.000   40.429164234   -4.249657144   829.3550   6   9   0.0131   0.0153   0.0438  -0.0030   0.0062  -0.0145   0.00    0.0
2019/03/02 03:21:30.000   40.429164184   -4.249657103   829.3545   6   9   0.0137   0.0153   0.0403  -0.0020   0.0096  -0.0141   0.00    0.0
2019/03/02 03:22:00.000   40.429164177   -4.249657114   829.3463   6   9   0.0134   0.0156   0.0403   0.0006   0.0102  -0.0141   0.00    0.0
2019/03/02 03:22:30.000   40.429164162   -4.249657148   829.3582   6   9   0.0136   0.0150   0.0400  -0.0020   0.0099  -0.0138   0.00    0.0
2019/03/02 03:23:00.000   40.429164191   -4.249657151   829.3403   6   9   0.0138   0.0147   0.0394   0.0034   0.0107  -0.0143   0.00    0.0
2019/03/02 03:23:30.000   40.429164216   -4.249657139   829.3164   6   9   0.0127   0.0140   0.0398   0.0012   0.0096  -0.0140   0.00    0.0
2019/03/02 03:24:00.000   40.429164241   -4.249657093   829.3371   6   9   0.0133   0.0150   0.0403  -0.0045   0.0107  -0.0141   0.00    0.0
2019/03/02 03:24:30.000   40.429164237   -4.249657102   829.3438   6   9   0.0130   0.0149   0.0413  -0.0042   0.0113  -0.0136   0.00    0.0
2019/03/02 03:25:00.000   40.429164236   -4.249657129   829.3421   6   8   0.0129   0.0147   0.0430  -0.0034   0.0086  -0.0141   0.00    0.0
2019/03/02 03:25:30.000   40.429164209   -4.249657106   829.3372   6   8   0.0136   0.0158   0.0429  -0.0048   0.0096  -0.0142   0.00    0.0
2019/03/02 03:26:00.000   40.429164191   -4.249657097   829.3486   6   8   0.0137   0.0157   0.0432  -0.0033   0.0100  -0.0136   0.00    0.0
2019/03/02 03:26:30.000   40.429164262   -4.249657125   829.3360   6   8   0.0137   0.0151   0.0428  -0.0033   0.0094  -0.0137   0.00    0.0
2019/03/02 03:27:00.000   40.429164277   -4.249657157   829.3398   6   8   0.0133   0.0151   0.0427  -0.0053   0.0099  -0.0141   0.00    0.0
2019/03/02 03:27:30.000   40.429164328   -4.249657128   829.3388   6   8   0.0129   0.0149   0.0427  -0.0028   0.0098  -0.0133   0.00    0.0
2019/03/02 03:28:00.000   40.429164343   -4.249657135   829.3339   6   8   0.0130   0.0149   0.0428  -0.0033   0.0100  -0.0136   0.00    0.0
2019/03/02 03:28:30.000   40.429164303   -4.249657160   829.3214   6   8   0.0135   0.0149   0.0425  -0.0050   0.0101  -0.0138   0.00    0.0
2019/03/02 03:29:00.000   40.429164234   -4.249657128   829.3229   6   8   0.0136   0.0151   0.0427  -0.0030   0.0101  -0.0139   0.00    0.0
