% program   : RTKPOST ver.2.4.2
% inp file  : D:\WORK\6_GNSS\MAD2\mad20380.19o
% inp file  : D:\WORK\6_GNSS\NAV\brdc0*.19n
% inp file  : D:\WORK\6_GNSS\CLK\Sta2*.sp3
% inp file  : D:\WORK\6_GNSS\CLK\Sta30s20394.clk
% obs start : 2019/02/07 00:00:00.0 GPST (week2039 345600.0s)
% obs end   : 2019/02/07 23:59:30.0 GPST (week2039 431970.0s)
% pos mode  : ppp-kinematic
% solution  : combined
% elev mask : 15.0 deg
% dynamics  : off
% tidecorr  : off
% tropo opt : est ztd+grad
% ephemeris : precise
% antenna1  : AOAD/M_T        NONE  ( 0.0000  0.0000  0.0254)
%
% (lat/lon/height=WGS84/geodetic,Q=1:fix,2:float,3:sbas,4:dgps,5:single,6:ppp,ns=# of satellites)
%  GPST                  latitude(deg) longitude(deg)  height(m)   Q  ns   sdn(m)   sde(m)   sdu(m)  sdne(m)  sdeu(m)  sdun(m) age(s)  ratio
2019/02/07 00:00:00.000   40.429163281   -4.249655190   829.6436   6   8   0.0207   0.0188   0.0582   0.0089  -0.0201  -0.0197   0.00    0.0
2019/02/07 00:00:30.000   40.429163240   -4.249655120   829.6342   6   8   0.0213   0.0188   0.0575  -0.0024  -0.0207  -0.0204   0.00    0.0
2019/02/07 00:01:00.000   40.429163207   -4.249655063   829.6241   6   8   0.0210   0.0186   0.0568   0.0039  -0.0199  -0.0204   0.00    0.0
2019/02/07 00:01:30.000   40.429163353   -4.249655133   829.6216   6   8   0.0216   0.0191   0.0570   0.0064  -0.0203  -0.0205   0.00    0.0
2019/02/07 00:02:00.000   40.429163385   -4.249655166   829.6152   6   9   0.0207   0.0182   0.0559   0.0088  -0.0201  -0.0199   0.00    0.0
2019/02/07 00:02:30.000   40.429163382   -4.249655214   829.6435   6   9   0.0221   0.0191   0.0549   0.0045  -0.0210  -0.0201   0.00    0.0
2019/02/07 00:03:00.000   40.429163341   -4.249655176   829.6379   6   9   0.0200   0.0176   0.0548   0.0030  -0.0215  -0.0206   0.00    0.0
2019/02/07 00:03:30.000   40.429163327   -4.249655169   829.6238   6   9   0.0202   0.0190   0.0554   0.0043  -0.0208  -0.0204   0.00    0.0
2019/02/07 00:04:00.000   40.429163286   -4.249655193   829.6481   6   9   0.0205   0.0178   0.0552   0.0055  -0.0205  -0.0202   0.00    0.0
2019/02/07 00:04:30.000   40.429163387   -4.249655220   829.6519   6   9   0.0210   0.0179   0.0554   0.0055  -0.0219  -0.0192   0.00    0.0
2019/02/07 00:05:00.000   40.429163386   -4.249655237   829.6588   6   9   0.0214   0.0175   0.0554   0.0074  -0.0188  -0.0193   0.00    0.0
2019/02/07 00:05:30.000   40.429163378   -4.249655260   829.6472   6   9   0.0209   0.0178   0.0547   0.0043  -0.0219  -0.0206   0.00    0.0
2019/02/07 00:06:00.000   40.429163420   -4.249655212   829.6319   6   9   0.0220   0.0189   0.0543   0.0039  -0.0191  -0.0209   0.00    0.0
2019/02/07 00:06:30.000   40.429163395   -4.249655207   829.6341   6   9   0.0216   0.0188   0.0536   0.0047  -0.0185  -0.0200   0.00    0.0
2019/02/07 00:07:00.000   40.429163394   -4.249655305   829.6648   6   9   0.0207   0.0189   0.0552   0.0024  -0.0192  -0.0194   0.00    0.0
2019/02/07 00:07:30.000   40.429163355   -4.249655308   829.6689   6   9   0.0209   0.0167   0.0543   0.0026  -0.0200  -0.0203   0.00    0.0
2019/02/07 00:08:00.000   40.429163358   -4.249655320   829.6543   6   9   0.0221   0.0171   0.0538  -0.0031  -0.0214  -0.0210   0.00    0.0
2019/02/07 00:08:30.000   40.429163340   -4.249655335   829.6465   6   9   0.0214   0.0177   0.0536  -0.0061  -0.0189  -0.0202   0.00    0.0
2019/02/07 00:09:00.000   40.429163388   -4.249655293   829.6665   6   9   0.0216   0.0184   0.0549   0.0044  -0.0184  -0.0193   0.00    0.0
2019/02/07 00:09:30.000   40.429163463   -4.249655355   829.6644   6   9   0.0215   0.0176   0.0535   0.0055  -0.0200  -0.0210   0.00    0.0
2019/02/07 00:10:00.000   40.429163472   -4.249655346   829.6480   6   9   0.0214   0.0184   0.0534   0.0034  -0.0185  -0.0206   0.00    0.0
2019/02/07 00:10:30.000   40.429163462   -4.249655327   829.6498   6   9   0.0214   0.0185   0.0541   0.0004  -0.0175  -0.0183   0.00    0.0
2019/02/07 00:11:00.000   40.429163453   -4.249655375   829.6615   6   9   0.0213   0.0175   0.0529   0.0065  -0.0200  -0.0208   0.00    0.0
2019/02/07 00:11:30.000   40.429163445   -4.249655393   829.6652   6   9   0.0209   0.0183   0.0537   0.0081  -0.0179  -0.0197   0.00    0.0
2019/02/07 00:12:00.000   40.429163484   -4.249655399   829.6782   6   9   0.0210   0.0170   0.0539   0.0073  -0.0171  -0.0189   0.00    0.0
2019/02/07 00:12:30.000   40.429163421   -4.249655424   829.6703   6   9   0.0212   0.0171   0.0526  -0.0031  -0.0200  -0.0208   0.00    0.0
2019/02/07 00:13:00.000   40.429163469   -4.249655405   829.6758   6   9   0.0209   0.0168   0.0527   0.0023  -0.0190  -0.0197   0.00    0.0
2019/02/07 00:13:30.000   40.429163569   -4.249655352   829.6765   6   9   0.0217   0.0189   0.0525   0.0036  -0.0168  -0.0204   0.00    0.0
2019/02/07 00:14:00.000   40.429163519   -4.249655428   829.6841   6   9   0.0217   0.0161   0.0527   0.0017  -0.0176  -0.0202   0.00    0.0
2019/02/07 00:14:30.000   40.429163493   -4.249655406   829.6582   6   9   0.0215   0.0161   0.0520   0.0017  -0.0186  -0.0202   0.00    0.0
2019/02/07 00:15:00.000   40.429163461   -4.249655425   829.6639   6   9   0.0214   0.0165   0.0529   0.0039  -0.0169  -0.0182   0.00    0.0
2019/02/07 00:15:30.000   40.429163556   -4.249655404   829.6651   6   9   0.0218   0.0172   0.0534  -0.0032  -0.0187  -0.0183   0.00    0.0
2019/02/07 00:16:00.000   40.429163595   -4.249655426   829.6511   6   8   0.0219   0.0185   0.0532   0.0022  -0.0188  -0.0183   0.00    0.0
2019/02/07 00:16:30.000   40.429163561   -4.249655428   829.6407   6   8   0.0217   0.0170   0.0527  -0.0054  -0.0184  -0.0184   0.00    0.0
2019/02/07 00:17:00.000   40.429163545   -4.249655359   829.6393   6   8   0.0218   0.0174   0.0525  -0.0009  -0.0178  -0.0187   0.00    0.0
2019/02/07 00:17:30.000   40.429163515   -4.249655358   829.6570   6   8   0.0220   0.0170   0.0528   0.0052  -0.0175  -0.0182   0.00    0.0
2019/02/07 00:18:00.000   40.429163460   -4.249655374   829.6563   6   8   0.0218   0.0155   0.0524  -0.0051  -0.0183  -0.0192   0.00    0.0
2019/02/07 00:18:30.000   40.429163485   -4.249655363   829.6428   6   8   0.0217   0.0169   0.0511  -0.0042  -0.0183  -0.0203   0.00    0.0
2019/02/07 00:19:00.000   40.429163552   -4.249655380   829.6377   6   8   0.0219   0.0155   0.0515  -0.0055  -0.0185  -0.0195   0.00    0.0
2019/02/07 00:19:30.000   40.429163516   -4.249655398   829.6248   6   8   0.0215   0.0165   0.0513  -0.0037  -0.0183  -0.0195   0.00    0.0
2019/02/07 00:20:00.000   40.429163438   -4.249655350   829.6382   6   8   0.0218   0.0169   0.0514  -0.0023  -0.0177  -0.0198   0.00    0.0
2019/02/07 00:20:30.000   40.429163484   -4.249655315   829.6449   6   8   0.0219   0.0153   0.0515   0.0059  -0.0178  -0.0190   0.00    0.0
2019/02/07 00:21:00.000   40.429163423   -4.249655298   829.6533   6   8   0.0213   0.0172   0.0511  -0.0019  -0.0165  -0.0193   0.00    0.0
2019/02/07 00:21:30.000   40.429163432   -4.249655322   829.6549   6   8   0.0214   0.0171   0.0512   0.0022  -0.0173  -0.0196   0.00    0.0
2019/02/07 00:22:00.000   40.429163432   -4.249655366   829.6537   6   8   0.0217   0.0166   0.0514   0.0043  -0.0169  -0.0192   0.00    0.0
2019/02/07 00:22:30.000   40.429163430   -4.249655360   829.6476   6   8   0.0212   0.0162   0.0506   0.0033  -0.0167  -0.0197   0.00    0.0
2019/02/07 00:23:00.000   40.429163392   -4.249655305   829.6591   6   8   0.0212   0.0156   0.0511   0.0069  -0.0173  -0.0194   0.00    0.0
2019/02/07 00:23:30.000   40.429163323   -4.249655335   829.6727   6   8   0.0214   0.0170   0.0509   0.0028  -0.0156  -0.0195   0.00    0.0
2019/02/07 00:24:00.000   40.429163310   -4.249655337   829.6700   6   8   0.0213   0.0163   0.0506   0.0042  -0.0149  -0.0195   0.00    0.0
2019/02/07 00:24:30.000   40.429163291   -4.249655307   829.6691   6   8   0.0211   0.0180   0.0504   0.0020  -0.0163  -0.0195   0.00    0.0
2019/02/07 00:25:00.000   40.429163248   -4.249655312   829.6761   6   8   0.0205   0.0162   0.0504  -0.0009  -0.0157  -0.0190   0.00    0.0
2019/02/07 00:25:30.000   40.429163270   -4.249655329   829.6730   6   8   0.0210   0.0168   0.0502   0.0050  -0.0160  -0.0196   0.00    0.0
2019/02/07 00:26:00.000   40.429163317   -4.249655379   829.6584   6   8   0.0205   0.0165   0.0492   0.0025  -0.0154  -0.0198   0.00    0.0
2019/02/07 00:26:30.000   40.429163317   -4.249655343   829.6699   6   8   0.0204   0.0170   0.0506   0.0034  -0.0137  -0.0188   0.00    0.0
2019/02/07 00:27:00.000   40.429163261   -4.249655348   829.6809   6   8   0.0209   0.0170   0.0495   0.0044  -0.0137  -0.0190   0.00    0.0
2019/02/07 00:27:30.000   40.429163120   -4.249655319   829.6916   6   8   0.0205   0.0163   0.0500   0.0049  -0.0144  -0.0193   0.00    0.0
2019/02/07 00:28:00.000   40.429163068   -4.249655281   829.6854   6   8   0.0203   0.0167   0.0492   0.0019  -0.0152  -0.0201   0.00    0.0
2019/02/07 00:28:30.000   40.429163133   -4.249655335   829.6666   6   8   0.0204   0.0169   0.0494   0.0041  -0.0158  -0.0203   0.00    0.0
2019/02/07 00:29:00.000   40.429163210   -4.249655358   829.6628   6   8   0.0201   0.0165   0.0496   0.0038  -0.0152  -0.0199   0.00    0.0
2019/02/07 00:29:30.000   40.429163266   -4.249655392   829.6596   6   8   0.0206   0.0166   0.0486   0.0053  -0.0141  -0.0201   0.00    0.0
2019/02/07 00:30:00.000   40.429163216   -4.249655359   829.6800   6   8   0.0206   0.0170   0.0488   0.0040  -0.0142  -0.0199   0.00    0.0
2019/02/07 00:30:30.000   40.429163200   -4.249655316   829.6733   6   8   0.0203   0.0182   0.0488   0.0064  -0.0156  -0.0199   0.00    0.0
2019/02/07 00:31:00.000   40.429163120   -4.249655292   829.6793   6   8   0.0201   0.0158   0.0482  -0.0023  -0.0146  -0.0203   0.00    0.0
2019/02/07 00:31:30.000   40.429163209   -4.249655289   829.6648   6   8   0.0206   0.0162   0.0489   0.0048  -0.0127  -0.0201   0.00    0.0
2019/02/07 00:32:00.000   40.429163180   -4.249655313   829.6577   6   8   0.0197   0.0155   0.0491   0.0059  -0.0145  -0.0196   0.00    0.0
2019/02/07 00:32:30.000   40.429163130   -4.249655308   829.6463   6   8   0.0199   0.0156   0.0481   0.0029  -0.0138  -0.0196   0.00    0.0
2019/02/07 00:33:00.000   40.429163189   -4.249655326   829.6410   6   8   0.0200   0.0156   0.0486   0.0057  -0.0134  -0.0197   0.00    0.0
2019/02/07 00:33:30.000   40.429163170   -4.249655313   829.6375   6   8   0.0198   0.0141   0.0484  -0.0026  -0.0147  -0.0198   0.00    0.0
2019/02/07 00:34:00.000   40.429163235   -4.249655254   829.6427   6   8   0.0199   0.0150   0.0485   0.0057  -0.0124  -0.0192   0.00    0.0
2019/02/07 00:34:30.000   40.429163178   -4.249655312   829.6474   6   8   0.0196   0.0154   0.0484  -0.0030  -0.0121  -0.0190   0.00    0.0
2019/02/07 00:35:00.000   40.429163143   -4.249655289   829.6257   6   8   0.0197   0.0166   0.0479   0.0052  -0.0142  -0.0194   0.00    0.0
2019/02/07 00:35:30.000   40.429163148   -4.249655327   829.6305   6   8   0.0197   0.0159   0.0479   0.0021  -0.0138  -0.0193   0.00    0.0
2019/02/07 00:36:00.000   40.429163245   -4.249655296   829.6375   6   8   0.0200   0.0148   0.0485   0.0069  -0.0137  -0.0197   0.00    0.0
2019/02/07 00:36:30.000   40.429163246   -4.249655216   829.6418   6   8   0.0195   0.0174   0.0468   0.0045  -0.0135  -0.0198   0.00    0.0
2019/02/07 00:37:00.000   40.429163253   -4.249655184   829.6284   6   8   0.0194   0.0160   0.0478   0.0062  -0.0122  -0.0192   0.00    0.0
2019/02/07 00:37:30.000   40.429163152   -4.249655177   829.6134   6   8   0.0194   0.0168   0.0473   0.0055  -0.0135  -0.0194   0.00    0.0
2019/02/07 00:38:00.000   40.429163178   -4.249655249   829.6038   6   8   0.0192   0.0159   0.0477   0.0048  -0.0131  -0.0196   0.00    0.0
2019/02/07 00:38:30.000   40.429163273   -4.249655212   829.5948   6   8   0.0194   0.0171   0.0466   0.0060  -0.0129  -0.0196   0.00    0.0
2019/02/07 00:39:00.000   40.429163279   -4.249655188   829.6078   6   8   0.0194   0.0173   0.0471   0.0058  -0.0133  -0.0195   0.00    0.0
2019/02/07 00:39:30.000   40.429163319   -4.249655293   829.6127   6   8   0.0193   0.0158   0.0469   0.0041  -0.0123  -0.0194   0.00    0.0
2019/02/07 00:40:00.000   40.429163329   -4.249655167   829.6175   6   8   0.0191   0.0174   0.0476   0.0057  -0.0112  -0.0185   0.00    0.0
2019/02/07 00:40:30.000   40.429163268   -4.249655221   829.6063   6   8   0.0192   0.0157   0.0463   0.0019  -0.0098  -0.0188   0.00    0.0
2019/02/07 00:41:00.000   40.429163218   -4.249655272   829.5929   6   8   0.0192   0.0150   0.0464   0.0024  -0.0119  -0.0188   0.00    0.0
2019/02/07 00:41:30.000   40.429163255   -4.249655296   829.6007   6   8   0.0191   0.0149   0.0459   0.0034  -0.0123  -0.0188   0.00    0.0
2019/02/07 00:42:00.000   40.429163281   -4.249655318   829.5951   6   8   0.0193   0.0144   0.0461   0.0047  -0.0120  -0.0189   0.00    0.0
2019/02/07 00:42:30.000   40.429163232   -4.249655269   829.6072   6   8   0.0189   0.0159   0.0467   0.0046  -0.0107  -0.0187   0.00    0.0
2019/02/07 00:43:00.000   40.429163269   -4.249655224   829.6091   6   8   0.0189   0.0156   0.0463   0.0047  -0.0118  -0.0188   0.00    0.0
2019/02/07 00:43:30.000   40.429163318   -4.249655281   829.5930   6   8   0.0192   0.0152   0.0462   0.0033  -0.0121  -0.0191   0.00    0.0
2019/02/07 00:44:00.000   40.429163337   -4.249655192   829.5865   6   8   0.0191   0.0159   0.0464   0.0030  -0.0122  -0.0185   0.00    0.0
2019/02/07 00:44:30.000   40.429163390   -4.249655188   829.5775   6   8   0.0192   0.0163   0.0459   0.0041  -0.0113  -0.0189   0.00    0.0
2019/02/07 00:45:00.000   40.429163383   -4.249655292   829.5590   6   8   0.0194   0.0152   0.0454   0.0044  -0.0126  -0.0188   0.00    0.0
2019/02/07 00:45:30.000   40.429163524   -4.249655225   829.5603   6   8   0.0190   0.0163   0.0458   0.0066  -0.0124  -0.0192   0.00    0.0
2019/02/07 00:46:00.000   40.429163484   -4.249655255   829.5689   6   8   0.0191   0.0152   0.0452   0.0045  -0.0106  -0.0190   0.00    0.0
2019/02/07 00:46:30.000   40.429163583   -4.249655208   829.5676   6   8   0.0190   0.0167   0.0462   0.0064  -0.0121  -0.0185   0.00    0.0
2019/02/07 00:47:00.000   40.429163536   -4.249655264   829.5589   6   8   0.0192   0.0157   0.0456   0.0052  -0.0117  -0.0188   0.00    0.0
2019/02/07 00:47:30.000   40.429163466   -4.249655180   829.5582   6   8   0.0191   0.0170   0.0456   0.0064  -0.0106  -0.0186   0.00    0.0
2019/02/07 00:48:00.000   40.429163479   -4.249655274   829.5572   6   9   0.0180   0.0150   0.0456   0.0045  -0.0109  -0.0198   0.00    0.0
2019/02/07 00:48:30.000   40.429163487   -4.249655294   829.5609   6   9   0.0175   0.0162   0.0456  -0.0026  -0.0111  -0.0197   0.00    0.0
2019/02/07 00:49:00.000   40.429163563   -4.249655189   829.5498   6   9   0.0181   0.0155   0.0472   0.0069  -0.0141  -0.0212   0.00    0.0
2019/02/07 00:49:30.000   40.429163696   -4.249655167   829.5158   6   9   0.0189   0.0166   0.0488   0.0074  -0.0148  -0.0227   0.00    0.0
2019/02/07 00:50:00.000   40.429163711   -4.249655156   829.5015   6   8   0.0192   0.0159   0.0484   0.0076  -0.0146  -0.0230   0.00    0.0
2019/02/07 00:50:30.000   40.429163591   -4.249655120   829.5028   6   8   0.0184   0.0163   0.0493   0.0075  -0.0154  -0.0225   0.00    0.0
2019/02/07 00:51:00.000   40.429163739   -4.249655145   829.4992   6   8   0.0186   0.0176   0.0483   0.0074  -0.0139  -0.0225   0.00    0.0
2019/02/07 00:51:30.000   40.429163765   -4.249655153   829.5108   6   8   0.0185   0.0159   0.0479   0.0079  -0.0144  -0.0222   0.00    0.0
2019/02/07 00:52:00.000   40.429163738   -4.249655188   829.5186   6   8   0.0181   0.0165   0.0484   0.0052  -0.0134  -0.0216   0.00    0.0
2019/02/07 00:52:30.000   40.429163782   -4.249655117   829.5121   6   8   0.0184   0.0157   0.0480   0.0084  -0.0137  -0.0218   0.00    0.0
2019/02/07 00:53:00.000   40.429163642   -4.249655109   829.5099   6   8   0.0181   0.0168   0.0477   0.0078  -0.0141  -0.0215   0.00    0.0
2019/02/07 00:53:30.000   40.429163630   -4.249655226   829.5275   6   8   0.0183   0.0166   0.0478   0.0056  -0.0139  -0.0215   0.00    0.0
2019/02/07 00:54:00.000   40.429163585   -4.249655200   829.5328   6   8   0.0181   0.0153   0.0471   0.0057  -0.0127  -0.0211   0.00    0.0
2019/02/07 00:54:30.000   40.429163630   -4.249655193   829.5231   6   8   0.0183   0.0159   0.0466   0.0069  -0.0122  -0.0209   0.00    0.0
2019/02/07 00:55:00.000   40.429163567   -4.249655223   829.5241   6   8   0.0177   0.0165   0.0467   0.0061  -0.0120  -0.0208   0.00    0.0
2019/02/07 00:55:30.000   40.429163685   -4.249655232   829.5224   6   8   0.0177   0.0173   0.0463   0.0069  -0.0123  -0.0205   0.00    0.0
2019/02/07 00:56:00.000   40.429163781   -4.249655251   829.5281   6   8   0.0179   0.0163   0.0460   0.0069  -0.0125  -0.0209   0.00    0.0
2019/02/07 00:56:30.000   40.429163621   -4.249655191   829.5344   6   8   0.0179   0.0169   0.0459   0.0067  -0.0127  -0.0203   0.00    0.0
2019/02/07 00:57:00.000   40.429163690   -4.249655265   829.5219   6   8   0.0175   0.0147   0.0452   0.0045  -0.0103  -0.0203   0.00    0.0
2019/02/07 00:57:30.000   40.429163673   -4.249655234   829.5280   6   8   0.0174   0.0151   0.0455   0.0045  -0.0110  -0.0199   0.00    0.0
2019/02/07 00:58:00.000   40.429163672   -4.249655196   829.5323   6   8   0.0173   0.0161   0.0455   0.0057  -0.0117  -0.0197   0.00    0.0
2019/02/07 00:58:30.000   40.429163748   -4.249655225   829.5289   6   8   0.0174   0.0171   0.0451   0.0074  -0.0122  -0.0198   0.00    0.0
2019/02/07 00:59:00.000   40.429163763   -4.249655356   829.5291   6   8   0.0171   0.0158   0.0454   0.0050  -0.0114  -0.0195   0.00    0.0
2019/02/07 00:59:30.000   40.429163676   -4.249655317   829.5213   6   8   0.0169   0.0157   0.0453   0.0064  -0.0110  -0.0192   0.00    0.0
2019/02/07 01:00:00.000   40.429163628   -4.249655265   829.5274   6   8   0.0170   0.0173   0.0452   0.0050  -0.0113  -0.0189   0.00    0.0
2019/02/07 01:00:30.000   40.429163674   -4.249655244   829.5301   6   8   0.0169   0.0160   0.0450   0.0054  -0.0106  -0.0186   0.00    0.0
2019/02/07 01:01:00.000   40.429163659   -4.249655264   829.5290   6   8   0.0167   0.0161   0.0450   0.0053  -0.0107  -0.0185   0.00    0.0
2019/02/07 01:01:30.000   40.429163663   -4.249655240   829.5344   6   8   0.0169   0.0159   0.0446   0.0069  -0.0117  -0.0183   0.00    0.0
2019/02/07 01:02:00.000   40.429163638   -4.249655269   829.5419   6   8   0.0165   0.0165   0.0443   0.0065  -0.0113  -0.0182   0.00    0.0
2019/02/07 01:02:30.000   40.429163690   -4.249655306   829.5331   6   8   0.0165   0.0171   0.0443   0.0061  -0.0108  -0.0182   0.00    0.0
2019/02/07 01:03:00.000   40.429163639   -4.249655343   829.5359   6   8   0.0165   0.0157   0.0441   0.0046  -0.0092  -0.0178   0.00    0.0
2019/02/07 01:03:30.000   40.429163645   -4.249655346   829.5342   6   8   0.0164   0.0163   0.0435   0.0050  -0.0107  -0.0177   0.00    0.0
2019/02/07 01:04:00.000   40.429163528   -4.249655348   829.5467   6   8   0.0165   0.0164   0.0445   0.0007  -0.0102  -0.0175   0.00    0.0
2019/02/07 01:04:30.000   40.429163584   -4.249655312   829.5497   6   8   0.0165   0.0156   0.0437   0.0056  -0.0095  -0.0173   0.00    0.0
2019/02/07 01:05:00.000   40.429163502   -4.249655355   829.5521   6   8   0.0162   0.0167   0.0440   0.0030  -0.0098  -0.0170   0.00    0.0
2019/02/07 01:05:30.000   40.429163516   -4.249655355   829.5571   6   8   0.0159   0.0145   0.0433   0.0053  -0.0095  -0.0165   0.00    0.0
2019/02/07 01:06:00.000   40.429163506   -4.249655375   829.5604   6   8   0.0158   0.0172   0.0437   0.0016  -0.0091  -0.0164   0.00    0.0
2019/02/07 01:06:30.000   40.429163462   -4.249655388   829.5565   6   8   0.0160   0.0164   0.0433   0.0048  -0.0102  -0.0164   0.00    0.0
2019/02/07 01:07:00.000   40.429163498   -4.249655359   829.5623   6   8   0.0159   0.0156   0.0432   0.0051  -0.0071  -0.0163   0.00    0.0
2019/02/07 01:07:30.000   40.429163521   -4.249655297   829.5626   6   8   0.0156   0.0168   0.0436   0.0049  -0.0097  -0.0159   0.00    0.0
2019/02/07 01:08:00.000   40.429163527   -4.249655295   829.5598   6   8   0.0158   0.0164   0.0436   0.0060  -0.0101  -0.0159   0.00    0.0
2019/02/07 01:08:30.000   40.429163520   -4.249655385   829.5629   6   8   0.0157   0.0162   0.0435   0.0041  -0.0093  -0.0154   0.00    0.0
2019/02/07 01:09:00.000   40.429163532   -4.249655382   829.5684   6   8   0.0155   0.0151   0.0442   0.0052  -0.0090  -0.0153   0.00    0.0
2019/02/07 01:09:30.000   40.429163528   -4.249655313   829.5588   6   8   0.0158   0.0172   0.0436   0.0054  -0.0100  -0.0153   0.00    0.0
2019/02/07 01:10:00.000   40.429163485   -4.249655386   829.5572   6   8   0.0157   0.0162   0.0442   0.0052  -0.0088  -0.0147   0.00    0.0
2019/02/07 01:10:30.000   40.429163487   -4.249655382   829.5544   6   8   0.0158   0.0165   0.0451   0.0039  -0.0096  -0.0136   0.00    0.0
2019/02/07 01:11:00.000   40.429163461   -4.249655365   829.5619   6   7   0.0161   0.0162   0.0455  -0.0017  -0.0085  -0.0126   0.00    0.0
2019/02/07 01:11:30.000   40.429163500   -4.249655340   829.5714   6   7   0.0161   0.0159   0.0453   0.0050  -0.0092  -0.0128   0.00    0.0
2019/02/07 01:12:00.000   40.429163428   -4.249655341   829.5733   6   8   0.0159   0.0156   0.0420   0.0042   0.0053  -0.0135   0.00    0.0
2019/02/07 01:12:30.000   40.429163432   -4.249655346   829.5680   6   8   0.0161   0.0160   0.0416   0.0033  -0.0035  -0.0132   0.00    0.0
2019/02/07 01:13:00.000   40.429163389   -4.249655449   829.5658   6   8   0.0160   0.0149   0.0420   0.0059  -0.0026  -0.0133   0.00    0.0
2019/02/07 01:13:30.000   40.429163420   -4.249655379   829.5585   6   8   0.0159   0.0160   0.0415   0.0050   0.0018  -0.0134   0.00    0.0
2019/02/07 01:14:00.000   40.429163441   -4.249655410   829.5547   6   8   0.0156   0.0144   0.0417   0.0042   0.0055  -0.0124   0.00    0.0
2019/02/07 01:14:30.000   40.429163395   -4.249655336   829.5514   6   8   0.0155   0.0157   0.0413   0.0033   0.0063  -0.0127   0.00    0.0
2019/02/07 01:15:00.000   40.429163409   -4.249655341   829.5501   6   8   0.0154   0.0149   0.0418   0.0046  -0.0017  -0.0124   0.00    0.0
2019/02/07 01:15:30.000   40.429163394   -4.249655348   829.5470   6   8   0.0155   0.0154   0.0408   0.0047   0.0068  -0.0127   0.00    0.0
2019/02/07 01:16:00.000   40.429163429   -4.249655324   829.5497   6   8   0.0158   0.0158   0.0411   0.0027   0.0065  -0.0128   0.00    0.0
2019/02/07 01:16:30.000   40.429163475   -4.249655285   829.5398   6   8   0.0154   0.0158   0.0415   0.0053   0.0031  -0.0123   0.00    0.0
2019/02/07 01:17:00.000   40.429163491   -4.249655220   829.5509   6   8   0.0154   0.0164   0.0413   0.0051   0.0070  -0.0122   0.00    0.0
2019/02/07 01:17:30.000   40.429163543   -4.249655222   829.5505   6   8   0.0151   0.0153   0.0410   0.0065   0.0069  -0.0119   0.00    0.0
2019/02/07 01:18:00.000   40.429163497   -4.249655285   829.5375   6   8   0.0155   0.0153   0.0410   0.0051   0.0083  -0.0122   0.00    0.0
2019/02/07 01:18:30.000   40.429163470   -4.249655315   829.5301   6   8   0.0154   0.0147   0.0406   0.0054   0.0080  -0.0123   0.00    0.0
2019/02/07 01:19:00.000   40.429163470   -4.249655294   829.5493   6   8   0.0150   0.0146   0.0405   0.0056   0.0084  -0.0116   0.00    0.0
2019/02/07 01:19:30.000   40.429163497   -4.249655244   829.5365   6   8   0.0151   0.0163   0.0409   0.0064   0.0082  -0.0116   0.00    0.0
2019/02/07 01:20:00.000   40.429163518   -4.249655231   829.5469   6   8   0.0154   0.0166   0.0409   0.0045   0.0080  -0.0114   0.00    0.0
2019/02/07 01:20:30.000   40.429163604   -4.249655333   829.5576   6   9   0.0150   0.0141   0.0397   0.0067   0.0100  -0.0111   0.00    0.0
2019/02/07 01:21:00.000   40.429163541   -4.249655358   829.5525   6   9   0.0152   0.0150   0.0396   0.0024   0.0124  -0.0110   0.00    0.0
2019/02/07 01:21:30.000   40.429163588   -4.249655382   829.5335   6  10   0.0143   0.0133   0.0376   0.0085   0.0066  -0.0076   0.00    0.0
2019/02/07 01:22:00.000   40.429163596   -4.249655370   829.5370   6  10   0.0139   0.0155   0.0374   0.0063   0.0093  -0.0060   0.00    0.0
2019/02/07 01:22:30.000   40.429163602   -4.249655230   829.5373   6  10   0.0144   0.0153   0.0373   0.0050   0.0098  -0.0075   0.00    0.0
2019/02/07 01:23:00.000   40.429163539   -4.249655321   829.5305   6  10   0.0142   0.0140   0.0372   0.0055   0.0083  -0.0067   0.00    0.0
2019/02/07 01:23:30.000   40.429163577   -4.249655240   829.5319   6  10   0.0146   0.0158   0.0369   0.0050   0.0096  -0.0061   0.00    0.0
2019/02/07 01:24:00.000   40.429163638   -4.249655322   829.5204   6  10   0.0145   0.0143   0.0369   0.0057   0.0096  -0.0056   0.00    0.0
2019/02/07 01:24:30.000   40.429163712   -4.249655316   829.5217   6  10   0.0148   0.0143   0.0362   0.0076   0.0113  -0.0089   0.00    0.0
2019/02/07 01:25:00.000   40.429163611   -4.249655278   829.5340   6  10   0.0140   0.0142   0.0372   0.0079   0.0080  -0.0062   0.00    0.0
2019/02/07 01:25:30.000   40.429163563   -4.249655265   829.5380   6  10   0.0139   0.0148   0.0370   0.0056   0.0092  -0.0041   0.00    0.0
2019/02/07 01:26:00.000   40.429163595   -4.249655280   829.5475   6  10   0.0144   0.0146   0.0372   0.0056   0.0100  -0.0053   0.00    0.0
2019/02/07 01:26:30.000   40.429163574   -4.249655295   829.5215   6  10   0.0141   0.0130   0.0374   0.0067   0.0101  -0.0043   0.00    0.0
2019/02/07 01:27:00.000   40.429163630   -4.249655226   829.5420   6  10   0.0143   0.0162   0.0379   0.0067   0.0102  -0.0046   0.00    0.0
2019/02/07 01:27:30.000   40.429163592   -4.249655273   829.5338   6  10   0.0142   0.0160   0.0374   0.0057   0.0109  -0.0042   0.00    0.0
2019/02/07 01:28:00.000   40.429163613   -4.249655267   829.5288   6  10   0.0141   0.0160   0.0374   0.0071   0.0089  -0.0044   0.00    0.0
2019/02/07 01:28:30.000   40.429163584   -4.249655319   829.5273   6  10   0.0143   0.0160   0.0372   0.0057   0.0103  -0.0034   0.00    0.0
2019/02/07 01:29:00.000   40.429163581   -4.249655341   829.5313   6  10   0.0139   0.0131   0.0366   0.0085   0.0105  -0.0038   0.00    0.0
2019/02/07 01:29:30.000   40.429163551   -4.249655336   829.5475   6  10   0.0141   0.0156   0.0372   0.0054   0.0106  -0.0027   0.00    0.0
2019/02/07 01:30:00.000   40.429163570   -4.249655360   829.5414   6  10   0.0140   0.0141   0.0366   0.0067   0.0112  -0.0045   0.00    0.0
2019/02/07 01:30:30.000   40.429163537   -4.249655399   829.5448   6  10   0.0142   0.0136   0.0371   0.0055   0.0134  -0.0041   0.00    0.0
2019/02/07 01:31:00.000   40.429163565   -4.249655293   829.5335   6  10   0.0146   0.0164   0.0368   0.0058   0.0115  -0.0022   0.00    0.0
2019/02/07 01:31:30.000   40.429163536   -4.249655364   829.5444   6  10   0.0143   0.0139   0.0369   0.0083   0.0105  -0.0013   0.00    0.0
2019/02/07 01:32:00.000   40.429163511   -4.249655399   829.5345   6  10   0.0139   0.0144   0.0367   0.0069   0.0119   0.0005   0.00    0.0
2019/02/07 01:32:30.000   40.429163447   -4.249655402   829.5458   6  10   0.0144   0.0158   0.0362   0.0067   0.0116   0.0025   0.00    0.0
2019/02/07 01:33:00.000   40.429163393   -4.249655529   829.5533   6  10   0.0142   0.0136   0.0363   0.0070   0.0112   0.0036   0.00    0.0
2019/02/07 01:33:30.000   40.429163358   -4.249655462   829.5580   6  10   0.0141   0.0150   0.0366   0.0074   0.0115   0.0036   0.00    0.0
2019/02/07 01:34:00.000   40.429163353   -4.249655512   829.5590   6  10   0.0142   0.0153   0.0370   0.0054   0.0134   0.0042   0.00    0.0
2019/02/07 01:34:30.000   40.429163382   -4.249655593   829.5320   6  10   0.0145   0.0152   0.0371   0.0073   0.0109   0.0037   0.00    0.0
2019/02/07 01:35:00.000   40.429163409   -4.249655577   829.5425   6  10   0.0142   0.0170   0.0373   0.0026   0.0108   0.0071   0.00    0.0
2019/02/07 01:35:30.000   40.429163371   -4.249655590   829.5434   6  11   0.0128   0.0135   0.0345   0.0059   0.0112  -0.0055   0.00    0.0
2019/02/07 01:36:00.000   40.429163342   -4.249655589   829.5561   6  11   0.0125   0.0144   0.0345   0.0021   0.0112  -0.0073   0.00    0.0
2019/02/07 01:36:30.000   40.429163279   -4.249655515   829.5573   6  11   0.0132   0.0154   0.0343   0.0050   0.0096  -0.0060   0.00    0.0
2019/02/07 01:37:00.000   40.429163283   -4.249655595   829.5685   6  11   0.0129   0.0134   0.0342   0.0054   0.0111  -0.0074   0.00    0.0
2019/02/07 01:37:30.000   40.429163334   -4.249655566   829.5607   6  11   0.0125   0.0150   0.0347   0.0044   0.0098  -0.0071   0.00    0.0
2019/02/07 01:38:00.000   40.429163395   -4.249655651   829.5389   6  11   0.0127   0.0141   0.0336   0.0042   0.0098  -0.0080   0.00    0.0
2019/02/07 01:38:30.000   40.429163534   -4.249655544   829.5255   6  11   0.0126   0.0160   0.0345   0.0065   0.0081  -0.0080   0.00    0.0
2019/02/07 01:39:00.000   40.429163448   -4.249655632   829.5329   6  11   0.0122   0.0147   0.0344   0.0053   0.0080  -0.0062   0.00    0.0
2019/02/07 01:39:30.000   40.429163375   -4.249655713   829.5400   6  11   0.0130   0.0133   0.0337   0.0043   0.0096  -0.0090   0.00    0.0
2019/02/07 01:40:00.000   40.429163332   -4.249655622   829.5460   6  11   0.0123   0.0149   0.0334   0.0047   0.0093  -0.0070   0.00    0.0
2019/02/07 01:40:30.000   40.429163326   -4.249655625   829.5542   6  11   0.0117   0.0130   0.0339   0.0064   0.0069  -0.0069   0.00    0.0
2019/02/07 01:41:00.000   40.429163313   -4.249655647   829.5655   6  11   0.0118   0.0128   0.0345   0.0057   0.0073  -0.0055   0.00    0.0
2019/02/07 01:41:30.000   40.429163245   -4.249655589   829.5705   6  11   0.0122   0.0155   0.0336   0.0006   0.0086  -0.0063   0.00    0.0
2019/02/07 01:42:00.000   40.429163383   -4.249655705   829.5491   6  11   0.0130   0.0137   0.0336   0.0015   0.0097  -0.0075   0.00    0.0
2019/02/07 01:42:30.000   40.429163415   -4.249655684   829.5352   6  11   0.0132   0.0143   0.0338   0.0042   0.0099  -0.0085   0.00    0.0
2019/02/07 01:43:00.000   40.429163456   -4.249655747   829.5357   6  11   0.0130   0.0147   0.0347   0.0025   0.0076  -0.0064   0.00    0.0
2019/02/07 01:43:30.000   40.429163400   -4.249655647   829.5458   6  11   0.0130   0.0161   0.0340  -0.0018   0.0094  -0.0076   0.00    0.0
2019/02/07 01:44:00.000   40.429163372   -4.249655859   829.5307   6  11   0.0130   0.0140   0.0342   0.0015   0.0088  -0.0075   0.00    0.0
2019/02/07 01:44:30.000   40.429163427   -4.249655731   829.5473   6  11   0.0131   0.0150   0.0339   0.0031   0.0086  -0.0072   0.00    0.0
2019/02/07 01:45:00.000   40.429163406   -4.249655696   829.5636   6  11   0.0124   0.0137   0.0337   0.0058   0.0068  -0.0073   0.00    0.0
2019/02/07 01:45:30.000   40.429163432   -4.249655691   829.5737   6  11   0.0127   0.0139   0.0329   0.0046   0.0108  -0.0069   0.00    0.0
2019/02/07 01:46:00.000   40.429163419   -4.249655686   829.5545   6  11   0.0120   0.0164   0.0336  -0.0029   0.0088  -0.0060   0.00    0.0
2019/02/07 01:46:30.000   40.429163435   -4.249655538   829.5758   6  11   0.0119   0.0165   0.0335   0.0025   0.0095  -0.0074   0.00    0.0
2019/02/07 01:47:00.000   40.429163482   -4.249655695   829.5486   6  11   0.0121   0.0144   0.0336   0.0055   0.0097  -0.0083   0.00    0.0
2019/02/07 01:47:30.000   40.429163452   -4.249655647   829.5529   6  11   0.0119   0.0163   0.0333  -0.0026   0.0100  -0.0076   0.00    0.0
2019/02/07 01:48:00.000   40.429163438   -4.249655768   829.5446   6  11   0.0123   0.0139   0.0338   0.0014   0.0081  -0.0074   0.00    0.0
2019/02/07 01:48:30.000   40.429163425   -4.249655667   829.5479   6  11   0.0123   0.0165   0.0336   0.0024   0.0087  -0.0070   0.00    0.0
2019/02/07 01:49:00.000   40.429163483   -4.249655704   829.5590   6  11   0.0127   0.0157   0.0331  -0.0045   0.0115  -0.0076   0.00    0.0
2019/02/07 01:49:30.000   40.429163462   -4.249655812   829.5563   6  11   0.0124   0.0135   0.0330   0.0036   0.0097  -0.0077   0.00    0.0
2019/02/07 01:50:00.000   40.429163440   -4.249655793   829.5456   6  11   0.0127   0.0152   0.0333  -0.0024   0.0084  -0.0072   0.00    0.0
2019/02/07 01:50:30.000   40.429163466   -4.249655728   829.5679   6  11   0.0122   0.0145   0.0329   0.0054   0.0105  -0.0086   0.00    0.0
2019/02/07 01:51:00.000   40.429163477   -4.249655740   829.5500   6  11   0.0129   0.0146   0.0333   0.0058   0.0050  -0.0082   0.00    0.0
2019/02/07 01:51:30.000   40.429163523   -4.249655675   829.5607   6  11   0.0117   0.0140   0.0331   0.0057   0.0063  -0.0067   0.00    0.0
2019/02/07 01:52:00.000   40.429163509   -4.249655699   829.5547   6  11   0.0126   0.0145   0.0336   0.0029   0.0077  -0.0070   0.00    0.0
2019/02/07 01:52:30.000   40.429163456   -4.249655714   829.5656   6  11   0.0120   0.0144   0.0330   0.0026   0.0105  -0.0067   0.00    0.0
2019/02/07 01:53:00.000   40.429163505   -4.249655744   829.5559   6  11   0.0123   0.0134   0.0330   0.0041   0.0089  -0.0069   0.00    0.0
2019/02/07 01:53:30.000   40.429163572   -4.249655748   829.5488   6  11   0.0123   0.0139   0.0334   0.0045   0.0086  -0.0079   0.00    0.0
2019/02/07 01:54:00.000   40.429163596   -4.249655816   829.5441   6  11   0.0128   0.0132   0.0327   0.0036   0.0092  -0.0085   0.00    0.0
2019/02/07 01:54:30.000   40.429163553   -4.249655808   829.5452   6  11   0.0130   0.0144   0.0325   0.0024   0.0091  -0.0090   0.00    0.0
2019/02/07 01:55:00.000   40.429163535   -4.249655717   829.5422   6  11   0.0122   0.0155   0.0330   0.0019   0.0088  -0.0066   0.00    0.0
2019/02/07 01:55:30.000   40.429163627   -4.249655826   829.5195   6  11   0.0131   0.0131   0.0328   0.0037   0.0073  -0.0073   0.00    0.0
2019/02/07 01:56:00.000   40.429163552   -4.249655772   829.5380   6  11   0.0120   0.0136   0.0325   0.0058   0.0110  -0.0093   0.00    0.0
2019/02/07 01:56:30.000   40.429163539   -4.249655652   829.5257   6  11   0.0125   0.0140   0.0332   0.0033   0.0074  -0.0076   0.00    0.0
2019/02/07 01:57:00.000   40.429163553   -4.249655651   829.5368   6  11   0.0116   0.0133   0.0333   0.0059   0.0101  -0.0088   0.00    0.0
2019/02/07 01:57:30.000   40.429163535   -4.249655599   829.5457   6  10   0.0136   0.0152   0.0339   0.0026   0.0066  -0.0093   0.00    0.0
2019/02/07 01:58:00.000   40.429163577   -4.249655775   829.5377   6  10   0.0135   0.0139   0.0327   0.0046   0.0098  -0.0100   0.00    0.0
2019/02/07 01:58:30.000   40.429163580   -4.249655713   829.5340   6  10   0.0136   0.0144   0.0339   0.0034   0.0076  -0.0101   0.00    0.0
2019/02/07 01:59:00.000   40.429163555   -4.249655664   829.5262   6  10   0.0135   0.0153   0.0338   0.0013   0.0080  -0.0088   0.00    0.0
2019/02/07 01:59:30.000   40.429163656   -4.249655752   829.5208   6  10   0.0127   0.0139   0.0326   0.0053   0.0100  -0.0107   0.00    0.0
2019/02/07 02:00:00.000   40.429163701   -4.249655620   829.5066   6  10   0.0125   0.0150   0.0332   0.0025   0.0086  -0.0094   0.00    0.0
2019/02/07 02:00:30.000   40.429163627   -4.249655676   829.5066   6  10   0.0128   0.0145   0.0334   0.0037   0.0084  -0.0097   0.00    0.0
2019/02/07 02:01:00.000   40.429163646   -4.249655616   829.4892   6  10   0.0125   0.0151   0.0337   0.0050   0.0074  -0.0096   0.00    0.0
2019/02/07 02:01:30.000   40.429163633   -4.249655727   829.5041   6  10   0.0125   0.0141   0.0332   0.0042   0.0103  -0.0091   0.00    0.0
2019/02/07 02:02:00.000   40.429163648   -4.249655674   829.4999   6  10   0.0131   0.0155   0.0331   0.0027   0.0080  -0.0098   0.00    0.0
2019/02/07 02:02:30.000   40.429163624   -4.249655622   829.4924   6  10   0.0118   0.0159   0.0332   0.0037   0.0080  -0.0093   0.00    0.0
2019/02/07 02:03:00.000   40.429163584   -4.249655801   829.4924   6  10   0.0122   0.0138   0.0334   0.0019   0.0088  -0.0088   0.00    0.0
2019/02/07 02:03:30.000   40.429163694   -4.249655829   829.4905   6  10   0.0130   0.0145   0.0332   0.0032   0.0095  -0.0094   0.00    0.0
2019/02/07 02:04:00.000   40.429163642   -4.249655778   829.4854   6  10   0.0128   0.0149   0.0335   0.0020   0.0087  -0.0096   0.00    0.0
2019/02/07 02:04:30.000   40.429163645   -4.249655780   829.4754   6  10   0.0129   0.0144   0.0339  -0.0019   0.0086  -0.0084   0.00    0.0
2019/02/07 02:05:00.000   40.429163674   -4.249655747   829.4683   6  10   0.0118   0.0153   0.0339   0.0043   0.0087  -0.0093   0.00    0.0
2019/02/07 02:05:30.000   40.429163680   -4.249655778   829.4734   6  10   0.0128   0.0141   0.0332   0.0059   0.0069  -0.0097   0.00    0.0
2019/02/07 02:06:00.000   40.429163709   -4.249655799   829.4728   6  10   0.0123   0.0138   0.0332   0.0042   0.0087  -0.0098   0.00    0.0
2019/02/07 02:06:30.000   40.429163634   -4.249655838   829.4670   6  10   0.0134   0.0157   0.0326   0.0008   0.0094  -0.0101   0.00    0.0
2019/02/07 02:07:00.000   40.429163649   -4.249655916   829.4638   6  10   0.0130   0.0136   0.0330   0.0047   0.0104  -0.0099   0.00    0.0
2019/02/07 02:07:30.000   40.429163599   -4.249655868   829.4547   6  10   0.0130   0.0156   0.0330  -0.0032   0.0100  -0.0097   0.00    0.0
2019/02/07 02:08:00.000   40.429163624   -4.249655824   829.4583   6  10   0.0135   0.0160   0.0333  -0.0032   0.0091  -0.0090   0.00    0.0
2019/02/07 02:08:30.000   40.429163616   -4.249655886   829.4497   6  10   0.0138   0.0153   0.0324   0.0030   0.0097  -0.0103   0.00    0.0
2019/02/07 02:09:00.000   40.429163502   -4.249655907   829.4445   6  10   0.0126   0.0152   0.0332   0.0036   0.0102  -0.0102   0.00    0.0
2019/02/07 02:09:30.000   40.429163494   -4.249655904   829.4573   6  10   0.0130   0.0149   0.0334  -0.0052   0.0105  -0.0092   0.00    0.0
2019/02/07 02:10:00.000   40.429163513   -4.249655808   829.4312   6  10   0.0128   0.0155   0.0335  -0.0022   0.0068  -0.0086   0.00    0.0
2019/02/07 02:10:30.000   40.429163623   -4.249655969   829.4413   6  10   0.0129   0.0135   0.0326   0.0037   0.0096  -0.0098   0.00    0.0
2019/02/07 02:11:00.000   40.429163500   -4.249655857   829.4643   6  10   0.0130   0.0158   0.0329  -0.0044   0.0111  -0.0103   0.00    0.0
2019/02/07 02:11:30.000   40.429163528   -4.249655972   829.4428   6  10   0.0121   0.0138   0.0334   0.0039   0.0088  -0.0083   0.00    0.0
2019/02/07 02:12:00.000   40.429163478   -4.249655938   829.4396   6  10   0.0126   0.0145   0.0335   0.0042   0.0086  -0.0095   0.00    0.0
2019/02/07 02:12:30.000   40.429163533   -4.249655903   829.4587   6  10   0.0131   0.0141   0.0333   0.0046   0.0093  -0.0099   0.00    0.0
2019/02/07 02:13:00.000   40.429163549   -4.249656011   829.4376   6  10   0.0131   0.0146   0.0336  -0.0043   0.0099  -0.0085   0.00    0.0
2019/02/07 02:13:30.000   40.429163570   -4.249655884   829.4333   6  10   0.0127   0.0148   0.0331  -0.0017   0.0082  -0.0096   0.00    0.0
2019/02/07 02:14:00.000   40.429163506   -4.249655823   829.4501   6  10   0.0130   0.0150   0.0334  -0.0039   0.0091  -0.0092   0.00    0.0
2019/02/07 02:14:30.000   40.429163473   -4.249655970   829.4593   6  10   0.0127   0.0138   0.0325   0.0045   0.0102  -0.0103   0.00    0.0
2019/02/07 02:15:00.000   40.429163443   -4.249655876   829.4364   6  10   0.0126   0.0158   0.0332  -0.0027   0.0100  -0.0086   0.00    0.0
2019/02/07 02:15:30.000   40.429163494   -4.249655992   829.4202   6  10   0.0123   0.0139   0.0332   0.0029   0.0091  -0.0098   0.00    0.0
2019/02/07 02:16:00.000   40.429163411   -4.249655879   829.4356   6  10   0.0126   0.0151   0.0328  -0.0033   0.0092  -0.0089   0.00    0.0
2019/02/07 02:16:30.000   40.429163487   -4.249655978   829.4526   6  10   0.0131   0.0140   0.0326  -0.0031   0.0102  -0.0103   0.00    0.0
2019/02/07 02:17:00.000   40.429163492   -4.249655856   829.4471   6  10   0.0133   0.0152   0.0328  -0.0033   0.0092  -0.0086   0.00    0.0
2019/02/07 02:17:30.000   40.429163461   -4.249655921   829.4369   6  10   0.0124   0.0149   0.0330   0.0016   0.0085  -0.0090   0.00    0.0
2019/02/07 02:18:00.000   40.429163474   -4.249655910   829.4471   6  10   0.0128   0.0157   0.0325  -0.0038   0.0103  -0.0084   0.00    0.0
2019/02/07 02:18:30.000   40.429163468   -4.249656001   829.4543   6  10   0.0113   0.0148   0.0325   0.0047   0.0105  -0.0094   0.00    0.0
2019/02/07 02:19:00.000   40.429163595   -4.249655974   829.4479   6  10   0.0130   0.0140   0.0328   0.0028   0.0105  -0.0103   0.00    0.0
2019/02/07 02:19:30.000   40.429163478   -4.249655914   829.4579   6  10   0.0128   0.0151   0.0327  -0.0039   0.0099  -0.0090   0.00    0.0
2019/02/07 02:20:00.000   40.429163669   -4.249655957   829.4392   6  10   0.0121   0.0141   0.0326   0.0025   0.0102  -0.0103   0.00    0.0
2019/02/07 02:20:30.000   40.429163612   -4.249655821   829.4498   6  10   0.0134   0.0148   0.0333  -0.0017   0.0093  -0.0094   0.00    0.0
2019/02/07 02:21:00.000   40.429163590   -4.249655863   829.4753   6  10   0.0127   0.0145   0.0327  -0.0025   0.0097  -0.0094   0.00    0.0
2019/02/07 02:21:30.000   40.429163495   -4.249655855   829.4622   6  10   0.0131   0.0152   0.0329  -0.0038   0.0097  -0.0086   0.00    0.0
2019/02/07 02:22:00.000   40.429163534   -4.249655769   829.4678   6  10   0.0126   0.0155   0.0329  -0.0024   0.0088  -0.0085   0.00    0.0
2019/02/07 02:22:30.000   40.429163541   -4.249655807   829.4647   6  10   0.0126   0.0150   0.0326   0.0003   0.0095  -0.0088   0.00    0.0
2019/02/07 02:23:00.000   40.429163568   -4.249655899   829.4632   6  10   0.0124   0.0147   0.0327  -0.0011   0.0100  -0.0084   0.00    0.0
2019/02/07 02:23:30.000   40.429163607   -4.249655897   829.4758   6  10   0.0130   0.0147   0.0322  -0.0022   0.0106  -0.0089   0.00    0.0
2019/02/07 02:24:00.000   40.429163619   -4.249655838   829.4657   6  10   0.0128   0.0141   0.0325   0.0017   0.0096  -0.0094   0.00    0.0
2019/02/07 02:24:30.000   40.429163584   -4.249655764   829.4890   6  10   0.0131   0.0150   0.0321  -0.0022   0.0097  -0.0095   0.00    0.0
2019/02/07 02:25:00.000   40.429163693   -4.249655817   829.4761   6  10   0.0130   0.0142   0.0324   0.0033   0.0108  -0.0100   0.00    0.0
2019/02/07 02:25:30.000   40.429163698   -4.249655843   829.4676   6  10   0.0119   0.0141   0.0336  -0.0024   0.0099  -0.0084   0.00    0.0
2019/02/07 02:26:00.000   40.429163565   -4.249655916   829.4529   6  10   0.0136   0.0145   0.0328   0.0023   0.0093  -0.0093   0.00    0.0
2019/02/07 02:26:30.000   40.429163578   -4.249655793   829.4673   6  10   0.0130   0.0148   0.0321  -0.0039   0.0095  -0.0098   0.00    0.0
2019/02/07 02:27:00.000   40.429163718   -4.249655850   829.4716   6  10   0.0135   0.0152   0.0326   0.0022   0.0101  -0.0094   0.00    0.0
2019/02/07 02:27:30.000   40.429163703   -4.249655799   829.4615   6  10   0.0126   0.0146   0.0326  -0.0033   0.0106  -0.0096   0.00    0.0
2019/02/07 02:28:00.000   40.429163627   -4.249655812   829.4734   6  10   0.0128   0.0142   0.0326  -0.0033   0.0096  -0.0081   0.00    0.0
2019/02/07 02:28:30.000   40.429163690   -4.249655913   829.4768   6  10   0.0133   0.0144   0.0324  -0.0032   0.0102  -0.0089   0.00    0.0
2019/02/07 02:29:00.000   40.429163680   -4.249655813   829.4759   6  10   0.0132   0.0144   0.0326   0.0038   0.0099  -0.0087   0.00    0.0
2019/02/07 02:29:30.000   40.429163666   -4.249655803   829.4741   6  10   0.0131   0.0145   0.0330  -0.0043   0.0089  -0.0072   0.00    0.0
2019/02/07 02:30:00.000   40.429163674   -4.249655754   829.4701   6  10   0.0131   0.0150   0.0330  -0.0050   0.0097  -0.0082   0.00    0.0
2019/02/07 02:30:30.000   40.429163663   -4.249655801   829.4737   6   9   0.0137   0.0146   0.0340  -0.0036   0.0084  -0.0036   0.00    0.0
2019/02/07 02:31:00.000   40.429163692   -4.249655803   829.4639   6   9   0.0145   0.0149   0.0336  -0.0038   0.0091  -0.0067   0.00    0.0
2019/02/07 02:31:30.000   40.429163608   -4.249655732   829.4786   6   9   0.0138   0.0150   0.0337  -0.0050   0.0097  -0.0044   0.00    0.0
2019/02/07 02:32:00.000   40.429163660   -4.249655742   829.4832   6   9   0.0143   0.0152   0.0339  -0.0045   0.0090  -0.0059   0.00    0.0
2019/02/07 02:32:30.000   40.429163637   -4.249655745   829.4759   6   9   0.0142   0.0147   0.0341  -0.0060   0.0079  -0.0044   0.00    0.0
2019/02/07 02:33:00.000   40.429163658   -4.249655891   829.4883   6   9   0.0143   0.0151   0.0333  -0.0058   0.0097  -0.0049   0.00    0.0
2019/02/07 02:33:30.000   40.429163654   -4.249655807   829.4794   6   9   0.0142   0.0154   0.0344  -0.0049   0.0086  -0.0055   0.00    0.0
2019/02/07 02:34:00.000   40.429163722   -4.249655800   829.4824   6   9   0.0141   0.0149   0.0337  -0.0037   0.0088  -0.0062   0.00    0.0
2019/02/07 02:34:30.000   40.429163502   -4.249655846   829.4971   6   9   0.0143   0.0152   0.0333  -0.0059   0.0093  -0.0019   0.00    0.0
2019/02/07 02:35:00.000   40.429163510   -4.249655754   829.4883   6   9   0.0142   0.0149   0.0336  -0.0055   0.0092  -0.0039   0.00    0.0
2019/02/07 02:35:30.000   40.429163505   -4.249655811   829.4887   6   9   0.0141   0.0153   0.0333  -0.0048   0.0099  -0.0050   0.00    0.0
2019/02/07 02:36:00.000   40.429163464   -4.249655784   829.4950   6   9   0.0138   0.0154   0.0341  -0.0055   0.0082  -0.0036   0.00    0.0
2019/02/07 02:36:30.000   40.429163653   -4.249655848   829.5038   6   9   0.0143   0.0147   0.0334  -0.0043   0.0103  -0.0052   0.00    0.0
2019/02/07 02:37:00.000   40.429163552   -4.249655759   829.5020   6   9   0.0147   0.0157   0.0337  -0.0047   0.0081  -0.0061   0.00    0.0
2019/02/07 02:37:30.000   40.429163608   -4.249655864   829.5004   6   9   0.0144   0.0147   0.0337  -0.0019   0.0077  -0.0057   0.00    0.0
2019/02/07 02:38:00.000   40.429163544   -4.249655806   829.4920   6   9   0.0145   0.0150   0.0340  -0.0044   0.0088  -0.0042   0.00    0.0
2019/02/07 02:38:30.000   40.429163541   -4.249655804   829.5139   6   9   0.0147   0.0147   0.0335  -0.0059   0.0096  -0.0057   0.00    0.0
2019/02/07 02:39:00.000   40.429163503   -4.249655821   829.5009   6   9   0.0147   0.0154   0.0337  -0.0063   0.0076  -0.0046   0.00    0.0
2019/02/07 02:39:30.000   40.429163499   -4.249655866   829.5168   6   9   0.0148   0.0155   0.0330  -0.0062   0.0090  -0.0052   0.00    0.0
2019/02/07 02:40:00.000   40.429163576   -4.249655861   829.5160   6   9   0.0146   0.0152   0.0332  -0.0057   0.0094  -0.0058   0.00    0.0
2019/02/07 02:40:30.000   40.429163516   -4.249655935   829.4964   6   9   0.0141   0.0153   0.0329  -0.0071   0.0100   0.0004   0.00    0.0
2019/02/07 02:41:00.000   40.429163580   -4.249656016   829.4903   6   9   0.0145   0.0145   0.0329  -0.0041   0.0090  -0.0051   0.00    0.0
2019/02/07 02:41:30.000   40.429163513   -4.249655982   829.5011   6   9   0.0144   0.0145   0.0336  -0.0038   0.0087  -0.0043   0.00    0.0
2019/02/07 02:42:00.000   40.429163521   -4.249655989   829.5004   6   9   0.0144   0.0145   0.0331  -0.0045   0.0096  -0.0054   0.00    0.0
2019/02/07 02:42:30.000   40.429163620   -4.249655849   829.4944   6   9   0.0144   0.0148   0.0335  -0.0043   0.0084  -0.0045   0.00    0.0
2019/02/07 02:43:00.000   40.429163595   -4.249655853   829.4877   6   9   0.0149   0.0147   0.0333  -0.0045   0.0077  -0.0046   0.00    0.0
2019/02/07 02:43:30.000   40.429163542   -4.249655987   829.4987   6   9   0.0143   0.0150   0.0326  -0.0062   0.0095  -0.0009   0.00    0.0
2019/02/07 02:44:00.000   40.429163566   -4.249656019   829.4903   6   9   0.0148   0.0148   0.0329  -0.0037   0.0091  -0.0044   0.00    0.0
2019/02/07 02:44:30.000   40.429163532   -4.249656053   829.4924   6   9   0.0151   0.0151   0.0331  -0.0051   0.0086  -0.0055   0.00    0.0
2019/02/07 02:45:00.000   40.429163534   -4.249656006   829.4779   6   9   0.0149   0.0146   0.0320  -0.0052   0.0088  -0.0054   0.00    0.0
2019/02/07 02:45:30.000   40.429163657   -4.249655953   829.4765   6   9   0.0146   0.0148   0.0330  -0.0056   0.0083  -0.0059   0.00    0.0
2019/02/07 02:46:00.000   40.429163597   -4.249655954   829.4669   6   9   0.0142   0.0151   0.0322  -0.0064   0.0088  -0.0054   0.00    0.0
2019/02/07 02:46:30.000   40.429163632   -4.249655950   829.4748   6   9   0.0142   0.0150   0.0332  -0.0057   0.0086  -0.0048   0.00    0.0
2019/02/07 02:47:00.000   40.429163516   -4.249656037   829.4660   6   9   0.0149   0.0152   0.0321  -0.0050   0.0082  -0.0054   0.00    0.0
2019/02/07 02:47:30.000   40.429163509   -4.249655983   829.4666   6   9   0.0146   0.0150   0.0332  -0.0059   0.0086  -0.0046   0.00    0.0
2019/02/07 02:48:00.000   40.429163569   -4.249656116   829.4664   6   9   0.0150   0.0156   0.0317  -0.0050   0.0085  -0.0057   0.00    0.0
2019/02/07 02:48:30.000   40.429163595   -4.249656033   829.4656   6   9   0.0142   0.0147   0.0323  -0.0061   0.0085  -0.0046   0.00    0.0
2019/02/07 02:49:00.000   40.429163681   -4.249656002   829.4447   6   9   0.0149   0.0147   0.0323  -0.0058   0.0079  -0.0071   0.00    0.0
2019/02/07 02:49:30.000   40.429163580   -4.249655974   829.4644   6  10   0.0145   0.0143   0.0313  -0.0057   0.0072  -0.0032   0.00    0.0
2019/02/07 02:50:00.000   40.429163586   -4.249656013   829.4428   6  10   0.0143   0.0147   0.0308  -0.0049   0.0060   0.0008   0.00    0.0
2019/02/07 02:50:30.000   40.429163697   -4.249655990   829.4371   6  10   0.0144   0.0142   0.0305  -0.0029   0.0066  -0.0042   0.00    0.0
2019/02/07 02:51:00.000   40.429163657   -4.249656027   829.4362   6  10   0.0143   0.0148   0.0306  -0.0036   0.0061  -0.0012   0.00    0.0
2019/02/07 02:51:30.000   40.429163715   -4.249656017   829.4530   6  10   0.0142   0.0146   0.0301  -0.0061   0.0077  -0.0029   0.00    0.0
2019/02/07 02:52:00.000   40.429163665   -4.249656051   829.4324   6  10   0.0147   0.0144   0.0311   0.0009   0.0071   0.0039   0.00    0.0
2019/02/07 02:52:30.000   40.429163562   -4.249656059   829.4367   6  10   0.0145   0.0145   0.0297  -0.0028   0.0060   0.0041   0.00    0.0
2019/02/07 02:53:00.000   40.429163599   -4.249656022   829.4261   6  10   0.0145   0.0149   0.0301  -0.0015   0.0062   0.0047   0.00    0.0
2019/02/07 02:53:30.000   40.429163683   -4.249656035   829.4149   6  10   0.0146   0.0150   0.0301  -0.0049   0.0037   0.0016   0.00    0.0
2019/02/07 02:54:00.000   40.429163676   -4.249656006   829.4167   6  10   0.0142   0.0142   0.0292  -0.0050   0.0069   0.0012   0.00    0.0
2019/02/07 02:54:30.000   40.429163717   -4.249655994   829.4214   6  10   0.0145   0.0139   0.0293  -0.0051   0.0042  -0.0033   0.00    0.0
2019/02/07 02:55:00.000   40.429163729   -4.249655967   829.4195   6  10   0.0143   0.0146   0.0299  -0.0044   0.0055   0.0030   0.00    0.0
2019/02/07 02:55:30.000   40.429163794   -4.249656028   829.4134   6  10   0.0145   0.0138   0.0300  -0.0047   0.0066   0.0040   0.00    0.0
2019/02/07 02:56:00.000   40.429163733   -4.249656098   829.4074   6  10   0.0149   0.0146   0.0297  -0.0049   0.0033   0.0026   0.00    0.0
2019/02/07 02:56:30.000   40.429163633   -4.249656065   829.4100   6  10   0.0140   0.0144   0.0297  -0.0038   0.0049   0.0043   0.00    0.0
2019/02/07 02:57:00.000   40.429163699   -4.249655974   829.4112   6  10   0.0147   0.0142   0.0296  -0.0014   0.0044   0.0021   0.00    0.0
2019/02/07 02:57:30.000   40.429163713   -4.249655974   829.4083   6  10   0.0143   0.0139   0.0298  -0.0025   0.0055   0.0031   0.00    0.0
2019/02/07 02:58:00.000   40.429163694   -4.249655959   829.4074   6  10   0.0144   0.0139   0.0300  -0.0046   0.0014  -0.0006   0.00    0.0
2019/02/07 02:58:30.000   40.429163705   -4.249655964   829.3988   6  10   0.0139   0.0142   0.0293  -0.0045   0.0062   0.0039   0.00    0.0
2019/02/07 02:59:00.000   40.429163784   -4.249655897   829.3910   6  10   0.0144   0.0144   0.0293  -0.0041   0.0041  -0.0040   0.00    0.0
2019/02/07 02:59:30.000   40.429163654   -4.249655987   829.3848   6  10   0.0141   0.0146   0.0289  -0.0031   0.0046   0.0023   0.00    0.0
2019/02/07 03:00:00.000   40.429163756   -4.249655799   829.3998   6  10   0.0136   0.0141   0.0292  -0.0039   0.0044   0.0017   0.00    0.0
2019/02/07 03:00:30.000   40.429163694   -4.249655974   829.4041   6  10   0.0143   0.0140   0.0291  -0.0049   0.0066   0.0021   0.00    0.0
2019/02/07 03:01:00.000   40.429163805   -4.249655968   829.4055   6  10   0.0138   0.0138   0.0285  -0.0025   0.0055   0.0019   0.00    0.0
2019/02/07 03:01:30.000   40.429163727   -4.249655923   829.4206   6  10   0.0141   0.0143   0.0291  -0.0043   0.0063   0.0049   0.00    0.0
2019/02/07 03:02:00.000   40.429163802   -4.249655862   829.4167   6  10   0.0139   0.0138   0.0287  -0.0046   0.0052  -0.0019   0.00    0.0
2019/02/07 03:02:30.000   40.429163767   -4.249655784   829.4313   6  10   0.0143   0.0136   0.0284  -0.0048   0.0033  -0.0026   0.00    0.0
2019/02/07 03:03:00.000   40.429163700   -4.249655854   829.4339   6  10   0.0142   0.0139   0.0286  -0.0037   0.0056   0.0042   0.00    0.0
2019/02/07 03:03:30.000   40.429163717   -4.249655955   829.4256   6  10   0.0143   0.0145   0.0292  -0.0012   0.0046  -0.0023   0.00    0.0
2019/02/07 03:04:00.000   40.429163742   -4.249655933   829.4166   6  10   0.0142   0.0147   0.0290   0.0021   0.0039  -0.0024   0.00    0.0
2019/02/07 03:04:30.000   40.429163817   -4.249655930   829.4308   6  10   0.0147   0.0136   0.0281  -0.0056   0.0047  -0.0054   0.00    0.0
2019/02/07 03:05:00.000   40.429163624   -4.249655879   829.4265   6  10   0.0138   0.0142   0.0283  -0.0032   0.0052   0.0042   0.00    0.0
2019/02/07 03:05:30.000   40.429163758   -4.249655930   829.4486   6  10   0.0145   0.0142   0.0279  -0.0026   0.0056   0.0031   0.00    0.0
2019/02/07 03:06:00.000   40.429163793   -4.249655905   829.4378   6  10   0.0137   0.0137   0.0288  -0.0036   0.0036   0.0026   0.00    0.0
2019/02/07 03:06:30.000   40.429163833   -4.249656027   829.4132   6  10   0.0139   0.0139   0.0283  -0.0042   0.0042  -0.0026   0.00    0.0
2019/02/07 03:07:00.000   40.429163774   -4.249655911   829.4229   6  10   0.0141   0.0140   0.0295  -0.0040   0.0051  -0.0014   0.00    0.0
2019/02/07 03:07:30.000   40.429163657   -4.249655936   829.4350   6  10   0.0140   0.0136   0.0278  -0.0040   0.0034  -0.0022   0.00    0.0
2019/02/07 03:08:00.000   40.429163717   -4.249655825   829.4284   6  10   0.0139   0.0142   0.0282  -0.0027   0.0059   0.0022   0.00    0.0
2019/02/07 03:08:30.000   40.429163701   -4.249655939   829.4442   6  10   0.0138   0.0140   0.0279  -0.0042   0.0045  -0.0009   0.00    0.0
2019/02/07 03:09:00.000   40.429163777   -4.249656000   829.4261   6  10   0.0136   0.0138   0.0281  -0.0034   0.0052   0.0052   0.00    0.0
2019/02/07 03:09:30.000   40.429163784   -4.249656159   829.4281   6  10   0.0142   0.0144   0.0279  -0.0028   0.0035   0.0045   0.00    0.0
2019/02/07 03:10:00.000   40.429163742   -4.249656018   829.4253   6  10   0.0145   0.0137   0.0276  -0.0044   0.0046  -0.0011   0.00    0.0
2019/02/07 03:10:30.000   40.429163647   -4.249655934   829.4230   6  10   0.0140   0.0142   0.0283  -0.0017   0.0034  -0.0015   0.00    0.0
2019/02/07 03:11:00.000   40.429163780   -4.249655998   829.4276   6  10   0.0144   0.0141   0.0274  -0.0027   0.0047  -0.0031   0.00    0.0
2019/02/07 03:11:30.000   40.429163729   -4.249655931   829.4232   6  10   0.0147   0.0140   0.0280   0.0036   0.0039  -0.0017   0.00    0.0
2019/02/07 03:12:00.000   40.429163870   -4.249655957   829.4323   6  11   0.0132   0.0135   0.0270   0.0010   0.0034  -0.0055   0.00    0.0
2019/02/07 03:12:30.000   40.429163898   -4.249656022   829.4304   6  11   0.0133   0.0133   0.0264   0.0013   0.0028  -0.0060   0.00    0.0
2019/02/07 03:13:00.000   40.429163735   -4.249655982   829.4375   6  11   0.0133   0.0140   0.0264  -0.0029   0.0035  -0.0078   0.00    0.0
2019/02/07 03:13:30.000   40.429163617   -4.249655921   829.4321   6  11   0.0121   0.0138   0.0281  -0.0042   0.0050  -0.0040   0.00    0.0
2019/02/07 03:14:00.000   40.429163684   -4.249655943   829.4203   6  11   0.0129   0.0136   0.0275  -0.0023   0.0024  -0.0064   0.00    0.0
2019/02/07 03:14:30.000   40.429163785   -4.249656107   829.4219   6  11   0.0130   0.0139   0.0274  -0.0002   0.0043  -0.0073   0.00    0.0
2019/02/07 03:15:00.000   40.429163746   -4.249656096   829.4250   6  11   0.0124   0.0137   0.0268  -0.0023   0.0042  -0.0057   0.00    0.0
2019/02/07 03:15:30.000   40.429163834   -4.249656057   829.4368   6  11   0.0136   0.0142   0.0266  -0.0039   0.0031  -0.0072   0.00    0.0
2019/02/07 03:16:00.000   40.429163768   -4.249655982   829.4237   6  11   0.0125   0.0136   0.0267   0.0018   0.0014  -0.0070   0.00    0.0
2019/02/07 03:16:30.000   40.429163904   -4.249656048   829.4112   6  11   0.0128   0.0137   0.0262  -0.0026   0.0033  -0.0077   0.00    0.0
2019/02/07 03:17:00.000   40.429163818   -4.249656068   829.4100   6  11   0.0133   0.0132   0.0263   0.0024   0.0028  -0.0081   0.00    0.0
2019/02/07 03:17:30.000   40.429163929   -4.249656122   829.4150   6  11   0.0128   0.0142   0.0277   0.0004   0.0042  -0.0074   0.00    0.0
2019/02/07 03:18:00.000   40.429163818   -4.249656253   829.4335   6  11   0.0126   0.0142   0.0270   0.0039   0.0033  -0.0056   0.00    0.0
2019/02/07 03:18:30.000   40.429163807   -4.249656238   829.4324   6  11   0.0126   0.0142   0.0266  -0.0020   0.0028  -0.0070   0.00    0.0
2019/02/07 03:19:00.000   40.429163813   -4.249656088   829.4118   6  11   0.0126   0.0137   0.0265  -0.0002  -0.0013  -0.0080   0.00    0.0
2019/02/07 03:19:30.000   40.429163914   -4.249656066   829.4038   6  11   0.0122   0.0129   0.0267  -0.0018   0.0012  -0.0069   0.00    0.0
2019/02/07 03:20:00.000   40.429163911   -4.249656102   829.4047   6  11   0.0118   0.0140   0.0274  -0.0007   0.0033  -0.0062   0.00    0.0
2019/02/07 03:20:30.000   40.429163823   -4.249656109   829.4077   6  11   0.0117   0.0139   0.0259   0.0007  -0.0022  -0.0071   0.00    0.0
2019/02/07 03:21:00.000   40.429163761   -4.249656169   829.4070   6  11   0.0128   0.0143   0.0271  -0.0019   0.0015  -0.0073   0.00    0.0
2019/02/07 03:21:30.000   40.429163778   -4.249656168   829.4218   6  11   0.0125   0.0139   0.0274  -0.0027   0.0019  -0.0072   0.00    0.0
2019/02/07 03:22:00.000   40.429163914   -4.249656204   829.4136   6  11   0.0125   0.0141   0.0265  -0.0011   0.0016  -0.0087   0.00    0.0
2019/02/07 03:22:30.000   40.429163937   -4.249656179   829.4086   6  11   0.0125   0.0139   0.0263  -0.0039  -0.0030  -0.0084   0.00    0.0
2019/02/07 03:23:00.000   40.429163977   -4.249656261   829.4004   6  11   0.0124   0.0132   0.0261  -0.0027   0.0031  -0.0087   0.00    0.0
2019/02/07 03:23:30.000   40.429163936   -4.249656201   829.4084   6  11   0.0122   0.0135   0.0260  -0.0050  -0.0019  -0.0083   0.00    0.0
2019/02/07 03:24:00.000   40.429163779   -4.249656214   829.4242   6  11   0.0122   0.0139   0.0253   0.0037   0.0040  -0.0093   0.00    0.0
2019/02/07 03:24:30.000   40.429163819   -4.249656249   829.4223   6  11   0.0131   0.0134   0.0261   0.0035   0.0042  -0.0086   0.00    0.0
2019/02/07 03:25:00.000   40.429163883   -4.249656182   829.4173   6  11   0.0122   0.0136   0.0266  -0.0047  -0.0026  -0.0094   0.00    0.0
2019/02/07 03:25:30.000   40.429163906   -4.249656274   829.4204   6  11   0.0127   0.0136   0.0259  -0.0038  -0.0037  -0.0092   0.00    0.0
2019/02/07 03:26:00.000   40.429163901   -4.249656315   829.4229   6  11   0.0127   0.0133   0.0258  -0.0037   0.0018  -0.0087   0.00    0.0
2019/02/07 03:26:30.000   40.429163745   -4.249656290   829.4168   6  11   0.0120   0.0138   0.0265  -0.0021  -0.0026  -0.0087   0.00    0.0
2019/02/07 03:27:00.000   40.429163699   -4.249656270   829.4038   6  11   0.0122   0.0136   0.0262  -0.0024  -0.0041  -0.0087   0.00    0.0
2019/02/07 03:27:30.000   40.429163772   -4.249656254   829.4157   6  11   0.0125   0.0137   0.0262  -0.0010  -0.0011  -0.0089   0.00    0.0
2019/02/07 03:28:00.000   40.429163795   -4.249656216   829.4208   6  11   0.0129   0.0142   0.0270  -0.0036   0.0014  -0.0091   0.00    0.0
2019/02/07 03:28:30.000   40.429163775   -4.249656327   829.4262   6  11   0.0122   0.0137   0.0265  -0.0041  -0.0008  -0.0086   0.00    0.0
2019/02/07 03:29:00.000   40.429163757   -4.249656289   829.4085   6  11   0.0124   0.0139   0.0269   0.0026   0.0009  -0.0073   0.00    0.0
