% program   : RTKPOST ver.2.4.2
% inp file  : D:\WORK\6_GNSS\MOBN\mobn0710.19o
% inp file  : D:\WORK\6_GNSS\NAV\brdc0*.19n
% inp file  : D:\WORK\6_GNSS\SP3\Sta20_*.sp3
% inp file  : D:\WORK\6_GNSS\CLK\Sta30s20_710.clk
% obs start : 2019/03/12 00:00:00.0 GPST (week2044 172800.0s)
% obs end   : 2019/03/12 23:59:30.0 GPST (week2044 259170.0s)
% pos mode  : ppp-kinematic
% solution  : combined
% elev mask : 15.0 deg
% dynamics  : off
% tidecorr  : off
% tropo opt : est ztd
% ephemeris : precise
% antenna1  : ASH701945C_M    NONE  ( 0.0000  0.0000  0.0000)
%
% (lat/lon/height=WGS84/geodetic,Q=1:fix,2:float,3:sbas,4:dgps,5:single,6:ppp,ns=# of satellites)
%  GPST                  latitude(deg) longitude(deg)  height(m)   Q  ns   sdn(m)   sde(m)   sdu(m)  sdne(m)  sdeu(m)  sdun(m) age(s)  ratio
2019/03/12 00:00:00.000   55.114881166   36.569539831   182.5615   6   9   0.0278   0.0551   0.0689   0.0244  -0.0283  -0.0290   0.00    0.0
2019/03/12 00:00:30.000   55.114881151   36.569539981   182.5836   6   9   0.0260   0.0560   0.0694   0.0255  -0.0289  -0.0288   0.00    0.0
2019/03/12 00:01:00.000   55.114881200   36.569540178   182.5622   6   9   0.0254   0.0563   0.0696   0.0252  -0.0294  -0.0287   0.00    0.0
2019/03/12 00:01:30.000   55.114881294   36.569540306   182.5593   6   9   0.0269   0.0561   0.0697   0.0249  -0.0288  -0.0289   0.00    0.0
2019/03/12 00:02:00.000   55.114881318   36.569540438   182.5666   6   9   0.0251   0.0567   0.0702   0.0253  -0.0294  -0.0287   0.00    0.0
2019/03/12 00:02:30.000   55.114881289   36.569540553   182.5422   6   9   0.0255   0.0568   0.0700   0.0248  -0.0292  -0.0288   0.00    0.0
2019/03/12 00:03:00.000   55.114881277   36.569540729   182.5327   6   9   0.0267   0.0572   0.0702   0.0246  -0.0289  -0.0299   0.00    0.0
2019/03/12 00:03:30.000   55.114881305   36.569540807   182.5458   6   9   0.0267   0.0575   0.0705   0.0244  -0.0296  -0.0294   0.00    0.0
2019/03/12 00:04:00.000   55.114881317   36.569541220   182.5290   6   9   0.0272   0.0573   0.0711   0.0250  -0.0290  -0.0301   0.00    0.0
2019/03/12 00:04:30.000   55.114881301   36.569541272   182.5296   6   9   0.0276   0.0579   0.0710   0.0251  -0.0302  -0.0302   0.00    0.0
2019/03/12 00:05:00.000   55.114881330   36.569541467   182.5262   6   9   0.0276   0.0584   0.0710   0.0246  -0.0302  -0.0300   0.00    0.0
2019/03/12 00:05:30.000   55.114881288   36.569541395   182.5237   6   9   0.0258   0.0585   0.0712   0.0248  -0.0300  -0.0297   0.00    0.0
2019/03/12 00:06:00.000   55.114881312   36.569541698   182.5136   6   9   0.0262   0.0592   0.0718   0.0254  -0.0302  -0.0306   0.00    0.0
2019/03/12 00:06:30.000   55.114881277   36.569541853   182.5084   6   9   0.0277   0.0593   0.0715   0.0257  -0.0306  -0.0306   0.00    0.0
2019/03/12 00:07:00.000   55.114881285   36.569541758   182.4921   6   9   0.0276   0.0601   0.0723   0.0251  -0.0313  -0.0312   0.00    0.0
2019/03/12 00:07:30.000   55.114881335   36.569542005   182.4723   6   9   0.0274   0.0604   0.0722   0.0255  -0.0313  -0.0306   0.00    0.0
2019/03/12 00:08:00.000   55.114881237   36.569541842   182.4979   6   9   0.0277   0.0600   0.0717   0.0248  -0.0308  -0.0313   0.00    0.0
2019/03/12 00:08:30.000   55.114881194   36.569542052   182.5046   6   9   0.0279   0.0612   0.0726   0.0248  -0.0320  -0.0309   0.00    0.0
2019/03/12 00:09:00.000   55.114881259   36.569542165   182.4966   6   9   0.0279   0.0608   0.0727   0.0247  -0.0314  -0.0311   0.00    0.0
2019/03/12 00:09:30.000   55.114881330   36.569542465   182.4968   6   9   0.0278   0.0614   0.0729   0.0244  -0.0315  -0.0309   0.00    0.0
2019/03/12 00:10:00.000   55.114881322   36.569542489   182.4869   6   9   0.0278   0.0614   0.0732   0.0251  -0.0313  -0.0311   0.00    0.0
2019/03/12 00:10:30.000   55.114881239   36.569542611   182.5041   6   9   0.0287   0.0621   0.0736   0.0249  -0.0318  -0.0311   0.00    0.0
2019/03/12 00:11:00.000   55.114881238   36.569542718   182.4953   6   9   0.0293   0.0622   0.0740   0.0259  -0.0314  -0.0299   0.00    0.0
2019/03/12 00:11:30.000   55.114881248   36.569542960   182.4624   6   8   0.0292   0.0628   0.0745   0.0254  -0.0322  -0.0301   0.00    0.0
2019/03/12 00:12:00.000   55.114881282   36.569543107   182.4659   6   8   0.0298   0.0627   0.0741   0.0252  -0.0317  -0.0307   0.00    0.0
2019/03/12 00:12:30.000   55.114881323   36.569543255   182.4756   6   8   0.0293   0.0633   0.0741   0.0253  -0.0319  -0.0303   0.00    0.0
2019/03/12 00:13:00.000   55.114881411   36.569543397   182.4798   6   8   0.0301   0.0637   0.0743   0.0251  -0.0323  -0.0310   0.00    0.0
2019/03/12 00:13:30.000   55.114881309   36.569543491   182.4738   6   8   0.0302   0.0636   0.0742   0.0250  -0.0318  -0.0313   0.00    0.0
2019/03/12 00:14:00.000   55.114881280   36.569543464   182.4807   6   8   0.0292   0.0640   0.0745   0.0256  -0.0322  -0.0311   0.00    0.0
2019/03/12 00:14:30.000   55.114881325   36.569543460   182.4774   6   8   0.0303   0.0642   0.0745   0.0250  -0.0325  -0.0313   0.00    0.0
2019/03/12 00:15:00.000   55.114881321   36.569543584   182.4804   6   8   0.0303   0.0648   0.0747   0.0251  -0.0325  -0.0318   0.00    0.0
2019/03/12 00:15:30.000   55.114881331   36.569543697   182.4780   6   8   0.0300   0.0649   0.0749   0.0253  -0.0328  -0.0318   0.00    0.0
2019/03/12 00:16:00.000   55.114881166   36.569543612   182.4623   6   8   0.0310   0.0652   0.0748   0.0247  -0.0325  -0.0322   0.00    0.0
2019/03/12 00:16:30.000   55.114881178   36.569543472   182.4641   6   8   0.0317   0.0653   0.0749   0.0243  -0.0322  -0.0327   0.00    0.0
2019/03/12 00:17:00.000   55.114881163   36.569543403   182.4676   6   8   0.0308   0.0655   0.0753   0.0245  -0.0321  -0.0326   0.00    0.0
2019/03/12 00:17:30.000   55.114881141   36.569543682   182.4440   6   8   0.0308   0.0658   0.0754   0.0244  -0.0321  -0.0328   0.00    0.0
2019/03/12 00:18:00.000   55.114881125   36.569543732   182.4446   6   8   0.0313   0.0660   0.0757   0.0249  -0.0320  -0.0332   0.00    0.0
2019/03/12 00:18:30.000   55.114881111   36.569543808   182.4439   6   8   0.0318   0.0661   0.0758   0.0234  -0.0320  -0.0334   0.00    0.0
2019/03/12 00:19:00.000   55.114881174   36.569543941   182.4447   6   8   0.0319   0.0662   0.0760   0.0237  -0.0315  -0.0336   0.00    0.0
2019/03/12 00:19:30.000   55.114881293   36.569543891   182.4675   6   8   0.0319   0.0665   0.0762   0.0238  -0.0318  -0.0338   0.00    0.0
2019/03/12 00:20:00.000   55.114881244   36.569544015   182.4959   6   8   0.0318   0.0667   0.0765   0.0241  -0.0315  -0.0338   0.00    0.0
2019/03/12 00:20:30.000   55.114881149   36.569544117   182.4857   6   8   0.0319   0.0669   0.0770   0.0230  -0.0313  -0.0338   0.00    0.0
2019/03/12 00:21:00.000   55.114881123   36.569544248   182.4675   6   8   0.0326   0.0670   0.0771   0.0233  -0.0313  -0.0341   0.00    0.0
2019/03/12 00:21:30.000   55.114881158   36.569544439   182.4841   6   8   0.0326   0.0671   0.0774   0.0229  -0.0310  -0.0345   0.00    0.0
2019/03/12 00:22:00.000   55.114881206   36.569544337   182.4851   6   8   0.0330   0.0673   0.0776   0.0227  -0.0310  -0.0345   0.00    0.0
2019/03/12 00:22:30.000   55.114881173   36.569544639   182.4874   6   8   0.0329   0.0674   0.0779   0.0228  -0.0308  -0.0347   0.00    0.0
2019/03/12 00:23:00.000   55.114881131   36.569544504   182.4926   6   8   0.0331   0.0675   0.0780   0.0228  -0.0301  -0.0348   0.00    0.0
2019/03/12 00:23:30.000   55.114881197   36.569544666   182.4866   6   8   0.0332   0.0677   0.0787   0.0219  -0.0301  -0.0348   0.00    0.0
2019/03/12 00:24:00.000   55.114881042   36.569544498   182.4937   6   8   0.0331   0.0676   0.0787   0.0219  -0.0296  -0.0348   0.00    0.0
2019/03/12 00:24:30.000   55.114880963   36.569544454   182.4966   6   8   0.0337   0.0676   0.0790   0.0220  -0.0293  -0.0351   0.00    0.0
2019/03/12 00:25:00.000   55.114881051   36.569544613   182.5025   6   8   0.0335   0.0677   0.0794   0.0214  -0.0288  -0.0352   0.00    0.0
2019/03/12 00:25:30.000   55.114880983   36.569544709   182.4926   6   8   0.0332   0.0678   0.0798   0.0207  -0.0284  -0.0351   0.00    0.0
2019/03/12 00:26:00.000   55.114881011   36.569544772   182.4765   6   8   0.0335   0.0679   0.0801   0.0207  -0.0281  -0.0353   0.00    0.0
2019/03/12 00:26:30.000   55.114881076   36.569544771   182.4795   6   8   0.0341   0.0679   0.0804   0.0201  -0.0281  -0.0354   0.00    0.0
2019/03/12 00:27:00.000   55.114881029   36.569544886   182.4858   6   8   0.0341   0.0677   0.0806   0.0197  -0.0271  -0.0354   0.00    0.0
2019/03/12 00:27:30.000   55.114880879   36.569544647   182.5170   6   8   0.0340   0.0678   0.0811   0.0195  -0.0268  -0.0355   0.00    0.0
2019/03/12 00:28:00.000   55.114880858   36.569544737   182.4994   6   8   0.0345   0.0677   0.0812   0.0192  -0.0263  -0.0354   0.00    0.0
2019/03/12 00:28:30.000   55.114880856   36.569544512   182.4981   6   8   0.0346   0.0676   0.0816   0.0189  -0.0254  -0.0356   0.00    0.0
2019/03/12 00:29:00.000   55.114880839   36.569544503   182.4894   6   8   0.0344   0.0677   0.0820   0.0183  -0.0251  -0.0355   0.00    0.0
2019/03/12 00:29:30.000   55.114880897   36.569544538   182.4687   6   8   0.0349   0.0675   0.0823   0.0179  -0.0242  -0.0356   0.00    0.0
2019/03/12 00:30:00.000   55.114880780   36.569544546   182.4763   6   8   0.0344   0.0674   0.0827   0.0175  -0.0233  -0.0354   0.00    0.0
2019/03/12 00:30:30.000   55.114880805   36.569544300   182.4906   6   8   0.0348   0.0673   0.0831   0.0171  -0.0232  -0.0354   0.00    0.0
2019/03/12 00:31:00.000   55.114880734   36.569544229   182.4849   6   8   0.0350   0.0674   0.0835   0.0169  -0.0227  -0.0354   0.00    0.0
2019/03/12 00:31:30.000   55.114880740   36.569543986   182.4676   6   8   0.0352   0.0673   0.0838   0.0163  -0.0220  -0.0354   0.00    0.0
2019/03/12 00:32:00.000   55.114880823   36.569543960   182.4811   6   8   0.0352   0.0671   0.0842   0.0155  -0.0213  -0.0352   0.00    0.0
2019/03/12 00:32:30.000   55.114880872   36.569544073   182.4696   6   8   0.0356   0.0669   0.0846   0.0152  -0.0208  -0.0353   0.00    0.0
2019/03/12 00:33:00.000   55.114880811   36.569544032   182.4785   6   8   0.0355   0.0668   0.0850   0.0147  -0.0196  -0.0351   0.00    0.0
2019/03/12 00:33:30.000   55.114880850   36.569544008   182.5019   6   8   0.0356   0.0666   0.0854   0.0142  -0.0187  -0.0350   0.00    0.0
2019/03/12 00:34:00.000   55.114880852   36.569543666   182.5144   6   8   0.0359   0.0665   0.0859   0.0137  -0.0182  -0.0349   0.00    0.0
2019/03/12 00:34:30.000   55.114880797   36.569543686   182.5227   6   8   0.0364   0.0663   0.0858   0.0130  -0.0166  -0.0347   0.00    0.0
2019/03/12 00:35:00.000   55.114880799   36.569543638   182.5238   6   8   0.0362   0.0662   0.0864   0.0127  -0.0156  -0.0346   0.00    0.0
2019/03/12 00:35:30.000   55.114880741   36.569543625   182.5274   6   8   0.0365   0.0660   0.0869   0.0120  -0.0154  -0.0343   0.00    0.0
2019/03/12 00:36:00.000   55.114880805   36.569543603   182.5254   6   8   0.0367   0.0659   0.0873   0.0112  -0.0138  -0.0342   0.00    0.0
2019/03/12 00:36:30.000   55.114880786   36.569543613   182.5476   6   8   0.0368   0.0655   0.0875   0.0108  -0.0123  -0.0339   0.00    0.0
2019/03/12 00:37:00.000   55.114880644   36.569543504   182.5180   6   8   0.0371   0.0654   0.0881   0.0109  -0.0115  -0.0337   0.00    0.0
2019/03/12 00:37:30.000   55.114880589   36.569543562   182.5242   6   8   0.0375   0.0651   0.0883   0.0091  -0.0098  -0.0336   0.00    0.0
2019/03/12 00:38:00.000   55.114880700   36.569543399   182.5174   6   8   0.0376   0.0649   0.0887   0.0088  -0.0088  -0.0332   0.00    0.0
2019/03/12 00:38:30.000   55.114880646   36.569543364   182.5200   6   8   0.0378   0.0647   0.0891   0.0085  -0.0053  -0.0329   0.00    0.0
2019/03/12 00:39:00.000   55.114880696   36.569543074   182.5231   6   8   0.0379   0.0646   0.0898   0.0068  -0.0052  -0.0325   0.00    0.0
2019/03/12 00:39:30.000   55.114880767   36.569543095   182.5351   6   8   0.0381   0.0642   0.0900   0.0069   0.0047  -0.0321   0.00    0.0
2019/03/12 00:40:00.000   55.114880745   36.569543087   182.5320   6   8   0.0383   0.0641   0.0906   0.0058   0.0039  -0.0317   0.00    0.0
2019/03/12 00:40:30.000   55.114880607   36.569542867   182.5323   6   8   0.0386   0.0636   0.0906   0.0057   0.0102  -0.0312   0.00    0.0
2019/03/12 00:41:00.000   55.114880683   36.569542934   182.5347   6   8   0.0390   0.0635   0.0914   0.0037   0.0091  -0.0307   0.00    0.0
2019/03/12 00:41:30.000   55.114880572   36.569542684   182.5484   6   8   0.0393   0.0632   0.0921   0.0030   0.0104  -0.0306   0.00    0.0
2019/03/12 00:42:00.000   55.114880598   36.569542800   182.5167   6   8   0.0395   0.0631   0.0923   0.0023   0.0109  -0.0299   0.00    0.0
2019/03/12 00:42:30.000   55.114880598   36.569542663   182.5509   6   8   0.0395   0.0629   0.0930  -0.0032   0.0121  -0.0293   0.00    0.0
2019/03/12 00:43:00.000   55.114880594   36.569542541   182.5452   6   8   0.0398   0.0624   0.0934  -0.0044   0.0130  -0.0285   0.00    0.0
2019/03/12 00:43:30.000   55.114880587   36.569542412   182.5455   6   8   0.0404   0.0624   0.0938  -0.0051   0.0138  -0.0283   0.00    0.0
2019/03/12 00:44:00.000   55.114880543   36.569542338   182.5450   6   8   0.0405   0.0622   0.0944  -0.0068   0.0137  -0.0276   0.00    0.0
2019/03/12 00:44:30.000   55.114880508   36.569542166   182.5506   6   8   0.0406   0.0617   0.0945  -0.0065   0.0155  -0.0266   0.00    0.0
2019/03/12 00:45:00.000   55.114880554   36.569542101   182.5420   6   8   0.0409   0.0616   0.0952  -0.0073   0.0150  -0.0263   0.00    0.0
2019/03/12 00:45:30.000   55.114880648   36.569542143   182.5310   6   8   0.0412   0.0612   0.0955  -0.0076   0.0168  -0.0256   0.00    0.0
2019/03/12 00:46:00.000   55.114880733   36.569542050   182.5789   6   8   0.0414   0.0608   0.0958  -0.0080   0.0171  -0.0248   0.00    0.0
2019/03/12 00:46:30.000   55.114880830   36.569542082   182.5865   6   8   0.0412   0.0605   0.0964  -0.0075   0.0173  -0.0236   0.00    0.0
2019/03/12 00:47:00.000   55.114880798   36.569541941   182.5801   6   8   0.0417   0.0603   0.0968  -0.0084   0.0173  -0.0233   0.00    0.0
2019/03/12 00:47:30.000   55.114880671   36.569541821   182.5886   6   8   0.0417   0.0600   0.0971  -0.0085   0.0177  -0.0224   0.00    0.0
2019/03/12 00:48:00.000   55.114880742   36.569541805   182.6064   6   8   0.0417   0.0597   0.0973  -0.0097   0.0184  -0.0215   0.00    0.0
2019/03/12 00:48:30.000   55.114880781   36.569541817   182.6229   6   8   0.0422   0.0595   0.0975  -0.0089   0.0186  -0.0212   0.00    0.0
2019/03/12 00:49:00.000   55.114880696   36.569541673   182.6183   6   9   0.0420   0.0593   0.0987  -0.0115   0.0178  -0.0204   0.00    0.0
2019/03/12 00:49:30.000   55.114880775   36.569541530   182.6108   6   9   0.0418   0.0585   0.0972  -0.0106   0.0152  -0.0177   0.00    0.0
2019/03/12 00:50:00.000   55.114880795   36.569541409   182.6084   6   9   0.0421   0.0585   0.0969  -0.0094   0.0168  -0.0168   0.00    0.0
2019/03/12 00:50:30.000   55.114880745   36.569541352   182.6034   6   9   0.0420   0.0584   0.0973  -0.0108   0.0149  -0.0145   0.00    0.0
2019/03/12 00:51:00.000   55.114880714   36.569541249   182.6065   6   9   0.0418   0.0574   0.0971  -0.0122   0.0140  -0.0129   0.00    0.0
2019/03/12 00:51:30.000   55.114880760   36.569541104   182.5990   6   9   0.0424   0.0576   0.0966  -0.0095   0.0151  -0.0120   0.00    0.0
2019/03/12 00:52:00.000   55.114880710   36.569540991   182.5908   6   9   0.0421   0.0573   0.0967  -0.0110   0.0122  -0.0108   0.00    0.0
2019/03/12 00:52:30.000   55.114880816   36.569540837   182.5993   6   9   0.0419   0.0569   0.0964  -0.0115   0.0123  -0.0088   0.00    0.0
2019/03/12 00:53:00.000   55.114880365   36.569540550   182.5647   6   8   0.0509   0.0566   0.0975  -0.0110   0.0136   0.0208   0.00    0.0
2019/03/12 00:53:30.000   55.114880338   36.569540607   182.5394   6   9   0.0506   0.0569   0.0981  -0.0117   0.0098   0.0212   0.00    0.0
2019/03/12 00:54:00.000   55.114880511   36.569540536   182.5783   6   9   0.0504   0.0560   0.0968  -0.0112   0.0111   0.0216   0.00    0.0
2019/03/12 00:54:30.000   55.114880394   36.569540405   182.5954   6   9   0.0500   0.0557   0.0975  -0.0124   0.0078   0.0217   0.00    0.0
2019/03/12 00:55:00.000   55.114880355   36.569540296   182.5591   6   9   0.0449   0.0554   0.0952  -0.0120   0.0071   0.0113   0.00    0.0
2019/03/12 00:55:30.000   55.114880314   36.569540153   182.5502   6   9   0.0433   0.0550   0.0945  -0.0119   0.0061  -0.0023   0.00    0.0
2019/03/12 00:56:00.000   55.114880252   36.569540019   182.5523   6   9   0.0495   0.0550   0.0959  -0.0128   0.0050   0.0219   0.00    0.0
2019/03/12 00:56:30.000   55.114880315   36.569540025   182.5472   6   9   0.0491   0.0547   0.0952  -0.0138  -0.0070   0.0216   0.00    0.0
2019/03/12 00:57:00.000   55.114880267   36.569539860   182.5518   6   8   0.0488   0.0544   0.0947  -0.0149  -0.0082   0.0213   0.00    0.0
2019/03/12 00:57:30.000   55.114880288   36.569539817   182.5384   6   8   0.0483   0.0546   0.0944  -0.0144  -0.0065   0.0213   0.00    0.0
2019/03/12 00:58:00.000   55.114880224   36.569539853   182.5133   6   8   0.0478   0.0543   0.0940  -0.0148  -0.0103   0.0210   0.00    0.0
2019/03/12 00:58:30.000   55.114880220   36.569539592   182.5361   6   8   0.0477   0.0538   0.0932  -0.0136  -0.0111   0.0204   0.00    0.0
2019/03/12 00:59:00.000   55.114880100   36.569539757   182.4802   6   8   0.0471   0.0536   0.0925  -0.0142  -0.0125   0.0206   0.00    0.0
2019/03/12 00:59:30.000   55.114880182   36.569539551   182.4999   6   8   0.0466   0.0531   0.0923  -0.0146  -0.0139   0.0205   0.00    0.0
2019/03/12 01:00:00.000   55.114880141   36.569539413   182.4817   6   8   0.0466   0.0528   0.0911  -0.0154  -0.0161   0.0200   0.00    0.0
2019/03/12 01:00:30.000   55.114880545   36.569530863   182.4368   6   8   0.0322   0.0203   0.0649  -0.0096  -0.0247   0.0223   0.00    0.0
2019/03/12 01:01:00.000   55.114880666   36.569530728   182.4792   6   8   0.0317   0.0187   0.0546  -0.0084  -0.0191   0.0179   0.00    0.0
2019/03/12 01:01:30.000   55.114880635   36.569530889   182.4660   6   8   0.0314   0.0193   0.0561  -0.0080  -0.0195   0.0182   0.00    0.0
2019/03/12 01:02:00.000   55.114880531   36.569530821   182.4504   6   8   0.0317   0.0197   0.0647  -0.0099  -0.0244   0.0222   0.00    0.0
2019/03/12 01:02:30.000   55.114880568   36.569530772   182.5074   6   8   0.0309   0.0186   0.0511  -0.0075  -0.0168   0.0162   0.00    0.0
2019/03/12 01:03:00.000   55.114880636   36.569530871   182.4995   6   8   0.0304   0.0189   0.0513  -0.0079  -0.0165   0.0161   0.00    0.0
2019/03/12 01:03:30.000   55.114880562   36.569530780   182.4797   6   8   0.0304   0.0180   0.0512  -0.0077  -0.0173   0.0157   0.00    0.0
2019/03/12 01:04:00.000   55.114880620   36.569530785   182.5119   6   8   0.0300   0.0181   0.0532  -0.0086  -0.0173   0.0159   0.00    0.0
2019/03/12 01:04:30.000   55.114880483   36.569530886   182.4787   6   8   0.0298   0.0189   0.0551  -0.0080  -0.0190   0.0166   0.00    0.0
2019/03/12 01:05:00.000   55.114880510   36.569530891   182.4759   6   8   0.0302   0.0200   0.0646  -0.0105  -0.0234   0.0217   0.00    0.0
2019/03/12 01:05:30.000   55.114880470   36.569530872   182.4803   6   7   0.0299   0.0199   0.0646  -0.0099  -0.0233   0.0214   0.00    0.0
2019/03/12 01:06:00.000   55.114880359   36.569530946   182.4974   6   8   0.0296   0.0203   0.0646  -0.0100  -0.0227   0.0212   0.00    0.0
2019/03/12 01:06:30.000   55.114880327   36.569530918   182.4668   6   7   0.0295   0.0196   0.0644  -0.0103  -0.0235   0.0210   0.00    0.0
2019/03/12 01:07:00.000   55.114880384   36.569530822   182.4625   6   7   0.0293   0.0194   0.0645  -0.0108  -0.0229   0.0209   0.00    0.0
2019/03/12 01:07:30.000   55.114880340   36.569530834   182.4803   6   9   0.0289   0.0196   0.0644  -0.0105  -0.0228   0.0204   0.00    0.0
2019/03/12 01:08:00.000   55.114880517   36.569530604   182.4880   6   9   0.0211   0.0170   0.0413   0.0060  -0.0094   0.0070   0.00    0.0
2019/03/12 01:08:30.000   55.114880545   36.569530736   182.4810   6   9   0.0206   0.0175   0.0413   0.0046  -0.0122   0.0066   0.00    0.0
2019/03/12 01:09:00.000   55.114880433   36.569530654   182.4795   6   9   0.0206   0.0169   0.0395   0.0067  -0.0094   0.0037   0.00    0.0
2019/03/12 01:09:30.000   55.114880391   36.569530625   182.4715   6   9   0.0199   0.0170   0.0395   0.0062  -0.0098   0.0058   0.00    0.0
2019/03/12 01:10:00.000   55.114880350   36.569530582   182.4834   6   9   0.0194   0.0164   0.0398   0.0055  -0.0110   0.0062   0.00    0.0
2019/03/12 01:10:30.000   55.114880268   36.569530701   182.4458   6   9   0.0196   0.0174   0.0403   0.0052  -0.0116   0.0054   0.00    0.0
2019/03/12 01:11:00.000   55.114880243   36.569530661   182.4618   6   9   0.0191   0.0175   0.0399   0.0072  -0.0115   0.0045   0.00    0.0
2019/03/12 01:11:30.000   55.114880269   36.569530520   182.4881   6   9   0.0197   0.0165   0.0388   0.0056  -0.0092   0.0031   0.00    0.0
2019/03/12 01:12:00.000   55.114880286   36.569530666   182.4717   6   9   0.0196   0.0167   0.0384   0.0058  -0.0101   0.0034   0.00    0.0
2019/03/12 01:12:30.000   55.114880262   36.569530669   182.4823   6   9   0.0190   0.0175   0.0395   0.0059  -0.0104   0.0035   0.00    0.0
2019/03/12 01:13:00.000   55.114880340   36.569530523   182.4829   6   9   0.0187   0.0162   0.0385   0.0063  -0.0103   0.0036   0.00    0.0
2019/03/12 01:13:30.000   55.114880343   36.569530665   182.4697   6   9   0.0190   0.0173   0.0387   0.0052  -0.0104   0.0026   0.00    0.0
2019/03/12 01:14:00.000   55.114880465   36.569530569   182.4724   6   9   0.0190   0.0167   0.0376   0.0068  -0.0093  -0.0029   0.00    0.0
2019/03/12 01:14:30.000   55.114880346   36.569530563   182.4508   6   9   0.0192   0.0166   0.0381   0.0047  -0.0091  -0.0013   0.00    0.0
2019/03/12 01:15:00.000   55.114880380   36.569530672   182.4587   6   9   0.0185   0.0171   0.0388   0.0057  -0.0097  -0.0014   0.00    0.0
2019/03/12 01:15:30.000   55.114880350   36.569530651   182.4509   6   9   0.0189   0.0166   0.0387   0.0057  -0.0085  -0.0031   0.00    0.0
2019/03/12 01:16:00.000   55.114880438   36.569530638   182.4620   6   9   0.0186   0.0172   0.0381   0.0064  -0.0093  -0.0038   0.00    0.0
2019/03/12 01:16:30.000   55.114880387   36.569530553   182.4780   6   9   0.0183   0.0161   0.0384   0.0042  -0.0079  -0.0013   0.00    0.0
2019/03/12 01:17:00.000   55.114880487   36.569530513   182.4623   6   9   0.0181   0.0158   0.0378   0.0046  -0.0090   0.0009   0.00    0.0
2019/03/12 01:17:30.000   55.114880479   36.569530598   182.4484   6   9   0.0186   0.0169   0.0373   0.0042  -0.0074  -0.0028   0.00    0.0
2019/03/12 01:18:00.000   55.114880521   36.569530623   182.4530   6   9   0.0183   0.0173   0.0381   0.0055  -0.0089  -0.0039   0.00    0.0
2019/03/12 01:18:30.000   55.114880491   36.569530514   182.4519   6   9   0.0182   0.0163   0.0381   0.0051  -0.0063  -0.0050   0.00    0.0
2019/03/12 01:19:00.000   55.114880336   36.569530538   182.4405   6   9   0.0182   0.0164   0.0380   0.0050  -0.0103  -0.0049   0.00    0.0
2019/03/12 01:19:30.000   55.114880288   36.569530570   182.4662   6   9   0.0182   0.0173   0.0378   0.0050  -0.0074  -0.0042   0.00    0.0
2019/03/12 01:20:00.000   55.114880407   36.569530521   182.4296   6   9   0.0172   0.0169   0.0383   0.0063  -0.0095  -0.0031   0.00    0.0
2019/03/12 01:20:30.000   55.114880346   36.569530632   182.4683   6   9   0.0179   0.0176   0.0378   0.0057  -0.0072  -0.0045   0.00    0.0
2019/03/12 01:21:00.000   55.114880362   36.569530729   182.4803   6   9   0.0175   0.0184   0.0384   0.0063  -0.0082  -0.0050   0.00    0.0
2019/03/12 01:21:30.000   55.114880301   36.569530574   182.4777   6   9   0.0173   0.0169   0.0373   0.0021  -0.0067  -0.0054   0.00    0.0
2019/03/12 01:22:00.000   55.114880394   36.569530347   182.4661   6   9   0.0178   0.0161   0.0373   0.0054  -0.0072  -0.0055   0.00    0.0
2019/03/12 01:22:30.000   55.114880303   36.569530583   182.4655   6   9   0.0171   0.0174   0.0385   0.0048  -0.0072  -0.0057   0.00    0.0
2019/03/12 01:23:00.000   55.114880319   36.569530368   182.4458   6   9   0.0171   0.0162   0.0388   0.0042  -0.0071  -0.0054   0.00    0.0
2019/03/12 01:23:30.000   55.114880385   36.569530598   182.4436   6   9   0.0173   0.0174   0.0377   0.0069  -0.0074  -0.0057   0.00    0.0
2019/03/12 01:24:00.000   55.114880351   36.569530469   182.4556   6   9   0.0169   0.0169   0.0381   0.0050  -0.0041  -0.0048   0.00    0.0
2019/03/12 01:24:30.000   55.114880312   36.569530410   182.4513   6   9   0.0169   0.0162   0.0381   0.0046  -0.0054  -0.0059   0.00    0.0
2019/03/12 01:25:00.000   55.114880292   36.569530500   182.4548   6   9   0.0168   0.0165   0.0384   0.0058  -0.0083  -0.0055   0.00    0.0
2019/03/12 01:25:30.000   55.114880376   36.569530696   182.4521   6   9   0.0169   0.0171   0.0382   0.0042  -0.0072  -0.0068   0.00    0.0
2019/03/12 01:26:00.000   55.114880367   36.569530640   182.4452   6   9   0.0166   0.0169   0.0383   0.0046  -0.0090  -0.0066   0.00    0.0
2019/03/12 01:26:30.000   55.114880423   36.569530389   182.4310   6   9   0.0167   0.0162   0.0371   0.0040  -0.0066  -0.0053   0.00    0.0
2019/03/12 01:27:00.000   55.114880355   36.569530539   182.4430   6   9   0.0165   0.0173   0.0389   0.0044  -0.0051  -0.0067   0.00    0.0
2019/03/12 01:27:30.000   55.114880281   36.569530425   182.4639   6   9   0.0164   0.0169   0.0388   0.0055  -0.0069  -0.0069   0.00    0.0
2019/03/12 01:28:00.000   55.114880355   36.569530398   182.4302   6   9   0.0167   0.0168   0.0382   0.0046  -0.0060  -0.0071   0.00    0.0
2019/03/12 01:28:30.000   55.114880302   36.569530526   182.4477   6   9   0.0168   0.0176   0.0375   0.0046  -0.0051  -0.0069   0.00    0.0
2019/03/12 01:29:00.000   55.114880337   36.569530480   182.4377   6   9   0.0163   0.0168   0.0382   0.0022  -0.0059  -0.0071   0.00    0.0
2019/03/12 01:29:30.000   55.114880303   36.569530456   182.4217   6   9   0.0171   0.0169   0.0378   0.0051  -0.0066  -0.0072   0.00    0.0
2019/03/12 01:30:00.000   55.114880345   36.569530474   182.4353   6   9   0.0165   0.0170   0.0376   0.0037  -0.0077  -0.0073   0.00    0.0
2019/03/12 01:30:30.000   55.114880379   36.569530462   182.4225   6   9   0.0163   0.0175   0.0379   0.0052  -0.0057  -0.0070   0.00    0.0
2019/03/12 01:31:00.000   55.114880365   36.569530424   182.4143   6   9   0.0168   0.0167   0.0382   0.0042  -0.0070  -0.0076   0.00    0.0
2019/03/12 01:31:30.000   55.114880371   36.569530516   182.4258   6   9   0.0162   0.0169   0.0383   0.0038  -0.0085  -0.0066   0.00    0.0
2019/03/12 01:32:00.000   55.114880407   36.569530404   182.4372   6   9   0.0164   0.0163   0.0381   0.0046  -0.0046  -0.0070   0.00    0.0
2019/03/12 01:32:30.000   55.114880318   36.569530512   182.4377   6   9   0.0159   0.0165   0.0379   0.0013  -0.0060  -0.0070   0.00    0.0
2019/03/12 01:33:00.000   55.114880333   36.569530672   182.4369   6   9   0.0158   0.0176   0.0379   0.0020  -0.0060  -0.0071   0.00    0.0
2019/03/12 01:33:30.000   55.114880274   36.569530628   182.4498   6   9   0.0159   0.0174   0.0380   0.0028  -0.0050  -0.0080   0.00    0.0
2019/03/12 01:34:00.000   55.114880342   36.569530553   182.4427   6   9   0.0153   0.0176   0.0385   0.0055  -0.0057  -0.0077   0.00    0.0
2019/03/12 01:34:30.000   55.114880337   36.569530553   182.4246   6   9   0.0160   0.0169   0.0379   0.0032  -0.0056  -0.0073   0.00    0.0
2019/03/12 01:35:00.000   55.114880234   36.569530452   182.4168   6   9   0.0159   0.0164   0.0379   0.0037  -0.0051  -0.0079   0.00    0.0
2019/03/12 01:35:30.000   55.114880314   36.569530494   182.4174   6   9   0.0159   0.0168   0.0381   0.0015  -0.0050  -0.0087   0.00    0.0
2019/03/12 01:36:00.000   55.114880407   36.569530365   182.4095   6   9   0.0159   0.0163   0.0379   0.0039  -0.0062  -0.0078   0.00    0.0
2019/03/12 01:36:30.000   55.114880386   36.569530425   182.4130   6   9   0.0158   0.0168   0.0380   0.0037  -0.0061  -0.0073   0.00    0.0
2019/03/12 01:37:00.000   55.114880424   36.569530460   182.4297   6   9   0.0160   0.0165   0.0388   0.0038  -0.0052  -0.0086   0.00    0.0
2019/03/12 01:37:30.000   55.114880418   36.569530477   182.4197   6   9   0.0155   0.0169   0.0391   0.0045  -0.0044  -0.0088   0.00    0.0
2019/03/12 01:38:00.000   55.114880371   36.569530336   182.4209   6   9   0.0157   0.0156   0.0385   0.0052  -0.0026  -0.0089   0.00    0.0
2019/03/12 01:38:30.000   55.114880312   36.569530451   182.4387   6   9   0.0158   0.0167   0.0381   0.0048   0.0012  -0.0083   0.00    0.0
2019/03/12 01:39:00.000   55.114880291   36.569530358   182.4269   6   9   0.0158   0.0165   0.0386   0.0038  -0.0053  -0.0086   0.00    0.0
2019/03/12 01:39:30.000   55.114880357   36.569530441   182.3963   6   9   0.0152   0.0168   0.0383   0.0024  -0.0065  -0.0092   0.00    0.0
2019/03/12 01:40:00.000   55.114880371   36.569530423   182.4289   6   9   0.0162   0.0166   0.0375   0.0034  -0.0029  -0.0090   0.00    0.0
2019/03/12 01:40:30.000   55.114880318   36.569530547   182.4390   6   9   0.0147   0.0166   0.0384   0.0017  -0.0058  -0.0074   0.00    0.0
2019/03/12 01:41:00.000   55.114880293   36.569530496   182.4595   6   9   0.0157   0.0160   0.0386   0.0015  -0.0050  -0.0093   0.00    0.0
2019/03/12 01:41:30.000   55.114880363   36.569530344   182.4346   6   9   0.0160   0.0161   0.0387   0.0038  -0.0051  -0.0095   0.00    0.0
2019/03/12 01:42:00.000   55.114880382   36.569530463   182.4263   6   9   0.0151   0.0165   0.0385  -0.0025  -0.0052  -0.0091   0.00    0.0
2019/03/12 01:42:30.000   55.114880382   36.569530376   182.4210   6   9   0.0152   0.0166   0.0382   0.0018  -0.0041  -0.0095   0.00    0.0
2019/03/12 01:43:00.000   55.114880366   36.569530273   182.4201   6   9   0.0154   0.0162   0.0383   0.0029  -0.0033  -0.0094   0.00    0.0
2019/03/12 01:43:30.000   55.114880450   36.569530454   182.4056   6   9   0.0151   0.0166   0.0388   0.0025  -0.0054  -0.0092   0.00    0.0
2019/03/12 01:44:00.000   55.114880330   36.569530285   182.4174   6   9   0.0156   0.0162   0.0391   0.0033  -0.0031  -0.0095   0.00    0.0
2019/03/12 01:44:30.000   55.114880338   36.569530296   182.3970   6   9   0.0156   0.0172   0.0380  -0.0009  -0.0054  -0.0097   0.00    0.0
2019/03/12 01:45:00.000   55.114880400   36.569530304   182.4088   6   9   0.0151   0.0161   0.0393   0.0023  -0.0052  -0.0105   0.00    0.0
2019/03/12 01:45:30.000   55.114880339   36.569530437   182.4010   6   9   0.0148   0.0169   0.0384  -0.0009  -0.0031  -0.0094   0.00    0.0
2019/03/12 01:46:00.000   55.114880327   36.569530368   182.4043   6   9   0.0150   0.0168   0.0386  -0.0036  -0.0068  -0.0101   0.00    0.0
2019/03/12 01:46:30.000   55.114880362   36.569530500   182.4154   6   9   0.0150   0.0165   0.0389   0.0015  -0.0048  -0.0098   0.00    0.0
2019/03/12 01:47:00.000   55.114880346   36.569530449   182.4156   6   9   0.0156   0.0167   0.0377  -0.0025  -0.0048  -0.0103   0.00    0.0
2019/03/12 01:47:30.000   55.114880401   36.569530429   182.4169   6   9   0.0146   0.0165   0.0395   0.0015  -0.0045  -0.0102   0.00    0.0
2019/03/12 01:48:00.000   55.114880358   36.569530528   182.4183   6   9   0.0158   0.0169   0.0384   0.0031  -0.0055  -0.0105   0.00    0.0
2019/03/12 01:48:30.000   55.114880340   36.569530368   182.4251   6   9   0.0157   0.0163   0.0387   0.0038  -0.0053  -0.0108   0.00    0.0
2019/03/12 01:49:00.000   55.114880397   36.569530454   182.4340   6   9   0.0151   0.0161   0.0385   0.0037  -0.0020  -0.0099   0.00    0.0
2019/03/12 01:49:30.000   55.114880280   36.569530310   182.3994   6   9   0.0158   0.0162   0.0388   0.0033  -0.0014  -0.0105   0.00    0.0
2019/03/12 01:50:00.000   55.114880284   36.569530268   182.3918   6   9   0.0155   0.0159   0.0390   0.0024  -0.0055  -0.0104   0.00    0.0
2019/03/12 01:50:30.000   55.114880283   36.569530282   182.4034   6   9   0.0143   0.0155   0.0388  -0.0038  -0.0059  -0.0111   0.00    0.0
2019/03/12 01:51:00.000   55.114880270   36.569530208   182.4168   6   9   0.0147   0.0163   0.0388   0.0032  -0.0035  -0.0097   0.00    0.0
2019/03/12 01:51:30.000   55.114880242   36.569530256   182.4086   6   9   0.0150   0.0160   0.0382   0.0027  -0.0030  -0.0094   0.00    0.0
2019/03/12 01:52:00.000   55.114880291   36.569530301   182.4049   6   9   0.0152   0.0166   0.0386  -0.0013  -0.0005  -0.0102   0.00    0.0
2019/03/12 01:52:30.000   55.114880354   36.569530211   182.3936   6   9   0.0145   0.0155   0.0382  -0.0029  -0.0034  -0.0108   0.00    0.0
2019/03/12 01:53:00.000   55.114880385   36.569530088   182.4017   6  10   0.0142   0.0148   0.0388  -0.0043   0.0028  -0.0110   0.00    0.0
2019/03/12 01:53:30.000   55.114880301   36.569530409   182.4056   6  10   0.0143   0.0161   0.0369   0.0020  -0.0086  -0.0099   0.00    0.0
2019/03/12 01:54:00.000   55.114880356   36.569530330   182.3982   6  10   0.0146   0.0165   0.0374   0.0034  -0.0068  -0.0097   0.00    0.0
2019/03/12 01:54:30.000   55.114880398   36.569530341   182.3934   6  11   0.0152   0.0161   0.0363  -0.0020  -0.0075  -0.0113   0.00    0.0
2019/03/12 01:55:00.000   55.114880329   36.569530305   182.3903   6  11   0.0135   0.0158   0.0346   0.0018  -0.0085  -0.0089   0.00    0.0
2019/03/12 01:55:30.000   55.114880339   36.569530256   182.3814   6  11   0.0138   0.0159   0.0360   0.0009  -0.0101  -0.0102   0.00    0.0
2019/03/12 01:56:00.000   55.114880326   36.569530403   182.4117   6  11   0.0145   0.0156   0.0353  -0.0036  -0.0096  -0.0114   0.00    0.0
2019/03/12 01:56:30.000   55.114880432   36.569530359   182.3876   6  11   0.0135   0.0166   0.0347  -0.0048  -0.0107  -0.0109   0.00    0.0
2019/03/12 01:57:00.000   55.114880280   36.569530302   182.3779   6  11   0.0137   0.0159   0.0349  -0.0045  -0.0094  -0.0106   0.00    0.0
2019/03/12 01:57:30.000   55.114880386   36.569530327   182.3754   6  11   0.0138   0.0162   0.0346   0.0014  -0.0096  -0.0097   0.00    0.0
2019/03/12 01:58:00.000   55.114880312   36.569530301   182.3793   6  11   0.0141   0.0158   0.0342   0.0012  -0.0099  -0.0109   0.00    0.0
2019/03/12 01:58:30.000   55.114880429   36.569530141   182.3825   6  11   0.0145   0.0149   0.0339   0.0014  -0.0100  -0.0108   0.00    0.0
2019/03/12 01:59:00.000   55.114880322   36.569530162   182.3803   6  11   0.0141   0.0161   0.0342  -0.0036  -0.0102  -0.0100   0.00    0.0
2019/03/12 01:59:30.000   55.114880301   36.569530264   182.3667   6  11   0.0136   0.0172   0.0341  -0.0032  -0.0106  -0.0101   0.00    0.0
2019/03/12 02:00:00.000   55.114880336   36.569530215   182.3820   6  11   0.0141   0.0158   0.0346  -0.0020  -0.0104  -0.0112   0.00    0.0
2019/03/12 02:00:30.000   55.114880393   36.569530090   182.3805   6  11   0.0139   0.0156   0.0338   0.0023  -0.0101  -0.0110   0.00    0.0
2019/03/12 02:01:00.000   55.114880414   36.569530198   182.3728   6  11   0.0140   0.0157   0.0337   0.0020  -0.0104  -0.0107   0.00    0.0
2019/03/12 02:01:30.000   55.114880270   36.569530154   182.3971   6  11   0.0139   0.0158   0.0335   0.0023  -0.0096  -0.0109   0.00    0.0
2019/03/12 02:02:00.000   55.114880434   36.569530088   182.3685   6  11   0.0137   0.0156   0.0342  -0.0037  -0.0110  -0.0105   0.00    0.0
2019/03/12 02:02:30.000   55.114880280   36.569530208   182.3912   6  11   0.0139   0.0156   0.0352   0.0033  -0.0097  -0.0107   0.00    0.0
2019/03/12 02:03:00.000   55.114880234   36.569530147   182.4027   6  11   0.0139   0.0155   0.0335   0.0027  -0.0110  -0.0107   0.00    0.0
2019/03/12 02:03:30.000   55.114880253   36.569530259   182.3863   6  11   0.0143   0.0162   0.0330  -0.0025  -0.0111  -0.0108   0.00    0.0
2019/03/12 02:04:00.000   55.114880301   36.569530193   182.3729   6  11   0.0144   0.0157   0.0332  -0.0045  -0.0109  -0.0111   0.00    0.0
2019/03/12 02:04:30.000   55.114880266   36.569530264   182.3852   6  11   0.0141   0.0158   0.0339  -0.0030  -0.0108  -0.0109   0.00    0.0
2019/03/12 02:05:00.000   55.114880198   36.569530409   182.3900   6  11   0.0135   0.0162   0.0337  -0.0049  -0.0112  -0.0106   0.00    0.0
2019/03/12 02:05:30.000   55.114880371   36.569530439   182.3650   6  11   0.0136   0.0164   0.0337  -0.0033  -0.0119  -0.0110   0.00    0.0
2019/03/12 02:06:00.000   55.114880416   36.569530375   182.3878   6  11   0.0128   0.0162   0.0326  -0.0060  -0.0117  -0.0106   0.00    0.0
2019/03/12 02:06:30.000   55.114880400   36.569530246   182.3722   6  11   0.0131   0.0158   0.0330  -0.0053  -0.0110  -0.0109   0.00    0.0
2019/03/12 02:07:00.000   55.114880379   36.569530149   182.3740   6  11   0.0137   0.0156   0.0327  -0.0041  -0.0107  -0.0105   0.00    0.0
2019/03/12 02:07:30.000   55.114880430   36.569530304   182.3923   6  11   0.0137   0.0161   0.0331  -0.0037  -0.0103  -0.0106   0.00    0.0
2019/03/12 02:08:00.000   55.114880356   36.569530243   182.3928   6  11   0.0147   0.0157   0.0338  -0.0052  -0.0107  -0.0122   0.00    0.0
2019/03/12 02:08:30.000   55.114880332   36.569530274   182.3933   6  11   0.0147   0.0157   0.0338  -0.0055  -0.0100  -0.0130   0.00    0.0
2019/03/12 02:09:00.000   55.114880219   36.569530396   182.3907   6  11   0.0135   0.0165   0.0335  -0.0028  -0.0126  -0.0121   0.00    0.0
2019/03/12 02:09:30.000   55.114880316   36.569530299   182.4003   6  11   0.0140   0.0149   0.0332  -0.0022  -0.0115  -0.0105   0.00    0.0
2019/03/12 02:10:00.000   55.114880270   36.569530263   182.3945   6  11   0.0145   0.0151   0.0327  -0.0025  -0.0124  -0.0119   0.00    0.0
2019/03/12 02:10:30.000   55.114880273   36.569530359   182.3918   6  11   0.0143   0.0162   0.0331   0.0035  -0.0102  -0.0099   0.00    0.0
2019/03/12 02:11:00.000   55.114880346   36.569530244   182.3858   6  11   0.0134   0.0159   0.0315  -0.0037  -0.0097  -0.0104   0.00    0.0
2019/03/12 02:11:30.000   55.114880324   36.569530231   182.3912   6  11   0.0139   0.0149   0.0324  -0.0033  -0.0119  -0.0105   0.00    0.0
2019/03/12 02:12:00.000   55.114880292   36.569530404   182.4011   6  11   0.0136   0.0158   0.0325  -0.0051  -0.0110  -0.0102   0.00    0.0
2019/03/12 02:12:30.000   55.114880373   36.569530464   182.3964   6  11   0.0139   0.0162   0.0320  -0.0052  -0.0110  -0.0101   0.00    0.0
2019/03/12 02:13:00.000   55.114880379   36.569530239   182.4132   6  11   0.0140   0.0150   0.0320  -0.0046  -0.0115  -0.0117   0.00    0.0
2019/03/12 02:13:30.000   55.114880403   36.569530299   182.4084   6  11   0.0141   0.0154   0.0326  -0.0060  -0.0105  -0.0117   0.00    0.0
2019/03/12 02:14:00.000   55.114880358   36.569530387   182.4320   6  11   0.0139   0.0154   0.0330  -0.0075  -0.0114  -0.0127   0.00    0.0
2019/03/12 02:14:30.000   55.114880336   36.569530280   182.4260   6  11   0.0139   0.0154   0.0320  -0.0041  -0.0098  -0.0108   0.00    0.0
2019/03/12 02:15:00.000   55.114880385   36.569530194   182.4191   6  11   0.0146   0.0158   0.0327  -0.0056  -0.0099  -0.0126   0.00    0.0
2019/03/12 02:15:30.000   55.114880384   36.569530264   182.3984   6  11   0.0141   0.0148   0.0325  -0.0055  -0.0108  -0.0125   0.00    0.0
2019/03/12 02:16:00.000   55.114880258   36.569530127   182.4126   6  11   0.0143   0.0151   0.0312  -0.0035  -0.0115  -0.0106   0.00    0.0
2019/03/12 02:16:30.000   55.114880297   36.569530206   182.4171   6  11   0.0135   0.0153   0.0314  -0.0049  -0.0119  -0.0098   0.00    0.0
2019/03/12 02:17:00.000   55.114880245   36.569530210   182.4314   6  11   0.0135   0.0158   0.0323  -0.0040  -0.0110  -0.0103   0.00    0.0
2019/03/12 02:17:30.000   55.114880397   36.569530028   182.4311   6  11   0.0133   0.0152   0.0314  -0.0042  -0.0109  -0.0089   0.00    0.0
2019/03/12 02:18:00.000   55.114880357   36.569530096   182.4315   6  11   0.0130   0.0155   0.0318  -0.0043  -0.0106  -0.0102   0.00    0.0
2019/03/12 02:18:30.000   55.114880315   36.569530122   182.4421   6  11   0.0138   0.0153   0.0309  -0.0057  -0.0114  -0.0101   0.00    0.0
2019/03/12 02:19:00.000   55.114880303   36.569530142   182.4435   6  11   0.0132   0.0147   0.0317  -0.0032  -0.0115  -0.0105   0.00    0.0
2019/03/12 02:19:30.000   55.114880324   36.569530143   182.4292   6  11   0.0133   0.0142   0.0306  -0.0054  -0.0118  -0.0103   0.00    0.0
2019/03/12 02:20:00.000   55.114880159   36.569530066   182.4383   6  11   0.0145   0.0159   0.0315  -0.0043  -0.0121  -0.0112   0.00    0.0
2019/03/12 02:20:30.000   55.114880208   36.569530165   182.4348   6  11   0.0146   0.0157   0.0307  -0.0050  -0.0117  -0.0100   0.00    0.0
2019/03/12 02:21:00.000   55.114880261   36.569530124   182.4485   6  11   0.0138   0.0155   0.0314  -0.0029  -0.0110  -0.0101   0.00    0.0
2019/03/12 02:21:30.000   55.114880232   36.569530106   182.4354   6  11   0.0133   0.0148   0.0310  -0.0050  -0.0121  -0.0101   0.00    0.0
2019/03/12 02:22:00.000   55.114880284   36.569530047   182.4371   6  11   0.0138   0.0148   0.0303  -0.0053  -0.0120  -0.0098   0.00    0.0
2019/03/12 02:22:30.000   55.114880234   36.569530108   182.4430   6  11   0.0141   0.0151   0.0312  -0.0044  -0.0117  -0.0096   0.00    0.0
2019/03/12 02:23:00.000   55.114880354   36.569530063   182.4419   6  11   0.0141   0.0154   0.0312  -0.0035  -0.0117  -0.0104   0.00    0.0
2019/03/12 02:23:30.000   55.114880349   36.569530119   182.4454   6  11   0.0137   0.0153   0.0305  -0.0054  -0.0121  -0.0093   0.00    0.0
2019/03/12 02:24:00.000   55.114880356   36.569530194   182.4561   6  11   0.0132   0.0151   0.0302  -0.0046  -0.0108  -0.0095   0.00    0.0
2019/03/12 02:24:30.000   55.114880373   36.569530278   182.4496   6  11   0.0140   0.0157   0.0303  -0.0054  -0.0119  -0.0076   0.00    0.0
2019/03/12 02:25:00.000   55.114880361   36.569530130   182.4629   6  11   0.0135   0.0143   0.0306  -0.0054  -0.0121  -0.0095   0.00    0.0
2019/03/12 02:25:30.000   55.114880235   36.569530170   182.4537   6  11   0.0138   0.0156   0.0306  -0.0045  -0.0118  -0.0093   0.00    0.0
2019/03/12 02:26:00.000   55.114880295   36.569530110   182.4505   6  11   0.0134   0.0153   0.0309  -0.0051  -0.0107  -0.0091   0.00    0.0
2019/03/12 02:26:30.000   55.114880291   36.569530109   182.4427   6  11   0.0132   0.0154   0.0307  -0.0053  -0.0117  -0.0088   0.00    0.0
2019/03/12 02:27:00.000   55.114880290   36.569530019   182.4410   6  11   0.0142   0.0144   0.0306  -0.0039  -0.0121  -0.0097   0.00    0.0
2019/03/12 02:27:30.000   55.114880366   36.569529986   182.4550   6  11   0.0138   0.0152   0.0309  -0.0047  -0.0109  -0.0099   0.00    0.0
2019/03/12 02:28:00.000   55.114880445   36.569530007   182.4353   6  11   0.0126   0.0144   0.0305  -0.0060  -0.0116  -0.0092   0.00    0.0
2019/03/12 02:28:30.000   55.114880376   36.569529999   182.4398   6  11   0.0142   0.0147   0.0302  -0.0052  -0.0118  -0.0095   0.00    0.0
2019/03/12 02:29:00.000   55.114880300   36.569530082   182.4473   6  11   0.0137   0.0155   0.0302  -0.0048  -0.0121  -0.0091   0.00    0.0
2019/03/12 02:29:30.000   55.114880155   36.569530065   182.4450   6  11   0.0140   0.0151   0.0304  -0.0053  -0.0116  -0.0090   0.00    0.0
2019/03/12 02:30:00.000   55.114880161   36.569529976   182.4407   6  11   0.0144   0.0150   0.0303  -0.0049  -0.0122  -0.0094   0.00    0.0
2019/03/12 02:30:30.000   55.114880165   36.569530096   182.4544   6  11   0.0134   0.0149   0.0308  -0.0062  -0.0124  -0.0084   0.00    0.0
2019/03/12 02:31:00.000   55.114880179   36.569530109   182.4606   6  11   0.0145   0.0151   0.0300  -0.0050  -0.0127  -0.0097   0.00    0.0
2019/03/12 02:31:30.000   55.114880246   36.569530155   182.4553   6  11   0.0129   0.0147   0.0304  -0.0055  -0.0107  -0.0079   0.00    0.0
2019/03/12 02:32:00.000   55.114880204   36.569530159   182.4578   6  11   0.0148   0.0148   0.0306  -0.0058  -0.0117  -0.0095   0.00    0.0
2019/03/12 02:32:30.000   55.114880319   36.569530057   182.4496   6  11   0.0133   0.0151   0.0303  -0.0069  -0.0119  -0.0085   0.00    0.0
2019/03/12 02:33:00.000   55.114880280   36.569530064   182.4424   6  11   0.0132   0.0150   0.0303  -0.0064  -0.0120  -0.0074   0.00    0.0
2019/03/12 02:33:30.000   55.114880308   36.569529963   182.4380   6  11   0.0144   0.0151   0.0305  -0.0051  -0.0128  -0.0093   0.00    0.0
2019/03/12 02:34:00.000   55.114880279   36.569530034   182.4377   6  11   0.0137   0.0148   0.0305  -0.0065  -0.0123  -0.0085   0.00    0.0
2019/03/12 02:34:30.000   55.114880200   36.569530030   182.4299   6  11   0.0146   0.0150   0.0308  -0.0044  -0.0114  -0.0093   0.00    0.0
2019/03/12 02:35:00.000   55.114880205   36.569530047   182.4395   6  11   0.0137   0.0151   0.0301  -0.0064  -0.0124  -0.0083   0.00    0.0
2019/03/12 02:35:30.000   55.114880236   36.569529968   182.4389   6  11   0.0145   0.0149   0.0296  -0.0066  -0.0130  -0.0092   0.00    0.0
2019/03/12 02:36:00.000   55.114880216   36.569530129   182.4501   6  11   0.0136   0.0144   0.0308  -0.0072  -0.0121  -0.0095   0.00    0.0
2019/03/12 02:36:30.000   55.114880261   36.569530079   182.4473   6  11   0.0138   0.0143   0.0299  -0.0070  -0.0120  -0.0084   0.00    0.0
2019/03/12 02:37:00.000   55.114880234   36.569530053   182.4372   6  11   0.0144   0.0148   0.0300  -0.0056  -0.0121  -0.0074   0.00    0.0
2019/03/12 02:37:30.000   55.114880218   36.569530083   182.4274   6  11   0.0137   0.0147   0.0298  -0.0066  -0.0116  -0.0062   0.00    0.0
2019/03/12 02:38:00.000   55.114880143   36.569530094   182.4435   6  11   0.0141   0.0152   0.0299  -0.0065  -0.0126  -0.0076   0.00    0.0
2019/03/12 02:38:30.000   55.114880264   36.569529958   182.4489   6  11   0.0132   0.0150   0.0308  -0.0068  -0.0123  -0.0066   0.00    0.0
2019/03/12 02:39:00.000   55.114880141   36.569530133   182.4536   6  11   0.0137   0.0151   0.0305  -0.0063  -0.0128  -0.0080   0.00    0.0
2019/03/12 02:39:30.000   55.114880290   36.569530059   182.4440   6  11   0.0139   0.0145   0.0305  -0.0078  -0.0131  -0.0092   0.00    0.0
2019/03/12 02:40:00.000   55.114880262   36.569530067   182.4492   6  11   0.0145   0.0150   0.0301  -0.0073  -0.0127  -0.0090   0.00    0.0
2019/03/12 02:40:30.000   55.114880294   36.569529861   182.4519   6  11   0.0148   0.0151   0.0305  -0.0069  -0.0124  -0.0083   0.00    0.0
2019/03/12 02:41:00.000   55.114880321   36.569529855   182.4468   6  11   0.0147   0.0155   0.0301  -0.0057  -0.0126  -0.0073   0.00    0.0
2019/03/12 02:41:30.000   55.114880297   36.569529882   182.4452   6  11   0.0147   0.0152   0.0297  -0.0069  -0.0125  -0.0067   0.00    0.0
2019/03/12 02:42:00.000   55.114880299   36.569529945   182.4438   6  11   0.0143   0.0146   0.0300  -0.0070  -0.0129  -0.0064   0.00    0.0
2019/03/12 02:42:30.000   55.114880286   36.569530073   182.4587   6  11   0.0134   0.0149   0.0301  -0.0068  -0.0126  -0.0064   0.00    0.0
2019/03/12 02:43:00.000   55.114880222   36.569530052   182.4609   6  11   0.0144   0.0145   0.0309  -0.0073  -0.0121  -0.0072   0.00    0.0
2019/03/12 02:43:30.000   55.114880267   36.569529931   182.4518   6  11   0.0143   0.0153   0.0310  -0.0061  -0.0123  -0.0068   0.00    0.0
2019/03/12 02:44:00.000   55.114880261   36.569529969   182.4510   6  11   0.0145   0.0146   0.0308  -0.0071  -0.0122  -0.0074   0.00    0.0
2019/03/12 02:44:30.000   55.114880144   36.569530074   182.4426   6  11   0.0139   0.0153   0.0303  -0.0070  -0.0122  -0.0056   0.00    0.0
2019/03/12 02:45:00.000   55.114880190   36.569530184   182.4407   6  11   0.0142   0.0147   0.0304  -0.0071  -0.0126  -0.0054   0.00    0.0
2019/03/12 02:45:30.000   55.114880265   36.569530014   182.4452   6  11   0.0143   0.0156   0.0307  -0.0074  -0.0132  -0.0062   0.00    0.0
2019/03/12 02:46:00.000   55.114880166   36.569530109   182.4495   6  10   0.0146   0.0151   0.0315  -0.0065  -0.0129  -0.0070   0.00    0.0
2019/03/12 02:46:30.000   55.114880120   36.569530085   182.4416   6  10   0.0146   0.0153   0.0314  -0.0071  -0.0135  -0.0075   0.00    0.0
2019/03/12 02:47:00.000   55.114880204   36.569529988   182.4350   6  10   0.0157   0.0154   0.0314  -0.0068  -0.0127  -0.0081   0.00    0.0
2019/03/12 02:47:30.000   55.114880242   36.569530009   182.4359   6  10   0.0158   0.0153   0.0317  -0.0064  -0.0128  -0.0082   0.00    0.0
2019/03/12 02:48:00.000   55.114880339   36.569530059   182.4257   6  10   0.0159   0.0153   0.0311  -0.0070  -0.0135  -0.0081   0.00    0.0
2019/03/12 02:48:30.000   55.114880374   36.569529960   182.4118   6  10   0.0158   0.0155   0.0316  -0.0076  -0.0131  -0.0086   0.00    0.0
2019/03/12 02:49:00.000   55.114880215   36.569530117   182.4414   6   9   0.0175   0.0159   0.0324  -0.0096  -0.0115  -0.0109   0.00    0.0
2019/03/12 02:49:30.000   55.114880202   36.569530177   182.4446   6  10   0.0175   0.0155   0.0319  -0.0096  -0.0126  -0.0106   0.00    0.0
2019/03/12 02:50:00.000   55.114880208   36.569530099   182.4527   6  10   0.0158   0.0152   0.0316  -0.0084  -0.0133  -0.0075   0.00    0.0
2019/03/12 02:50:30.000   55.114880316   36.569530045   182.4425   6  10   0.0166   0.0153   0.0319  -0.0074  -0.0135  -0.0088   0.00    0.0
2019/03/12 02:51:00.000   55.114880168   36.569530031   182.4522   6  10   0.0167   0.0148   0.0316  -0.0086  -0.0139  -0.0081   0.00    0.0
2019/03/12 02:51:30.000   55.114880168   36.569530071   182.4451   6  10   0.0168   0.0147   0.0321  -0.0071  -0.0133  -0.0073   0.00    0.0
2019/03/12 02:52:00.000   55.114880191   36.569529928   182.4403   6  10   0.0161   0.0157   0.0324  -0.0070  -0.0132  -0.0059   0.00    0.0
2019/03/12 02:52:30.000   55.114880127   36.569529982   182.4485   6   9   0.0161   0.0149   0.0324  -0.0078  -0.0133  -0.0037   0.00    0.0
2019/03/12 02:53:00.000   55.114880164   36.569529968   182.4481   6   9   0.0161   0.0149   0.0323  -0.0078  -0.0128  -0.0024   0.00    0.0
2019/03/12 02:53:30.000   55.114880164   36.569529969   182.4406   6   9   0.0167   0.0154   0.0322  -0.0073  -0.0132  -0.0048   0.00    0.0
2019/03/12 02:54:00.000   55.114880147   36.569530068   182.4424   6   9   0.0167   0.0148   0.0323  -0.0085  -0.0133  -0.0043   0.00    0.0
2019/03/12 02:54:30.000   55.114880223   36.569529814   182.4326   6   9   0.0170   0.0158   0.0321  -0.0071  -0.0133  -0.0028   0.00    0.0
2019/03/12 02:55:00.000   55.114880205   36.569529931   182.4437   6   9   0.0167   0.0153   0.0328  -0.0072  -0.0131  -0.0024   0.00    0.0
2019/03/12 02:55:30.000   55.114880138   36.569529955   182.4460   6   9   0.0170   0.0152   0.0324  -0.0079  -0.0127  -0.0031   0.00    0.0
2019/03/12 02:56:00.000   55.114880229   36.569529921   182.4169   6   9   0.0174   0.0150   0.0322  -0.0083  -0.0135  -0.0042   0.00    0.0
2019/03/12 02:56:30.000   55.114880225   36.569529932   182.4365   6   9   0.0169   0.0156   0.0327  -0.0091  -0.0129  -0.0012   0.00    0.0
2019/03/12 02:57:00.000   55.114880194   36.569529918   182.4403   6   9   0.0180   0.0155   0.0329  -0.0088  -0.0131  -0.0030   0.00    0.0
2019/03/12 02:57:30.000   55.114880220   36.569530071   182.4454   6   9   0.0167   0.0158   0.0337  -0.0094  -0.0130   0.0055   0.00    0.0
2019/03/12 02:58:00.000   55.114880354   36.569529927   182.4381   6   8   0.0196   0.0164   0.0347  -0.0101  -0.0137   0.0076   0.00    0.0
2019/03/12 02:58:30.000   55.114880285   36.569530000   182.4588   6   8   0.0216   0.0174   0.0354  -0.0133  -0.0113  -0.0022   0.00    0.0
2019/03/12 02:59:00.000   55.114880305   36.569529980   182.4474   6   8   0.0196   0.0156   0.0347  -0.0102  -0.0137   0.0069   0.00    0.0
2019/03/12 02:59:30.000   55.114880344   36.569529934   182.4395   6   8   0.0184   0.0154   0.0347  -0.0098  -0.0132   0.0094   0.00    0.0
2019/03/12 03:00:00.000   55.114880226   36.569530096   182.4400   6   8   0.0194   0.0152   0.0348  -0.0087  -0.0128   0.0081   0.00    0.0
2019/03/12 03:00:30.000   55.114880213   36.569530113   182.4378   6   8   0.0187   0.0153   0.0352  -0.0090  -0.0137   0.0084   0.00    0.0
2019/03/12 03:01:00.000   55.114880277   36.569530138   182.4351   6   8   0.0190   0.0155   0.0354  -0.0102  -0.0126   0.0064   0.00    0.0
2019/03/12 03:01:30.000   55.114880261   36.569529997   182.4489   6   7   0.0188   0.0159   0.0357  -0.0101  -0.0123   0.0068   0.00    0.0
2019/03/12 03:02:00.000   55.114880211   36.569530145   182.4529   6   7   0.0190   0.0154   0.0356  -0.0095  -0.0123   0.0071   0.00    0.0
2019/03/12 03:02:30.000   55.114880258   36.569530007   182.4550   6   7   0.0189   0.0156   0.0354  -0.0098  -0.0119   0.0072   0.00    0.0
2019/03/12 03:03:00.000   55.114880357   36.569529851   182.4514   6   7   0.0187   0.0158   0.0359  -0.0102  -0.0125   0.0064   0.00    0.0
2019/03/12 03:03:30.000   55.114880238   36.569529980   182.4524   6   7   0.0195   0.0152   0.0352  -0.0092  -0.0119   0.0066   0.00    0.0
2019/03/12 03:04:00.000   55.114880341   36.569529854   182.4125   6   7   0.0188   0.0155   0.0354  -0.0108  -0.0126   0.0068   0.00    0.0
2019/03/12 03:04:30.000   55.114880292   36.569529882   182.4297   6   7   0.0187   0.0154   0.0355  -0.0095  -0.0123   0.0072   0.00    0.0
2019/03/12 03:05:00.000   55.114880231   36.569529829   182.4107   6   7   0.0191   0.0155   0.0354  -0.0098  -0.0125   0.0060   0.00    0.0
2019/03/12 03:05:30.000   55.114880101   36.569530130   182.4287   6   7   0.0187   0.0154   0.0354  -0.0104  -0.0120   0.0072   0.00    0.0
2019/03/12 03:06:00.000   55.114880213   36.569529950   182.4447   6   7   0.0196   0.0157   0.0350  -0.0102  -0.0122   0.0058   0.00    0.0
2019/03/12 03:06:30.000   55.114880168   36.569530047   182.4383   6   8   0.0188   0.0155   0.0353  -0.0099  -0.0115   0.0070   0.00    0.0
2019/03/12 03:07:00.000   55.114880282   36.569529987   182.4385   6   8   0.0191   0.0153   0.0354  -0.0098  -0.0115   0.0069   0.00    0.0
2019/03/12 03:07:30.000   55.114880237   36.569530074   182.4544   6   7   0.0187   0.0157   0.0357  -0.0102  -0.0121   0.0057   0.00    0.0
2019/03/12 03:08:00.000   55.114880350   36.569529916   182.4402   6   7   0.0190   0.0155   0.0352  -0.0102  -0.0121   0.0064   0.00    0.0
2019/03/12 03:08:30.000   55.114880305   36.569529995   182.4554   6   7   0.0190   0.0153   0.0355  -0.0099  -0.0119   0.0059   0.00    0.0
2019/03/12 03:09:00.000   55.114880406   36.569529847   182.4326   6   7   0.0193   0.0156   0.0353  -0.0101  -0.0118   0.0051   0.00    0.0
2019/03/12 03:09:30.000   55.114880324   36.569529931   182.4295   6   7   0.0191   0.0157   0.0353  -0.0096  -0.0114   0.0057   0.00    0.0
2019/03/12 03:10:00.000   55.114880260   36.569530016   182.4635   6   7   0.0190   0.0156   0.0355  -0.0098  -0.0116   0.0053   0.00    0.0
2019/03/12 03:10:30.000   55.114880290   36.569530008   182.4474   6   7   0.0188   0.0157   0.0355  -0.0097  -0.0117   0.0049   0.00    0.0
2019/03/12 03:11:00.000   55.114880355   36.569529935   182.4417   6   7   0.0192   0.0156   0.0356  -0.0099  -0.0117   0.0044   0.00    0.0
2019/03/12 03:11:30.000   55.114880329   36.569529901   182.4265   6   7   0.0197   0.0158   0.0356  -0.0099  -0.0112   0.0028   0.00    0.0
2019/03/12 03:12:00.000   55.114880215   36.569530022   182.4318   6   7   0.0193   0.0158   0.0356  -0.0097  -0.0108   0.0044   0.00    0.0
2019/03/12 03:12:30.000   55.114880031   36.569530243   182.4309   6   7   0.0195   0.0158   0.0355  -0.0105  -0.0106   0.0026   0.00    0.0
2019/03/12 03:13:00.000   55.114880075   36.569530206   182.4393   6   7   0.0197   0.0159   0.0360  -0.0108  -0.0103  -0.0039   0.00    0.0
2019/03/12 03:13:30.000   55.114880173   36.569530156   182.4202   6   7   0.0202   0.0164   0.0362  -0.0118  -0.0090  -0.0055   0.00    0.0
2019/03/12 03:14:00.000   55.114880247   36.569530036   182.4472   6   6   0.0235   0.0196   0.0390  -0.0163   0.0085  -0.0145   0.00    0.0
2019/03/12 03:14:30.000   55.114880313   36.569530048   182.4601   6   6   0.0234   0.0194   0.0390  -0.0160   0.0086  -0.0144   0.00    0.0
2019/03/12 03:15:00.000   55.114880346   36.569530028   182.4558   6   6   0.0233   0.0196   0.0393  -0.0160   0.0092  -0.0144   0.00    0.0
2019/03/12 03:15:30.000   55.114880404   36.569529917   182.4605   6   7   0.0233   0.0195   0.0393  -0.0159   0.0087  -0.0145   0.00    0.0
2019/03/12 03:16:00.000   55.114880395   36.569529852   182.4495   6   7   0.0207   0.0165   0.0368  -0.0118  -0.0069  -0.0079   0.00    0.0
2019/03/12 03:16:30.000   55.114880359   36.569529831   182.4372   6   7   0.0206   0.0168   0.0368  -0.0116  -0.0070  -0.0078   0.00    0.0
2019/03/12 03:17:00.000   55.114880277   36.569530045   182.4430   6   7   0.0206   0.0168   0.0371  -0.0118  -0.0071  -0.0090   0.00    0.0
2019/03/12 03:17:30.000   55.114880279   36.569530001   182.4339   6   7   0.0206   0.0173   0.0373  -0.0128  -0.0060  -0.0095   0.00    0.0
2019/03/12 03:18:00.000   55.114880323   36.569529943   182.4333   6   6   0.0232   0.0193   0.0394  -0.0157   0.0094  -0.0148   0.00    0.0
2019/03/12 03:18:30.000   55.114880300   36.569529882   182.4394   6   6   0.0230   0.0195   0.0394  -0.0154   0.0094  -0.0146   0.00    0.0
2019/03/12 03:19:00.000   55.114880376   36.569529857   182.4283   6   6   0.0228   0.0193   0.0396  -0.0155   0.0096  -0.0146   0.00    0.0
2019/03/12 03:19:30.000   55.114880266   36.569529948   182.4439   6   6   0.0229   0.0193   0.0396  -0.0155   0.0096  -0.0148   0.00    0.0
2019/03/12 03:20:00.000   55.114880349   36.569529871   182.4405   6   6   0.0227   0.0194   0.0395  -0.0154   0.0095  -0.0147   0.00    0.0
2019/03/12 03:20:30.000   55.114880202   36.569529929   182.4234   6   6   0.0227   0.0193   0.0398  -0.0153   0.0100  -0.0147   0.00    0.0
2019/03/12 03:21:00.000   55.114880280   36.569529781   182.4196   6   6   0.0226   0.0192   0.0397  -0.0152   0.0099  -0.0145   0.00    0.0
2019/03/12 03:21:30.000   55.114880319   36.569529765   182.4274   6   6   0.0224   0.0194   0.0401  -0.0148   0.0100  -0.0148   0.00    0.0
2019/03/12 03:22:00.000   55.114880449   36.569529764   182.4309   6   6   0.0223   0.0192   0.0399  -0.0153   0.0099  -0.0147   0.00    0.0
2019/03/12 03:22:30.000   55.114880460   36.569529778   182.4316   6   6   0.0224   0.0193   0.0401  -0.0150   0.0102  -0.0149   0.00    0.0
2019/03/12 03:23:00.000   55.114880518   36.569529745   182.4354   6   6   0.0222   0.0190   0.0400  -0.0149   0.0106  -0.0146   0.00    0.0
2019/03/12 03:23:30.000   55.114880506   36.569529732   182.4288   6   6   0.0221   0.0192   0.0399  -0.0147   0.0103  -0.0146   0.00    0.0
2019/03/12 03:24:00.000   55.114880476   36.569529727   182.4197   6   6   0.0224   0.0191   0.0403  -0.0146   0.0106  -0.0150   0.00    0.0
2019/03/12 03:24:30.000   55.114880315   36.569529835   182.4232   6   6   0.0224   0.0190   0.0400  -0.0148   0.0101  -0.0151   0.00    0.0
2019/03/12 03:25:00.000   55.114880352   36.569529881   182.4429   6   6   0.0221   0.0190   0.0403  -0.0145   0.0106  -0.0150   0.00    0.0
2019/03/12 03:25:30.000   55.114880404   36.569529845   182.4380   6   7   0.0218   0.0189   0.0405  -0.0149   0.0106  -0.0149   0.00    0.0
2019/03/12 03:26:00.000   55.114880427   36.569529975   182.4461   6   7   0.0176   0.0154   0.0371  -0.0080  -0.0081  -0.0047   0.00    0.0
2019/03/12 03:26:30.000   55.114880341   36.569529893   182.4310   6   7   0.0168   0.0153   0.0378  -0.0070  -0.0081  -0.0038   0.00    0.0
2019/03/12 03:27:00.000   55.114880406   36.569529877   182.4306   6   7   0.0167   0.0150   0.0376  -0.0065  -0.0084  -0.0009   0.00    0.0
2019/03/12 03:27:30.000   55.114880443   36.569529879   182.4240   6   7   0.0170   0.0149   0.0375  -0.0060  -0.0086  -0.0014   0.00    0.0
2019/03/12 03:28:00.000   55.114880495   36.569529971   182.4448   6   7   0.0163   0.0150   0.0384  -0.0060  -0.0098  -0.0019   0.00    0.0
2019/03/12 03:28:30.000   55.114880449   36.569529970   182.4482   6   6   0.0167   0.0156   0.0394  -0.0054  -0.0114  -0.0043   0.00    0.0
2019/03/12 03:29:00.000   55.114880476   36.569529911   182.4472   6   6   0.0162   0.0158   0.0396  -0.0046  -0.0112  -0.0030   0.00    0.0
