% program   : RTKPOST ver.2.4.2
% inp file  : D:\WORK\6_GNSS\NYA2\nya20530.19o
% inp file  : D:\WORK\6_GNSS\NAV\brdc0*.19n
% inp file  : D:\WORK\6_GNSS\SP3\Sta20_*.sp3
% inp file  : D:\WORK\6_GNSS\CLK\Sta30s20_530.clk
% obs start : 2019/02/22 00:00:00.0 GPST (week2041 432000.0s)
% obs end   : 2019/02/22 23:59:30.0 GPST (week2041 518370.0s)
% pos mode  : ppp-kinematic
% solution  : combined
% elev mask : 15.0 deg
% dynamics  : off
% tidecorr  : off
% tropo opt : est ztd
% ephemeris : precise
% antenna1  : JAV_RINGANT_G3T NONE  ( 0.0000  0.0000  0.0000)
%
% (lat/lon/height=WGS84/geodetic,Q=1:fix,2:float,3:sbas,4:dgps,5:single,6:ppp,ns=# of satellites)
%  GPST                  latitude(deg) longitude(deg)  height(m)   Q  ns   sdn(m)   sde(m)   sdu(m)  sdne(m)  sdeu(m)  sdun(m) age(s)  ratio
2019/02/22 00:00:00.000   78.930332443   11.858642877    81.3679   6  10   0.0232   0.0226   0.0680  -0.0036  -0.0159   0.0169   0.00    0.0
2019/02/22 00:00:30.000   78.930332476   11.858642660    81.3756   6  10   0.0233   0.0225   0.0681  -0.0067  -0.0172   0.0169   0.00    0.0
2019/02/22 00:01:00.000   78.930332480   11.858642784    81.3688   6  10   0.0229   0.0216   0.0678  -0.0069  -0.0166   0.0175   0.00    0.0
2019/02/22 00:01:30.000   78.930332445   11.858642689    81.3464   6  10   0.0231   0.0219   0.0676  -0.0025  -0.0160   0.0171   0.00    0.0
2019/02/22 00:02:00.000   78.930332463   11.858642608    81.3687   6  10   0.0232   0.0221   0.0677  -0.0050  -0.0163   0.0168   0.00    0.0
2019/02/22 00:02:30.000   78.930332461   11.858642675    81.3682   6  10   0.0232   0.0223   0.0675  -0.0025  -0.0144   0.0163   0.00    0.0
2019/02/22 00:03:00.000   78.930332461   11.858642636    81.3585   6  10   0.0233   0.0224   0.0675  -0.0048  -0.0156   0.0168   0.00    0.0
2019/02/22 00:03:30.000   78.930332453   11.858642656    81.3694   6  10   0.0242   0.0213   0.0673  -0.0066  -0.0145   0.0171   0.00    0.0
2019/02/22 00:04:00.000   78.930332441   11.858643075    81.3582   6  10   0.0231   0.0224   0.0674  -0.0058  -0.0153   0.0162   0.00    0.0
2019/02/22 00:04:30.000   78.930332470   11.858642822    81.3708   6  10   0.0235   0.0213   0.0673  -0.0035  -0.0152   0.0176   0.00    0.0
2019/02/22 00:05:00.000   78.930332453   11.858642849    81.3759   6  10   0.0235   0.0220   0.0672  -0.0018  -0.0142   0.0170   0.00    0.0
2019/02/22 00:05:30.000   78.930332496   11.858642912    81.3701   6  10   0.0236   0.0231   0.0677  -0.0026  -0.0138   0.0176   0.00    0.0
2019/02/22 00:06:00.000   78.930332504   11.858642727    81.3709   6  10   0.0243   0.0208   0.0679  -0.0037  -0.0144   0.0182   0.00    0.0
2019/02/22 00:06:30.000   78.930332478   11.858642867    81.3813   6  10   0.0252   0.0206   0.0689  -0.0082  -0.0142   0.0186   0.00    0.0
2019/02/22 00:07:00.000   78.930332521   11.858642744    81.3749   6  10   0.0251   0.0218   0.0701  -0.0035  -0.0145   0.0217   0.00    0.0
2019/02/22 00:07:30.000   78.930332506   11.858642834    81.3859   6  10   0.0266   0.0229   0.0753  -0.0035  -0.0176   0.0269   0.00    0.0
2019/02/22 00:08:00.000   78.930332454   11.858642802    81.3685   6  10   0.0246   0.0206   0.0666  -0.0062  -0.0127   0.0178   0.00    0.0
2019/02/22 00:08:30.000   78.930332460   11.858642917    81.3717   6  10   0.0246   0.0204   0.0674  -0.0053  -0.0122   0.0192   0.00    0.0
2019/02/22 00:09:00.000   78.930332486   11.858642813    81.3795   6  10   0.0247   0.0219   0.0689  -0.0057  -0.0137   0.0211   0.00    0.0
2019/02/22 00:09:30.000   78.930332426   11.858642842    81.3673   6  10   0.0261   0.0206   0.0738  -0.0092  -0.0154   0.0252   0.00    0.0
2019/02/22 00:10:00.000   78.930332446   11.858642921    81.3726   6  10   0.0243   0.0214   0.0651  -0.0067  -0.0098   0.0154   0.00    0.0
2019/02/22 00:10:30.000   78.930332436   11.858642929    81.3954   6  10   0.0246   0.0235   0.0653  -0.0016  -0.0111   0.0163   0.00    0.0
2019/02/22 00:11:00.000   78.930332530   11.858642485    81.3978   6  10   0.0237   0.0211   0.0657  -0.0043  -0.0123   0.0174   0.00    0.0
2019/02/22 00:11:30.000   78.930332396   11.858642678    81.3597   6  10   0.0248   0.0213   0.0673  -0.0073  -0.0122   0.0191   0.00    0.0
2019/02/22 00:12:00.000   78.930332402   11.858642624    81.3685   6  10   0.0261   0.0213   0.0716  -0.0077  -0.0141   0.0236   0.00    0.0
2019/02/22 00:12:30.000   78.930332491   11.858642591    81.3880   6  10   0.0221   0.0220   0.0617   0.0027  -0.0087   0.0117   0.00    0.0
2019/02/22 00:13:00.000   78.930332451   11.858642711    81.3797   6  10   0.0236   0.0204   0.0615  -0.0033  -0.0087   0.0110   0.00    0.0
2019/02/22 00:13:30.000   78.930332350   11.858642907    81.3477   6  10   0.0238   0.0225   0.0612  -0.0058  -0.0081   0.0116   0.00    0.0
2019/02/22 00:14:00.000   78.930332392   11.858642681    81.3687   6  10   0.0238   0.0213   0.0608   0.0005  -0.0084   0.0117   0.00    0.0
2019/02/22 00:14:30.000   78.930332377   11.858642557    81.3617   6  10   0.0253   0.0201   0.0609  -0.0070  -0.0076   0.0085   0.00    0.0
2019/02/22 00:15:00.000   78.930332376   11.858642346    81.3522   6  10   0.0225   0.0216   0.0604  -0.0014  -0.0076   0.0113   0.00    0.0
2019/02/22 00:15:30.000   78.930332372   11.858642535    81.3697   6  10   0.0233   0.0217   0.0600  -0.0072  -0.0073   0.0115   0.00    0.0
2019/02/22 00:16:00.000   78.930332335   11.858642482    81.3569   6  10   0.0235   0.0233   0.0600   0.0018  -0.0086   0.0106   0.00    0.0
2019/02/22 00:16:30.000   78.930332302   11.858642553    81.3474   6  10   0.0235   0.0209   0.0597  -0.0078  -0.0029   0.0109   0.00    0.0
2019/02/22 00:17:00.000   78.930332331   11.858642401    81.3619   6  10   0.0247   0.0208   0.0597  -0.0064  -0.0065   0.0099   0.00    0.0
2019/02/22 00:17:30.000   78.930332279   11.858642482    81.3461   6  10   0.0242   0.0201   0.0595  -0.0065  -0.0038   0.0102   0.00    0.0
2019/02/22 00:18:00.000   78.930332259   11.858642439    81.3457   6  10   0.0244   0.0216   0.0600  -0.0060  -0.0072   0.0105   0.00    0.0
2019/02/22 00:18:30.000   78.930332322   11.858642398    81.3497   6  10   0.0248   0.0216   0.0603  -0.0042  -0.0095   0.0108   0.00    0.0
2019/02/22 00:19:00.000   78.930332265   11.858642394    81.3370   6  10   0.0250   0.0210   0.0606  -0.0075  -0.0081   0.0130   0.00    0.0
2019/02/22 00:19:30.000   78.930332227   11.858642620    81.3375   6  10   0.0254   0.0215   0.0620  -0.0080  -0.0102   0.0150   0.00    0.0
2019/02/22 00:20:00.000   78.930332172   11.858642600    81.3356   6  10   0.0282   0.0211   0.0650  -0.0103  -0.0117   0.0201   0.00    0.0
2019/02/22 00:20:30.000   78.930332318   11.858642388    81.3612   6  10   0.0244   0.0215   0.0588   0.0035   0.0058   0.0070   0.00    0.0
2019/02/22 00:21:00.000   78.930332265   11.858642660    81.3606   6  10   0.0243   0.0208   0.0582  -0.0064   0.0055   0.0060   0.00    0.0
2019/02/22 00:21:30.000   78.930332377   11.858642380    81.3763   6  10   0.0239   0.0204   0.0586  -0.0032   0.0058   0.0005   0.00    0.0
2019/02/22 00:22:00.000   78.930332302   11.858642441    81.3595   6  10   0.0248   0.0221   0.0596   0.0038  -0.0020  -0.0079   0.00    0.0
2019/02/22 00:22:30.000   78.930332308   11.858642474    81.3504   6  10   0.0246   0.0207   0.0576   0.0026  -0.0028   0.0041   0.00    0.0
2019/02/22 00:23:00.000   78.930332368   11.858642445    81.3727   6  10   0.0240   0.0204   0.0572  -0.0039   0.0076   0.0061   0.00    0.0
2019/02/22 00:23:30.000   78.930332332   11.858642394    81.3645   6  10   0.0240   0.0217   0.0571  -0.0043   0.0079   0.0075   0.00    0.0
2019/02/22 00:24:00.000   78.930332304   11.858642502    81.3529   6  10   0.0233   0.0210   0.0571  -0.0016   0.0061   0.0074   0.00    0.0
2019/02/22 00:24:30.000   78.930332310   11.858642542    81.3601   6  10   0.0242   0.0203   0.0574   0.0024   0.0089   0.0067   0.00    0.0
2019/02/22 00:25:00.000   78.930332352   11.858642338    81.3764   6  10   0.0239   0.0201   0.0574   0.0019   0.0085   0.0069   0.00    0.0
2019/02/22 00:25:30.000   78.930332343   11.858642577    81.3621   6  10   0.0243   0.0208   0.0578  -0.0023   0.0076   0.0076   0.00    0.0
2019/02/22 00:26:00.000   78.930332317   11.858642539    81.3585   6  11   0.0241   0.0203   0.0551  -0.0022   0.0117  -0.0070   0.00    0.0
2019/02/22 00:26:30.000   78.930332366   11.858642538    81.3662   6  11   0.0243   0.0208   0.0558   0.0032   0.0102  -0.0065   0.00    0.0
2019/02/22 00:27:00.000   78.930332408   11.858642564    81.3570   6  11   0.0239   0.0221   0.0566   0.0042   0.0085   0.0063   0.00    0.0
2019/02/22 00:27:30.000   78.930332414   11.858642622    81.3638   6  10   0.0237   0.0220   0.0568   0.0057   0.0102   0.0054   0.00    0.0
2019/02/22 00:28:00.000   78.930332331   11.858642625    81.3564   6  10   0.0245   0.0212   0.0570   0.0065   0.0109   0.0016   0.00    0.0
2019/02/22 00:28:30.000   78.930332362   11.858642562    81.3802   6  10   0.0245   0.0198   0.0571   0.0033   0.0113  -0.0021   0.00    0.0
2019/02/22 00:29:00.000   78.930332352   11.858642635    81.3479   6  10   0.0247   0.0210   0.0578  -0.0030   0.0118  -0.0073   0.00    0.0
2019/02/22 00:29:30.000   78.930332383   11.858642784    81.3531   6   9   0.0248   0.0214   0.0577   0.0013   0.0101  -0.0068   0.00    0.0
2019/02/22 00:30:00.000   78.930332429   11.858642345    81.3809   6   9   0.0252   0.0208   0.0575   0.0026   0.0124  -0.0072   0.00    0.0
2019/02/22 00:30:30.000   78.930332314   11.858642473    81.3425   6   9   0.0251   0.0207   0.0574   0.0045   0.0124  -0.0084   0.00    0.0
2019/02/22 00:31:00.000   78.930332384   11.858642575    81.3507   6   9   0.0251   0.0212   0.0569  -0.0037   0.0126  -0.0056   0.00    0.0
2019/02/22 00:31:30.000   78.930332461   11.858642535    81.3642   6   9   0.0251   0.0214   0.0572   0.0039   0.0122  -0.0061   0.00    0.0
2019/02/22 00:32:00.000   78.930332416   11.858642520    81.3527   6   9   0.0266   0.0208   0.0573  -0.0026   0.0122  -0.0018   0.00    0.0
2019/02/22 00:32:30.000   78.930332447   11.858642550    81.3471   6   9   0.0246   0.0218   0.0571   0.0054   0.0136  -0.0069   0.00    0.0
2019/02/22 00:33:00.000   78.930332463   11.858642512    81.3506   6   9   0.0252   0.0202   0.0571   0.0057   0.0137  -0.0080   0.00    0.0
2019/02/22 00:33:30.000   78.930332456   11.858642455    81.3537   6   9   0.0249   0.0207   0.0570   0.0043   0.0144  -0.0083   0.00    0.0
2019/02/22 00:34:00.000   78.930332510   11.858642385    81.3490   6   9   0.0246   0.0219   0.0569   0.0044   0.0131  -0.0087   0.00    0.0
2019/02/22 00:34:30.000   78.930332484   11.858642406    81.3559   6   9   0.0243   0.0208   0.0568   0.0037   0.0143  -0.0083   0.00    0.0
2019/02/22 00:35:00.000   78.930332423   11.858642459    81.3571   6   9   0.0250   0.0219   0.0571   0.0050   0.0129  -0.0101   0.00    0.0
2019/02/22 00:35:30.000   78.930332382   11.858642549    81.3608   6   9   0.0258   0.0211   0.0576   0.0065   0.0130  -0.0128   0.00    0.0
2019/02/22 00:36:00.000   78.930332433   11.858642565    81.3515   6   9   0.0247   0.0205   0.0560   0.0034   0.0144  -0.0070   0.00    0.0
2019/02/22 00:36:30.000   78.930332528   11.858642594    81.3698   6   9   0.0240   0.0221   0.0563   0.0057   0.0127  -0.0063   0.00    0.0
2019/02/22 00:37:00.000   78.930332522   11.858642406    81.3528   6   9   0.0234   0.0217   0.0560   0.0039   0.0143  -0.0062   0.00    0.0
2019/02/22 00:37:30.000   78.930332459   11.858642489    81.3293   6   9   0.0239   0.0214   0.0559  -0.0023   0.0151  -0.0051   0.00    0.0
2019/02/22 00:38:00.000   78.930332513   11.858642467    81.3498   6   9   0.0236   0.0204   0.0560   0.0054   0.0148  -0.0070   0.00    0.0
2019/02/22 00:38:30.000   78.930332515   11.858642417    81.3624   6   9   0.0237   0.0210   0.0560   0.0050   0.0147  -0.0074   0.00    0.0
2019/02/22 00:39:00.000   78.930332559   11.858642447    81.3484   6   9   0.0241   0.0205   0.0558   0.0037   0.0157  -0.0073   0.00    0.0
2019/02/22 00:39:30.000   78.930332507   11.858642419    81.3314   6   9   0.0238   0.0211   0.0560   0.0059   0.0148  -0.0075   0.00    0.0
2019/02/22 00:40:00.000   78.930332557   11.858642534    81.3537   6   9   0.0237   0.0216   0.0558   0.0047   0.0148  -0.0074   0.00    0.0
2019/02/22 00:40:30.000   78.930332532   11.858642300    81.3387   6   9   0.0234   0.0205   0.0559   0.0055   0.0155  -0.0066   0.00    0.0
2019/02/22 00:41:00.000   78.930332472   11.858642356    81.3485   6   9   0.0235   0.0203   0.0555   0.0035   0.0163  -0.0067   0.00    0.0
2019/02/22 00:41:30.000   78.930332500   11.858642390    81.3364   6   9   0.0232   0.0210   0.0559   0.0043   0.0152  -0.0078   0.00    0.0
2019/02/22 00:42:00.000   78.930332505   11.858642384    81.3396   6   9   0.0238   0.0214   0.0560   0.0041   0.0147  -0.0085   0.00    0.0
2019/02/22 00:42:30.000   78.930332530   11.858642312    81.3334   6   9   0.0239   0.0212   0.0558   0.0035   0.0157  -0.0084   0.00    0.0
2019/02/22 00:43:00.000   78.930332560   11.858642336    81.3436   6   9   0.0238   0.0215   0.0557   0.0053   0.0157  -0.0088   0.00    0.0
2019/02/22 00:43:30.000   78.930332506   11.858642368    81.3336   6   9   0.0238   0.0212   0.0557  -0.0045   0.0158  -0.0073   0.00    0.0
2019/02/22 00:44:00.000   78.930332547   11.858642381    81.3304   6   9   0.0239   0.0213   0.0560   0.0035   0.0152  -0.0089   0.00    0.0
2019/02/22 00:44:30.000   78.930332598   11.858642291    81.3461   6   9   0.0239   0.0224   0.0561   0.0035   0.0152  -0.0093   0.00    0.0
2019/02/22 00:45:00.000   78.930332547   11.858642242    81.3345   6   9   0.0236   0.0220   0.0564   0.0015   0.0170  -0.0081   0.00    0.0
2019/02/22 00:45:30.000   78.930332568   11.858642159    81.3259   6   9   0.0235   0.0210   0.0557  -0.0022   0.0138  -0.0090   0.00    0.0
2019/02/22 00:46:00.000   78.930332549   11.858642265    81.3330   6   9   0.0236   0.0201   0.0548  -0.0046   0.0153  -0.0079   0.00    0.0
2019/02/22 00:46:30.000   78.930332563   11.858642278    81.3420   6   9   0.0241   0.0215   0.0552  -0.0030   0.0135  -0.0098   0.00    0.0
2019/02/22 00:47:00.000   78.930332571   11.858642307    81.3397   6   9   0.0240   0.0214   0.0551  -0.0035   0.0144  -0.0102   0.00    0.0
2019/02/22 00:47:30.000   78.930332512   11.858642253    81.3341   6   9   0.0250   0.0215   0.0550  -0.0090   0.0157  -0.0109   0.00    0.0
2019/02/22 00:48:00.000   78.930332558   11.858642118    81.3261   6   9   0.0242   0.0219   0.0558  -0.0045   0.0149  -0.0115   0.00    0.0
2019/02/22 00:48:30.000   78.930332510   11.858642271    81.3254   6   9   0.0250   0.0221   0.0556  -0.0089   0.0156  -0.0115   0.00    0.0
2019/02/22 00:49:00.000   78.930332596   11.858642040    81.3291   6   9   0.0233   0.0209   0.0557   0.0037   0.0136  -0.0102   0.00    0.0
2019/02/22 00:49:30.000   78.930332572   11.858642043    81.3173   6   9   0.0229   0.0206   0.0558   0.0057   0.0128  -0.0101   0.00    0.0
2019/02/22 00:50:00.000   78.930332580   11.858642132    81.3289   6   9   0.0238   0.0199   0.0555   0.0009   0.0141  -0.0094   0.00    0.0
2019/02/22 00:50:30.000   78.930332618   11.858642061    81.3238   6   9   0.0234   0.0197   0.0556   0.0012   0.0138  -0.0091   0.00    0.0
2019/02/22 00:51:00.000   78.930332626   11.858641943    81.3141   6  10   0.0236   0.0203   0.0533   0.0063   0.0102  -0.0057   0.00    0.0
2019/02/22 00:51:30.000   78.930332638   11.858641978    81.3056   6  10   0.0228   0.0209   0.0531   0.0059   0.0091  -0.0048   0.00    0.0
2019/02/22 00:52:00.000   78.930332605   11.858641934    81.3217   6  10   0.0228   0.0205   0.0527   0.0073   0.0083  -0.0041   0.00    0.0
2019/02/22 00:52:30.000   78.930332595   11.858641829    81.3100   6  10   0.0228   0.0199   0.0526   0.0035   0.0092   0.0038   0.00    0.0
2019/02/22 00:53:00.000   78.930332571   11.858641877    81.3203   6  10   0.0231   0.0182   0.0525   0.0038   0.0120   0.0047   0.00    0.0
2019/02/22 00:53:30.000   78.930332604   11.858641878    81.3176   6  10   0.0234   0.0197   0.0530   0.0044   0.0097   0.0064   0.00    0.0
2019/02/22 00:54:00.000   78.930332596   11.858641995    81.3187   6  10   0.0237   0.0196   0.0533   0.0045   0.0087   0.0085   0.00    0.0
2019/02/22 00:54:30.000   78.930332609   11.858641797    81.3089   6  10   0.0240   0.0201   0.0556   0.0061   0.0082   0.0128   0.00    0.0
2019/02/22 00:55:00.000   78.930332680   11.858642028    81.3333   6  10   0.0223   0.0189   0.0526   0.0063   0.0116  -0.0041   0.00    0.0
2019/02/22 00:55:30.000   78.930332717   11.858641841    81.3371   6  10   0.0224   0.0205   0.0518   0.0079   0.0117  -0.0072   0.00    0.0
2019/02/22 00:56:00.000   78.930332661   11.858641944    81.3329   6  10   0.0223   0.0198   0.0519   0.0072   0.0097  -0.0068   0.00    0.0
2019/02/22 00:56:30.000   78.930332659   11.858642018    81.3346   6  10   0.0223   0.0189   0.0514   0.0039   0.0109  -0.0068   0.00    0.0
2019/02/22 00:57:00.000   78.930332664   11.858641923    81.3379   6  10   0.0222   0.0194   0.0515   0.0056   0.0112  -0.0057   0.00    0.0
2019/02/22 00:57:30.000   78.930332650   11.858641932    81.3285   6  10   0.0226   0.0197   0.0516   0.0059   0.0115  -0.0064   0.00    0.0
2019/02/22 00:58:00.000   78.930332666   11.858641965    81.3300   6  11   0.0220   0.0208   0.0494   0.0079   0.0092  -0.0120   0.00    0.0
2019/02/22 00:58:30.000   78.930332689   11.858642098    81.3444   6  11   0.0227   0.0196   0.0485   0.0021   0.0092  -0.0102   0.00    0.0
2019/02/22 00:59:00.000   78.930332673   11.858642007    81.3353   6  12   0.0221   0.0205   0.0486   0.0054   0.0068  -0.0119   0.00    0.0
2019/02/22 00:59:30.000   78.930332669   11.858642041    81.3389   6  12   0.0219   0.0197   0.0489   0.0015   0.0092  -0.0114   0.00    0.0
2019/02/22 01:00:00.000   78.930332660   11.858641780    81.3367   6  11   0.0223   0.0196   0.0493   0.0059   0.0104  -0.0130   0.00    0.0
2019/02/22 01:00:30.000   78.930332684   11.858641964    81.3342   6  12   0.0222   0.0184   0.0467   0.0031   0.0089  -0.0110   0.00    0.0
2019/02/22 01:01:00.000   78.930332699   11.858642010    81.3374   6  12   0.0213   0.0200   0.0476   0.0070   0.0061  -0.0119   0.00    0.0
2019/02/22 01:01:30.000   78.930332686   11.858641817    81.3265   6  12   0.0207   0.0190   0.0475   0.0053   0.0061  -0.0112   0.00    0.0
2019/02/22 01:02:00.000   78.930332668   11.858641875    81.3367   6  12   0.0215   0.0196   0.0466   0.0042   0.0092  -0.0088   0.00    0.0
2019/02/22 01:02:30.000   78.930332698   11.858641790    81.3363   6  12   0.0216   0.0176   0.0468   0.0075   0.0104  -0.0111   0.00    0.0
2019/02/22 01:03:00.000   78.930332685   11.858642011    81.3205   6  11   0.0213   0.0194   0.0472   0.0063   0.0091  -0.0106   0.00    0.0
2019/02/22 01:03:30.000   78.930332749   11.858641568    81.3431   6  11   0.0215   0.0198   0.0480   0.0092   0.0099  -0.0101   0.00    0.0
2019/02/22 01:04:00.000   78.930332730   11.858641615    81.3320   6  11   0.0214   0.0168   0.0481   0.0072   0.0115  -0.0089   0.00    0.0
2019/02/22 01:04:30.000   78.930332693   11.858641878    81.3334   6  11   0.0211   0.0175   0.0471   0.0084   0.0103  -0.0110   0.00    0.0
2019/02/22 01:05:00.000   78.930332740   11.858641572    81.3463   6  11   0.0216   0.0184   0.0481   0.0074   0.0059  -0.0107   0.00    0.0
2019/02/22 01:05:30.000   78.930332711   11.858641873    81.3404   6  11   0.0224   0.0190   0.0494   0.0067   0.0059  -0.0086   0.00    0.0
2019/02/22 01:06:00.000   78.930332706   11.858641965    81.3268   6  11   0.0208   0.0190   0.0477   0.0068   0.0045  -0.0118   0.00    0.0
2019/02/22 01:06:30.000   78.930332757   11.858641690    81.3412   6  11   0.0210   0.0180   0.0488   0.0071  -0.0024  -0.0117   0.00    0.0
2019/02/22 01:07:00.000   78.930332738   11.858641769    81.3399   6  11   0.0208   0.0175   0.0472   0.0065   0.0036  -0.0109   0.00    0.0
2019/02/22 01:07:30.000   78.930332677   11.858641838    81.3326   6  11   0.0211   0.0175   0.0459   0.0047   0.0058  -0.0115   0.00    0.0
2019/02/22 01:08:00.000   78.930332716   11.858641870    81.3389   6  11   0.0222   0.0182   0.0457   0.0075   0.0056  -0.0126   0.00    0.0
2019/02/22 01:08:30.000   78.930332762   11.858641798    81.3470   6  11   0.0224   0.0181   0.0454   0.0067   0.0053  -0.0124   0.00    0.0
2019/02/22 01:09:00.000   78.930332784   11.858641508    81.3334   6  11   0.0210   0.0167   0.0460   0.0086   0.0079  -0.0125   0.00    0.0
2019/02/22 01:09:30.000   78.930332710   11.858641763    81.3261   6  11   0.0215   0.0168   0.0466   0.0064   0.0039  -0.0122   0.00    0.0
2019/02/22 01:10:00.000   78.930332716   11.858642147    81.3197   6  11   0.0217   0.0189   0.0474   0.0060  -0.0048  -0.0109   0.00    0.0
2019/02/22 01:10:30.000   78.930332764   11.858642047    81.3414   6  11   0.0215   0.0185   0.0454   0.0055   0.0029  -0.0122   0.00    0.0
2019/02/22 01:11:00.000   78.930332724   11.858642161    81.3201   6  11   0.0206   0.0185   0.0456   0.0071  -0.0031  -0.0125   0.00    0.0
2019/02/22 01:11:30.000   78.930332741   11.858642372    81.3238   6  11   0.0210   0.0192   0.0457   0.0055   0.0015  -0.0122   0.00    0.0
2019/02/22 01:12:00.000   78.930332809   11.858641900    81.3424   6  11   0.0205   0.0175   0.0452   0.0076   0.0059  -0.0122   0.00    0.0
2019/02/22 01:12:30.000   78.930332744   11.858642020    81.3191   6  11   0.0208   0.0183   0.0461   0.0078  -0.0039  -0.0134   0.00    0.0
2019/02/22 01:13:00.000   78.930332708   11.858642159    81.3142   6  11   0.0208   0.0189   0.0453   0.0043   0.0021  -0.0118   0.00    0.0
2019/02/22 01:13:30.000   78.930332778   11.858641768    81.3427   6  11   0.0216   0.0167   0.0452   0.0078   0.0062  -0.0124   0.00    0.0
2019/02/22 01:14:00.000   78.930332748   11.858642082    81.3332   6  11   0.0220   0.0186   0.0462   0.0083  -0.0067  -0.0135   0.00    0.0
2019/02/22 01:14:30.000   78.930332708   11.858642184    81.3202   6  11   0.0218   0.0192   0.0459   0.0063  -0.0044  -0.0127   0.00    0.0
2019/02/22 01:15:00.000   78.930332723   11.858642203    81.3210   6  11   0.0208   0.0183   0.0461   0.0061  -0.0064  -0.0118   0.00    0.0
2019/02/22 01:15:30.000   78.930332733   11.858641943    81.3257   6  11   0.0215   0.0171   0.0460   0.0066  -0.0036  -0.0120   0.00    0.0
2019/02/22 01:16:00.000   78.930332756   11.858642023    81.3242   6  11   0.0221   0.0185   0.0453   0.0088   0.0042  -0.0119   0.00    0.0
2019/02/22 01:16:30.000   78.930332736   11.858641784    81.3262   6  11   0.0212   0.0167   0.0449   0.0076   0.0052  -0.0121   0.00    0.0
2019/02/22 01:17:00.000   78.930332762   11.858642117    81.3178   6  11   0.0219   0.0188   0.0459   0.0080  -0.0075  -0.0121   0.00    0.0
2019/02/22 01:17:30.000   78.930332725   11.858642295    81.3214   6  11   0.0208   0.0187   0.0454   0.0053  -0.0045  -0.0112   0.00    0.0
2019/02/22 01:18:00.000   78.930332730   11.858641898    81.3226   6  11   0.0212   0.0184   0.0451   0.0070   0.0028  -0.0106   0.00    0.0
2019/02/22 01:18:30.000   78.930332748   11.858642060    81.3347   6  11   0.0211   0.0184   0.0457   0.0065  -0.0050  -0.0119   0.00    0.0
2019/02/22 01:19:00.000   78.930332686   11.858641883    81.3102   6  11   0.0213   0.0176   0.0455   0.0062  -0.0039  -0.0112   0.00    0.0
2019/02/22 01:19:30.000   78.930332731   11.858641972    81.3071   6  11   0.0220   0.0188   0.0459   0.0073  -0.0057  -0.0102   0.00    0.0
2019/02/22 01:20:00.000   78.930332676   11.858642082    81.3105   6  11   0.0219   0.0182   0.0461   0.0065  -0.0058  -0.0116   0.00    0.0
2019/02/22 01:20:30.000   78.930332741   11.858642066    81.3245   6  11   0.0214   0.0176   0.0463   0.0072  -0.0025  -0.0093   0.00    0.0
2019/02/22 01:21:00.000   78.930332698   11.858641816    81.3050   6  11   0.0223   0.0176   0.0477   0.0061  -0.0058  -0.0076   0.00    0.0
2019/02/22 01:21:30.000   78.930332692   11.858642175    81.3126   6  11   0.0215   0.0191   0.0473   0.0036  -0.0071  -0.0084   0.00    0.0
2019/02/22 01:22:00.000   78.930332714   11.858641896    81.3055   6  11   0.0223   0.0183   0.0481   0.0065  -0.0064  -0.0069   0.00    0.0
2019/02/22 01:22:30.000   78.930332779   11.858641976    81.3165   6  10   0.0216   0.0181   0.0486   0.0079  -0.0030  -0.0074   0.00    0.0
2019/02/22 01:23:00.000   78.930332693   11.858641753    81.2894   6  10   0.0227   0.0181   0.0483   0.0069  -0.0042  -0.0048   0.00    0.0
2019/02/22 01:23:30.000   78.930332682   11.858641813    81.2943   6  10   0.0224   0.0179   0.0486   0.0064  -0.0063  -0.0064   0.00    0.0
2019/02/22 01:24:00.000   78.930332732   11.858641898    81.3054   6  10   0.0225   0.0185   0.0488   0.0068  -0.0059  -0.0065   0.00    0.0
2019/02/22 01:24:30.000   78.930332736   11.858641965    81.3037   6  10   0.0226   0.0185   0.0488   0.0065  -0.0052  -0.0070   0.00    0.0
2019/02/22 01:25:00.000   78.930332681   11.858641517    81.3001   6  10   0.0223   0.0177   0.0483   0.0065  -0.0044  -0.0040   0.00    0.0
2019/02/22 01:25:30.000   78.930332728   11.858641694    81.2997   6  10   0.0216   0.0181   0.0490   0.0075  -0.0057  -0.0057   0.00    0.0
2019/02/22 01:26:00.000   78.930332698   11.858641850    81.2994   6  10   0.0219   0.0182   0.0485   0.0022  -0.0049   0.0019   0.00    0.0
2019/02/22 01:26:30.000   78.930332729   11.858641723    81.3044   6  10   0.0225   0.0177   0.0484   0.0049  -0.0058  -0.0025   0.00    0.0
2019/02/22 01:27:00.000   78.930332759   11.858641532    81.3102   6  10   0.0223   0.0174   0.0488   0.0088  -0.0044  -0.0065   0.00    0.0
2019/02/22 01:27:30.000   78.930332725   11.858641781    81.3013   6  10   0.0221   0.0182   0.0488   0.0050  -0.0068  -0.0035   0.00    0.0
2019/02/22 01:28:00.000   78.930332743   11.858641595    81.3107   6  10   0.0224   0.0176   0.0487   0.0042  -0.0062   0.0033   0.00    0.0
2019/02/22 01:28:30.000   78.930332769   11.858641619    81.3161   6  10   0.0225   0.0179   0.0494   0.0072  -0.0056  -0.0050   0.00    0.0
2019/02/22 01:29:00.000   78.930332758   11.858641712    81.3102   6  10   0.0226   0.0182   0.0494   0.0071  -0.0077  -0.0046   0.00    0.0
2019/02/22 01:29:30.000   78.930332775   11.858641558    81.3046   6  10   0.0228   0.0179   0.0489   0.0062  -0.0072   0.0032   0.00    0.0
2019/02/22 01:30:00.000   78.930332729   11.858641504    81.2969   6  10   0.0229   0.0175   0.0489   0.0063  -0.0062  -0.0029   0.00    0.0
2019/02/22 01:30:30.000   78.930332753   11.858641524    81.3108   6  10   0.0223   0.0172   0.0488   0.0068  -0.0040   0.0047   0.00    0.0
2019/02/22 01:31:00.000   78.930332811   11.858641682    81.3058   6  10   0.0227   0.0186   0.0492   0.0056  -0.0074   0.0039   0.00    0.0
2019/02/22 01:31:30.000   78.930332785   11.858641559    81.3077   6  10   0.0225   0.0180   0.0497   0.0074  -0.0074  -0.0026   0.00    0.0
2019/02/22 01:32:00.000   78.930332794   11.858641437    81.2973   6  10   0.0226   0.0183   0.0499   0.0083  -0.0084   0.0008   0.00    0.0
2019/02/22 01:32:30.000   78.930332744   11.858641553    81.2997   6  10   0.0234   0.0179   0.0501   0.0071  -0.0076   0.0033   0.00    0.0
2019/02/22 01:33:00.000   78.930332763   11.858641399    81.2982   6  10   0.0236   0.0176   0.0504   0.0082  -0.0077   0.0029   0.00    0.0
2019/02/22 01:33:30.000   78.930332778   11.858641614    81.3035   6  10   0.0242   0.0182   0.0503   0.0079  -0.0078   0.0077   0.00    0.0
2019/02/22 01:34:00.000   78.930332815   11.858641451    81.3005   6  10   0.0252   0.0181   0.0511   0.0102  -0.0085   0.0069   0.00    0.0
2019/02/22 01:34:30.000   78.930332751   11.858641280    81.2860   6  10   0.0236   0.0185   0.0514   0.0074  -0.0102   0.0058   0.00    0.0
2019/02/22 01:35:00.000   78.930332734   11.858641447    81.2950   6  10   0.0229   0.0183   0.0509   0.0060  -0.0090   0.0079   0.00    0.0
2019/02/22 01:35:30.000   78.930332785   11.858641209    81.2964   6  10   0.0228   0.0176   0.0510   0.0071  -0.0091   0.0080   0.00    0.0
2019/02/22 01:36:00.000   78.930332735   11.858641254    81.2895   6  10   0.0232   0.0178   0.0516   0.0058  -0.0093   0.0088   0.00    0.0
2019/02/22 01:36:30.000   78.930332718   11.858641258    81.2954   6  10   0.0244   0.0176   0.0514   0.0066  -0.0084   0.0099   0.00    0.0
2019/02/22 01:37:00.000   78.930332739   11.858641336    81.2995   6  10   0.0221   0.0178   0.0521   0.0059  -0.0097   0.0081   0.00    0.0
2019/02/22 01:37:30.000   78.930332687   11.858641388    81.2832   6  10   0.0226   0.0180   0.0526   0.0054  -0.0097   0.0083   0.00    0.0
2019/02/22 01:38:00.000   78.930332717   11.858641369    81.2744   6  10   0.0226   0.0182   0.0527   0.0037  -0.0105   0.0090   0.00    0.0
2019/02/22 01:38:30.000   78.930332701   11.858641379    81.2744   6  10   0.0225   0.0182   0.0533   0.0033  -0.0119   0.0103   0.00    0.0
2019/02/22 01:39:00.000   78.930332763   11.858641201    81.2798   6  10   0.0221   0.0178   0.0550   0.0039  -0.0132   0.0122   0.00    0.0
2019/02/22 01:39:30.000   78.930332798   11.858641246    81.2996   6  10   0.0223   0.0175   0.0557   0.0043  -0.0114   0.0110   0.00    0.0
2019/02/22 01:40:00.000   78.930332740   11.858641133    81.3162   6  10   0.0226   0.0180   0.0599   0.0012  -0.0120   0.0129   0.00    0.0
2019/02/22 01:40:30.000   78.930332820   11.858640936    81.3116   6  10   0.0220   0.0169   0.0533   0.0084  -0.0064   0.0073   0.00    0.0
2019/02/22 01:41:00.000   78.930332748   11.858641309    81.3035   6  10   0.0222   0.0179   0.0524   0.0040  -0.0081   0.0086   0.00    0.0
2019/02/22 01:41:30.000   78.930332752   11.858641064    81.3089   6  10   0.0230   0.0173   0.0522   0.0057  -0.0080   0.0085   0.00    0.0
2019/02/22 01:42:00.000   78.930332754   11.858641001    81.2980   6  10   0.0223   0.0177   0.0521   0.0055  -0.0080   0.0099   0.00    0.0
2019/02/22 01:42:30.000   78.930332876   11.858640867    81.3185   6  10   0.0233   0.0179   0.0522   0.0030  -0.0083   0.0099   0.00    0.0
2019/02/22 01:43:00.000   78.930332829   11.858640843    81.3085   6  11   0.0216   0.0170   0.0496   0.0074  -0.0095  -0.0066   0.00    0.0
2019/02/22 01:43:30.000   78.930332817   11.858641245    81.3038   6  11   0.0215   0.0174   0.0486   0.0061  -0.0115  -0.0061   0.00    0.0
2019/02/22 01:44:00.000   78.930332805   11.858641168    81.3127   6  11   0.0211   0.0177   0.0489   0.0059  -0.0125  -0.0051   0.00    0.0
2019/02/22 01:44:30.000   78.930332822   11.858640652    81.3301   6  11   0.0212   0.0164   0.0480   0.0072  -0.0096  -0.0072   0.00    0.0
2019/02/22 01:45:00.000   78.930332791   11.858640681    81.3189   6  12   0.0208   0.0169   0.0473   0.0051  -0.0115   0.0022   0.00    0.0
2019/02/22 01:45:30.000   78.930332818   11.858640957    81.3226   6  12   0.0216   0.0174   0.0477   0.0064  -0.0128  -0.0051   0.00    0.0
2019/02/22 01:46:00.000   78.930332794   11.858641028    81.3347   6  12   0.0218   0.0174   0.0473   0.0030  -0.0125  -0.0010   0.00    0.0
2019/02/22 01:46:30.000   78.930332804   11.858640840    81.3163   6  12   0.0215   0.0176   0.0470   0.0032  -0.0121   0.0045   0.00    0.0
2019/02/22 01:47:00.000   78.930332850   11.858640743    81.3170   6  12   0.0208   0.0168   0.0472   0.0074  -0.0115  -0.0067   0.00    0.0
2019/02/22 01:47:30.000   78.930332876   11.858640850    81.3204   6  12   0.0211   0.0172   0.0472   0.0074  -0.0118  -0.0054   0.00    0.0
2019/02/22 01:48:00.000   78.930332836   11.858640907    81.3172   6  12   0.0219   0.0178   0.0470   0.0061  -0.0122   0.0045   0.00    0.0
2019/02/22 01:48:30.000   78.930332832   11.858640924    81.3043   6  12   0.0210   0.0174   0.0472   0.0062  -0.0124  -0.0058   0.00    0.0
2019/02/22 01:49:00.000   78.930332830   11.858640935    81.3284   6  12   0.0204   0.0173   0.0467   0.0054  -0.0124   0.0057   0.00    0.0
2019/02/22 01:49:30.000   78.930332832   11.858640769    81.3298   6  12   0.0210   0.0172   0.0473   0.0032  -0.0134   0.0047   0.00    0.0
2019/02/22 01:50:00.000   78.930332835   11.858640761    81.3162   6  12   0.0216   0.0169   0.0470   0.0051  -0.0124   0.0039   0.00    0.0
2019/02/22 01:50:30.000   78.930332819   11.858640643    81.3216   6  12   0.0217   0.0171   0.0469   0.0043  -0.0126   0.0039   0.00    0.0
2019/02/22 01:51:00.000   78.930332871   11.858640889    81.3196   6  12   0.0227   0.0173   0.0472   0.0063  -0.0133  -0.0042   0.00    0.0
2019/02/22 01:51:30.000   78.930332821   11.858640783    81.3119   6  12   0.0213   0.0172   0.0476   0.0053  -0.0136  -0.0054   0.00    0.0
2019/02/22 01:52:00.000   78.930332846   11.858640643    81.3117   6  12   0.0217   0.0174   0.0474   0.0070  -0.0127  -0.0050   0.00    0.0
2019/02/22 01:52:30.000   78.930332771   11.858640396    81.3069   6  12   0.0207   0.0168   0.0472   0.0049  -0.0132   0.0046   0.00    0.0
2019/02/22 01:53:00.000   78.930332773   11.858640633    81.3134   6  12   0.0205   0.0175   0.0474   0.0024  -0.0113  -0.0044   0.00    0.0
2019/02/22 01:53:30.000   78.930332854   11.858640730    81.3215   6  12   0.0203   0.0170   0.0475   0.0052  -0.0133  -0.0060   0.00    0.0
2019/02/22 01:54:00.000   78.930332819   11.858640765    81.3046   6  12   0.0214   0.0178   0.0472   0.0069  -0.0135  -0.0038   0.00    0.0
2019/02/22 01:54:30.000   78.930332871   11.858640759    81.3204   6  12   0.0211   0.0171   0.0467   0.0068  -0.0140  -0.0042   0.00    0.0
2019/02/22 01:55:00.000   78.930332798   11.858640492    81.3117   6  12   0.0208   0.0164   0.0467   0.0051  -0.0147   0.0054   0.00    0.0
2019/02/22 01:55:30.000   78.930332798   11.858640590    81.3142   6  12   0.0202   0.0172   0.0473   0.0050  -0.0134  -0.0053   0.00    0.0
2019/02/22 01:56:00.000   78.930332805   11.858640714    81.3144   6  12   0.0205   0.0172   0.0473   0.0045  -0.0139  -0.0010   0.00    0.0
2019/02/22 01:56:30.000   78.930332864   11.858640814    81.3244   6  12   0.0208   0.0174   0.0473   0.0066  -0.0138  -0.0030   0.00    0.0
2019/02/22 01:57:00.000   78.930332795   11.858640913    81.3095   6  12   0.0214   0.0175   0.0470   0.0052  -0.0142   0.0049   0.00    0.0
2019/02/22 01:57:30.000   78.930332761   11.858640508    81.3007   6  12   0.0194   0.0168   0.0488   0.0043  -0.0135  -0.0055   0.00    0.0
2019/02/22 01:58:00.000   78.930332863   11.858640562    81.3270   6  12   0.0216   0.0174   0.0476   0.0065  -0.0135  -0.0055   0.00    0.0
2019/02/22 01:58:30.000   78.930332853   11.858640452    81.3251   6  12   0.0219   0.0172   0.0463   0.0051  -0.0138  -0.0019   0.00    0.0
2019/02/22 01:59:00.000   78.930332878   11.858640498    81.3154   6  12   0.0213   0.0171   0.0470   0.0079  -0.0132  -0.0047   0.00    0.0
2019/02/22 01:59:30.000   78.930332829   11.858640642    81.3121   6  12   0.0208   0.0175   0.0464   0.0057  -0.0140  -0.0044   0.00    0.0
2019/02/22 02:00:00.000   78.930332866   11.858640488    81.3180   6  12   0.0209   0.0170   0.0469   0.0066  -0.0136  -0.0028   0.00    0.0
2019/02/22 02:00:30.000   78.930332855   11.858640477    81.3168   6  12   0.0213   0.0176   0.0469   0.0053  -0.0137  -0.0064   0.00    0.0
2019/02/22 02:01:00.000   78.930332842   11.858640510    81.3128   6  12   0.0214   0.0175   0.0472   0.0059  -0.0139  -0.0065   0.00    0.0
2019/02/22 02:01:30.000   78.930332894   11.858640506    81.3303   6  12   0.0209   0.0176   0.0466   0.0058  -0.0140   0.0050   0.00    0.0
2019/02/22 02:02:00.000   78.930332902   11.858640595    81.3208   6  12   0.0211   0.0174   0.0469   0.0046  -0.0144   0.0039   0.00    0.0
2019/02/22 02:02:30.000   78.930332838   11.858640486    81.3148   6  12   0.0210   0.0173   0.0472   0.0038  -0.0152   0.0034   0.00    0.0
2019/02/22 02:03:00.000   78.930332854   11.858640697    81.3177   6  12   0.0209   0.0177   0.0480   0.0047  -0.0157   0.0040   0.00    0.0
2019/02/22 02:03:30.000   78.930332811   11.858640624    81.2918   6  12   0.0215   0.0188   0.0499   0.0027  -0.0170   0.0083   0.00    0.0
2019/02/22 02:04:00.000   78.930332831   11.858640440    81.3209   6  11   0.0211   0.0188   0.0529  -0.0051  -0.0193   0.0108   0.00    0.0
2019/02/22 02:04:30.000   78.930332901   11.858640386    81.3107   6  11   0.0214   0.0181   0.0514   0.0048  -0.0181   0.0051   0.00    0.0
2019/02/22 02:05:00.000   78.930332847   11.858640472    81.2936   6  11   0.0215   0.0186   0.0514   0.0016  -0.0180   0.0061   0.00    0.0
2019/02/22 02:05:30.000   78.930332869   11.858640651    81.3187   6  11   0.0216   0.0190   0.0524  -0.0032  -0.0194   0.0076   0.00    0.0
2019/02/22 02:06:00.000   78.930332925   11.858640399    81.3213   6  11   0.0218   0.0184   0.0514   0.0024  -0.0183   0.0049   0.00    0.0
2019/02/22 02:06:30.000   78.930332896   11.858640565    81.3172   6  11   0.0213   0.0186   0.0508   0.0020  -0.0179  -0.0020   0.00    0.0
2019/02/22 02:07:00.000   78.930332855   11.858640252    81.2995   6  11   0.0216   0.0185   0.0504  -0.0024  -0.0174  -0.0037   0.00    0.0
2019/02/22 02:07:30.000   78.930332871   11.858640354    81.2997   6  11   0.0224   0.0186   0.0509   0.0035  -0.0179  -0.0051   0.00    0.0
2019/02/22 02:08:00.000   78.930332923   11.858640631    81.3045   6  11   0.0223   0.0185   0.0512   0.0055  -0.0181  -0.0084   0.00    0.0
2019/02/22 02:08:30.000   78.930332875   11.858640776    81.2975   6  11   0.0226   0.0192   0.0521   0.0043  -0.0191  -0.0077   0.00    0.0
2019/02/22 02:09:00.000   78.930332813   11.858640299    81.3035   6  11   0.0207   0.0188   0.0518  -0.0028  -0.0184   0.0072   0.00    0.0
2019/02/22 02:09:30.000   78.930332876   11.858639884    81.3173   6  11   0.0197   0.0177   0.0509   0.0013  -0.0168   0.0018   0.00    0.0
2019/02/22 02:10:00.000   78.930332865   11.858640097    81.3132   6  11   0.0193   0.0180   0.0504   0.0023  -0.0159  -0.0032   0.00    0.0
2019/02/22 02:10:30.000   78.930332898   11.858640182    81.3093   6  11   0.0198   0.0179   0.0503   0.0049  -0.0156   0.0005   0.00    0.0
2019/02/22 02:11:00.000   78.930332876   11.858639992    81.3126   6  11   0.0204   0.0178   0.0505  -0.0016  -0.0159   0.0008   0.00    0.0
2019/02/22 02:11:30.000   78.930332835   11.858640300    81.2938   6  11   0.0188   0.0187   0.0516   0.0029  -0.0168   0.0085   0.00    0.0
2019/02/22 02:12:00.000   78.930332908   11.858640259    81.3089   6  11   0.0184   0.0183   0.0519   0.0058  -0.0157   0.0050   0.00    0.0
2019/02/22 02:12:30.000   78.930332888   11.858640058    81.3034   6  11   0.0186   0.0180   0.0509   0.0066  -0.0156   0.0057   0.00    0.0
2019/02/22 02:13:00.000   78.930332872   11.858640160    81.2999   6  11   0.0181   0.0183   0.0501   0.0054  -0.0152   0.0056   0.00    0.0
2019/02/22 02:13:30.000   78.930332902   11.858639912    81.2966   6  11   0.0194   0.0171   0.0503   0.0057  -0.0151  -0.0037   0.00    0.0
2019/02/22 02:14:00.000   78.930332875   11.858639912    81.3136   6  11   0.0174   0.0176   0.0502   0.0054  -0.0157   0.0069   0.00    0.0
2019/02/22 02:14:30.000   78.930332871   11.858640141    81.3037   6  11   0.0192   0.0185   0.0523   0.0041  -0.0162   0.0047   0.00    0.0
2019/02/22 02:15:00.000   78.930332898   11.858640093    81.2999   6  10   0.0189   0.0185   0.0551   0.0050  -0.0169   0.0097   0.00    0.0
2019/02/22 02:15:30.000   78.930332924   11.858639944    81.3153   6  10   0.0180   0.0177   0.0525   0.0073  -0.0134   0.0020   0.00    0.0
2019/02/22 02:16:00.000   78.930332892   11.858639959    81.2957   6  10   0.0185   0.0174   0.0517   0.0080  -0.0147   0.0041   0.00    0.0
2019/02/22 02:16:30.000   78.930332853   11.858639902    81.2973   6  10   0.0179   0.0174   0.0514   0.0059  -0.0127   0.0041   0.00    0.0
2019/02/22 02:17:00.000   78.930332924   11.858639901    81.2998   6  10   0.0184   0.0173   0.0513   0.0076  -0.0122  -0.0039   0.00    0.0
2019/02/22 02:17:30.000   78.930332920   11.858640047    81.2894   6  10   0.0182   0.0176   0.0511   0.0080  -0.0130  -0.0052   0.00    0.0
2019/02/22 02:18:00.000   78.930332909   11.858639915    81.3007   6  10   0.0189   0.0176   0.0510   0.0071  -0.0121  -0.0047   0.00    0.0
2019/02/22 02:18:30.000   78.930332893   11.858639757    81.2932   6  10   0.0187   0.0172   0.0509   0.0068  -0.0119  -0.0065   0.00    0.0
2019/02/22 02:19:00.000   78.930332895   11.858640061    81.2850   6  10   0.0185   0.0173   0.0509   0.0075  -0.0117  -0.0052   0.00    0.0
2019/02/22 02:19:30.000   78.930332947   11.858639833    81.3014   6  10   0.0182   0.0171   0.0503   0.0075  -0.0119  -0.0054   0.00    0.0
2019/02/22 02:20:00.000   78.930332928   11.858639975    81.2810   6  10   0.0186   0.0171   0.0508   0.0078  -0.0121  -0.0065   0.00    0.0
2019/02/22 02:20:30.000   78.930332855   11.858639963    81.2877   6  10   0.0175   0.0174   0.0506   0.0073  -0.0114  -0.0052   0.00    0.0
2019/02/22 02:21:00.000   78.930332830   11.858640066    81.2771   6  10   0.0180   0.0173   0.0501   0.0067  -0.0115  -0.0040   0.00    0.0
2019/02/22 02:21:30.000   78.930332933   11.858639985    81.2804   6  10   0.0194   0.0175   0.0501   0.0074  -0.0102  -0.0051   0.00    0.0
2019/02/22 02:22:00.000   78.930332889   11.858640236    81.2834   6  11   0.0180   0.0179   0.0498   0.0083  -0.0092  -0.0029   0.00    0.0
2019/02/22 02:22:30.000   78.930332884   11.858639692    81.2716   6  11   0.0189   0.0178   0.0503   0.0076  -0.0099   0.0007   0.00    0.0
2019/02/22 02:23:00.000   78.930332848   11.858639628    81.2764   6  11   0.0179   0.0169   0.0491   0.0064  -0.0095  -0.0035   0.00    0.0
2019/02/22 02:23:30.000   78.930332859   11.858639647    81.2789   6  11   0.0184   0.0173   0.0487   0.0075  -0.0089  -0.0030   0.00    0.0
2019/02/22 02:24:00.000   78.930332829   11.858640047    81.2793   6  11   0.0179   0.0175   0.0477   0.0066  -0.0088   0.0054   0.00    0.0
2019/02/22 02:24:30.000   78.930332849   11.858639890    81.2784   6  11   0.0182   0.0174   0.0480   0.0061  -0.0102   0.0041   0.00    0.0
2019/02/22 02:25:00.000   78.930332841   11.858640281    81.2654   6  11   0.0177   0.0178   0.0483   0.0066  -0.0106   0.0065   0.00    0.0
2019/02/22 02:25:30.000   78.930332878   11.858639823    81.2829   6  11   0.0187   0.0179   0.0497   0.0050  -0.0118   0.0074   0.00    0.0
2019/02/22 02:26:00.000   78.930332953   11.858639692    81.2834   6  11   0.0186   0.0178   0.0482   0.0070  -0.0082  -0.0009   0.00    0.0
2019/02/22 02:26:30.000   78.930332959   11.858639868    81.2840   6  11   0.0183   0.0177   0.0477   0.0080  -0.0045   0.0005   0.00    0.0
2019/02/22 02:27:00.000   78.930332963   11.858639802    81.2792   6  11   0.0189   0.0183   0.0484   0.0099  -0.0021   0.0041   0.00    0.0
2019/02/22 02:27:30.000   78.930332905   11.858639379    81.2780   6  11   0.0183   0.0173   0.0476   0.0075  -0.0018  -0.0051   0.00    0.0
2019/02/22 02:28:00.000   78.930332889   11.858639506    81.2622   6  11   0.0186   0.0174   0.0469   0.0075  -0.0072  -0.0045   0.00    0.0
2019/02/22 02:28:30.000   78.930332888   11.858639723    81.2802   6  11   0.0180   0.0175   0.0464   0.0067  -0.0074  -0.0056   0.00    0.0
2019/02/22 02:29:00.000   78.930332891   11.858639325    81.2819   6  11   0.0181   0.0166   0.0465   0.0060  -0.0065  -0.0045   0.00    0.0
2019/02/22 02:29:30.000   78.930332921   11.858639527    81.2670   6  11   0.0189   0.0165   0.0463   0.0080  -0.0064  -0.0075   0.00    0.0
2019/02/22 02:30:00.000   78.930332871   11.858639622    81.2622   6  11   0.0177   0.0171   0.0457   0.0076  -0.0058  -0.0034   0.00    0.0
2019/02/22 02:30:30.000   78.930332918   11.858639544    81.2788   6  11   0.0188   0.0163   0.0463   0.0074  -0.0068  -0.0071   0.00    0.0
2019/02/22 02:31:00.000   78.930332898   11.858638986    81.2764   6  11   0.0189   0.0163   0.0461   0.0058  -0.0057  -0.0069   0.00    0.0
2019/02/22 02:31:30.000   78.930332923   11.858639191    81.2824   6  11   0.0193   0.0164   0.0463   0.0068  -0.0050  -0.0082   0.00    0.0
2019/02/22 02:32:00.000   78.930332936   11.858639391    81.2763   6  11   0.0189   0.0170   0.0465   0.0079  -0.0030  -0.0097   0.00    0.0
2019/02/22 02:32:30.000   78.930332929   11.858639212    81.2774   6  11   0.0192   0.0166   0.0464   0.0073  -0.0064  -0.0099   0.00    0.0
2019/02/22 02:33:00.000   78.930332854   11.858639444    81.2648   6  11   0.0185   0.0171   0.0469   0.0054  -0.0058  -0.0091   0.00    0.0
2019/02/22 02:33:30.000   78.930332903   11.858639251    81.2814   6  11   0.0190   0.0166   0.0468   0.0078  -0.0054  -0.0092   0.00    0.0
2019/02/22 02:34:00.000   78.930332971   11.858639496    81.2826   6  11   0.0186   0.0167   0.0468   0.0073  -0.0039  -0.0092   0.00    0.0
2019/02/22 02:34:30.000   78.930332962   11.858639411    81.2902   6  11   0.0194   0.0169   0.0468   0.0067  -0.0044  -0.0093   0.00    0.0
2019/02/22 02:35:00.000   78.930332973   11.858639397    81.2903   6  11   0.0189   0.0169   0.0470   0.0073  -0.0031  -0.0110   0.00    0.0
2019/02/22 02:35:30.000   78.930332990   11.858639320    81.2795   6  11   0.0191   0.0169   0.0472   0.0070  -0.0061  -0.0098   0.00    0.0
2019/02/22 02:36:00.000   78.930332994   11.858639447    81.2627   6  11   0.0198   0.0167   0.0495   0.0081  -0.0055  -0.0135   0.00    0.0
2019/02/22 02:36:30.000   78.930333008   11.858639244    81.3045   6  11   0.0188   0.0169   0.0484   0.0072  -0.0049  -0.0110   0.00    0.0
2019/02/22 02:37:00.000   78.930332949   11.858639233    81.3100   6  11   0.0189   0.0170   0.0469   0.0072  -0.0030  -0.0098   0.00    0.0
2019/02/22 02:37:30.000   78.930332931   11.858638880    81.2848   6  11   0.0185   0.0162   0.0465   0.0070   0.0039  -0.0087   0.00    0.0
2019/02/22 02:38:00.000   78.930332943   11.858638732    81.2977   6  11   0.0191   0.0161   0.0463   0.0064   0.0031  -0.0091   0.00    0.0
2019/02/22 02:38:30.000   78.930332942   11.858639134    81.2929   6  11   0.0189   0.0163   0.0460   0.0067  -0.0028  -0.0087   0.00    0.0
2019/02/22 02:39:00.000   78.930332955   11.858639017    81.2884   6  11   0.0180   0.0167   0.0459   0.0081   0.0035  -0.0082   0.00    0.0
2019/02/22 02:39:30.000   78.930332963   11.858639220    81.2626   6  11   0.0194   0.0165   0.0463   0.0074   0.0014  -0.0095   0.00    0.0
2019/02/22 02:40:00.000   78.930332973   11.858639223    81.2928   6  11   0.0188   0.0161   0.0465   0.0068   0.0023  -0.0101   0.00    0.0
2019/02/22 02:40:30.000   78.930333028   11.858639216    81.2732   6  11   0.0186   0.0158   0.0466   0.0083   0.0020  -0.0110   0.00    0.0
2019/02/22 02:41:00.000   78.930332961   11.858639158    81.2636   6  11   0.0192   0.0162   0.0470   0.0067   0.0022  -0.0119   0.00    0.0
2019/02/22 02:41:30.000   78.930332986   11.858639232    81.3018   6  11   0.0182   0.0170   0.0468   0.0068   0.0043  -0.0090   0.00    0.0
2019/02/22 02:42:00.000   78.930332982   11.858639195    81.2841   6  11   0.0193   0.0168   0.0468   0.0072   0.0057  -0.0092   0.00    0.0
2019/02/22 02:42:30.000   78.930333033   11.858639199    81.3039   6  11   0.0186   0.0169   0.0470   0.0061   0.0073  -0.0102   0.00    0.0
2019/02/22 02:43:00.000   78.930333034   11.858639182    81.2768   6  11   0.0192   0.0168   0.0477   0.0067   0.0053  -0.0113   0.00    0.0
2019/02/22 02:43:30.001   78.930333054   11.858639369    81.2847   6  10   0.0189   0.0169   0.0485   0.0075   0.0050  -0.0113   0.00    0.0
2019/02/22 02:44:00.000   78.930333000   11.858638896    81.2816   6  10   0.0195   0.0165   0.0496   0.0074   0.0078  -0.0125   0.00    0.0
2019/02/22 02:44:30.000   78.930333121   11.858639316    81.2878   6  10   0.0206   0.0173   0.0506   0.0070   0.0063  -0.0157   0.00    0.0
2019/02/22 02:45:00.000   78.930332985   11.858639015    81.3005   6  10   0.0190   0.0170   0.0491   0.0067   0.0078  -0.0119   0.00    0.0
2019/02/22 02:45:30.000   78.930333000   11.858638973    81.2933   6  10   0.0195   0.0172   0.0485   0.0070   0.0083  -0.0102   0.00    0.0
2019/02/22 02:46:00.000   78.930333046   11.858639156    81.2993   6  10   0.0190   0.0172   0.0480   0.0071   0.0097  -0.0106   0.00    0.0
2019/02/22 02:46:30.000   78.930332971   11.858638723    81.2752   6  10   0.0189   0.0171   0.0485   0.0070   0.0096  -0.0102   0.00    0.0
2019/02/22 02:47:00.000   78.930332961   11.858638812    81.2854   6  10   0.0197   0.0164   0.0486   0.0059   0.0080  -0.0115   0.00    0.0
2019/02/22 02:47:30.000   78.930332989   11.858638890    81.2970   6  10   0.0194   0.0170   0.0482   0.0073   0.0092  -0.0101   0.00    0.0
2019/02/22 02:48:00.000   78.930333055   11.858638751    81.2942   6  10   0.0198   0.0166   0.0482   0.0063   0.0088  -0.0116   0.00    0.0
2019/02/22 02:48:30.000   78.930333011   11.858638718    81.2867   6  10   0.0192   0.0172   0.0483   0.0066   0.0093  -0.0111   0.00    0.0
2019/02/22 02:49:00.000   78.930332999   11.858638693    81.3020   6  10   0.0195   0.0168   0.0484   0.0069   0.0100  -0.0115   0.00    0.0
2019/02/22 02:49:30.000   78.930333007   11.858638794    81.2993   6  10   0.0192   0.0160   0.0481   0.0057   0.0090  -0.0112   0.00    0.0
2019/02/22 02:50:00.000   78.930333013   11.858638964    81.2882   6  10   0.0192   0.0169   0.0483   0.0073   0.0098  -0.0104   0.00    0.0
2019/02/22 02:50:30.000   78.930333007   11.858638586    81.2860   6  10   0.0189   0.0166   0.0486   0.0056   0.0109  -0.0116   0.00    0.0
2019/02/22 02:51:00.000   78.930333047   11.858638758    81.3045   6  10   0.0196   0.0170   0.0481   0.0061   0.0108  -0.0115   0.00    0.0
2019/02/22 02:51:30.000   78.930333088   11.858638776    81.3077   6  10   0.0194   0.0169   0.0483   0.0062   0.0097  -0.0120   0.00    0.0
2019/02/22 02:52:00.000   78.930333063   11.858639088    81.2877   6  10   0.0197   0.0170   0.0482   0.0051   0.0091  -0.0125   0.00    0.0
2019/02/22 02:52:30.000   78.930333044   11.858638737    81.2823   6  10   0.0197   0.0163   0.0486   0.0057   0.0105  -0.0132   0.00    0.0
2019/02/22 02:53:00.000   78.930333081   11.858638947    81.3080   6  10   0.0195   0.0170   0.0481   0.0061   0.0100  -0.0110   0.00    0.0
2019/02/22 02:53:30.000   78.930333092   11.858638985    81.2825   6  10   0.0197   0.0168   0.0482   0.0053   0.0100  -0.0133   0.00    0.0
2019/02/22 02:54:00.000   78.930333046   11.858639047    81.2722   6  10   0.0197   0.0172   0.0481   0.0069   0.0109  -0.0123   0.00    0.0
2019/02/22 02:54:30.000   78.930333047   11.858638670    81.3038   6  10   0.0198   0.0173   0.0487   0.0075   0.0111  -0.0101   0.00    0.0
2019/02/22 02:55:00.000   78.930333020   11.858638359    81.2877   6  10   0.0193   0.0168   0.0483   0.0064   0.0112  -0.0112   0.00    0.0
2019/02/22 02:55:30.000   78.930333044   11.858639336    81.2890   6  10   0.0195   0.0166   0.0486   0.0058   0.0105  -0.0121   0.00    0.0
2019/02/22 02:56:00.000   78.930333110   11.858638948    81.3230   6  10   0.0200   0.0167   0.0488   0.0060   0.0108  -0.0138   0.00    0.0
2019/02/22 02:56:30.000   78.930333079   11.858638768    81.2887   6  10   0.0201   0.0170   0.0491   0.0055   0.0115  -0.0123   0.00    0.0
2019/02/22 02:57:00.000   78.930333095   11.858638894    81.2747   6  10   0.0204   0.0164   0.0490   0.0059   0.0112  -0.0129   0.00    0.0
2019/02/22 02:57:30.000   78.930333105   11.858638500    81.3033   6  10   0.0207   0.0175   0.0498   0.0065   0.0117  -0.0133   0.00    0.0
2019/02/22 02:58:00.000   78.930333130   11.858638820    81.3101   6  10   0.0197   0.0163   0.0487   0.0062   0.0113  -0.0116   0.00    0.0
2019/02/22 02:58:30.000   78.930333115   11.858639174    81.2738   6  10   0.0210   0.0172   0.0500   0.0067   0.0114  -0.0139   0.00    0.0
2019/02/22 02:59:00.000   78.930333082   11.858638650    81.2695   6  10   0.0205   0.0169   0.0502   0.0061   0.0119  -0.0138   0.00    0.0
2019/02/22 02:59:30.000   78.930333040   11.858638339    81.2646   6  10   0.0208   0.0167   0.0506   0.0057   0.0114  -0.0138   0.00    0.0
2019/02/22 03:00:00.000   78.930333115   11.858638615    81.2961   6  10   0.0205   0.0170   0.0511   0.0058   0.0117  -0.0153   0.00    0.0
2019/02/22 03:00:30.000   78.930333095   11.858638813    81.3247   6  10   0.0200   0.0167   0.0494   0.0046   0.0116  -0.0138   0.00    0.0
2019/02/22 03:01:00.000   78.930333016   11.858638775    81.2657   6  10   0.0198   0.0169   0.0493   0.0045   0.0125  -0.0120   0.00    0.0
2019/02/22 03:01:30.000   78.930333062   11.858638735    81.3044   6  10   0.0200   0.0167   0.0491   0.0045   0.0115  -0.0127   0.00    0.0
2019/02/22 03:02:00.000   78.930333139   11.858639160    81.3045   6  10   0.0201   0.0173   0.0495   0.0050   0.0111  -0.0128   0.00    0.0
2019/02/22 03:02:30.000   78.930333039   11.858638415    81.2837   6  10   0.0200   0.0156   0.0491   0.0040   0.0114  -0.0118   0.00    0.0
2019/02/22 03:03:00.000   78.930333084   11.858638334    81.3183   6  10   0.0199   0.0160   0.0497   0.0032   0.0112  -0.0130   0.00    0.0
2019/02/22 03:03:30.000   78.930333083   11.858638750    81.2989   6  10   0.0199   0.0175   0.0496   0.0049   0.0114  -0.0122   0.00    0.0
2019/02/22 03:04:00.000   78.930333003   11.858638698    81.2616   6  10   0.0204   0.0174   0.0501   0.0056   0.0123  -0.0113   0.00    0.0
2019/02/22 03:04:30.000   78.930333039   11.858638488    81.3090   6  10   0.0201   0.0168   0.0502   0.0049   0.0128  -0.0120   0.00    0.0
2019/02/22 03:05:00.000   78.930333034   11.858638465    81.2977   6  10   0.0198   0.0163   0.0502   0.0033   0.0116  -0.0120   0.00    0.0
2019/02/22 03:05:30.000   78.930333040   11.858638389    81.2815   6  10   0.0194   0.0169   0.0503   0.0029   0.0120  -0.0114   0.00    0.0
2019/02/22 03:06:00.000   78.930333039   11.858638727    81.2789   6  10   0.0199   0.0172   0.0510   0.0049   0.0124  -0.0121   0.00    0.0
2019/02/22 03:06:30.000   78.930333063   11.858638599    81.2853   6  10   0.0202   0.0166   0.0514   0.0035   0.0108  -0.0130   0.00    0.0
2019/02/22 03:07:00.000   78.930333063   11.858638713    81.2901   6  10   0.0200   0.0177   0.0518   0.0038   0.0112  -0.0129   0.00    0.0
2019/02/22 03:07:30.000   78.930333005   11.858638488    81.2721   6  10   0.0205   0.0173   0.0524   0.0046   0.0117  -0.0113   0.00    0.0
2019/02/22 03:08:00.000   78.930333011   11.858638660    81.3116   6  11   0.0195   0.0159   0.0498   0.0032   0.0125  -0.0121   0.00    0.0
2019/02/22 03:08:30.000   78.930333028   11.858638490    81.3004   6  11   0.0199   0.0171   0.0518   0.0032   0.0131  -0.0114   0.00    0.0
2019/02/22 03:09:00.000   78.930332985   11.858638352    81.2886   6   9   0.0213   0.0169   0.0601   0.0048   0.0150   0.0097   0.00    0.0
2019/02/22 03:09:30.000   78.930333120   11.858638441    81.3383   6   9   0.0215   0.0170   0.0595   0.0046   0.0143   0.0079   0.00    0.0
2019/02/22 03:10:00.000   78.930333097   11.858638370    81.3045   6   9   0.0213   0.0166   0.0591   0.0046   0.0144   0.0071   0.00    0.0
2019/02/22 03:10:30.000   78.930333054   11.858638232    81.3205   6   9   0.0212   0.0166   0.0583   0.0030   0.0147   0.0082   0.00    0.0
2019/02/22 03:11:00.000   78.930333083   11.858638403    81.2920   6   9   0.0214   0.0171   0.0580   0.0042   0.0144   0.0063   0.00    0.0
2019/02/22 03:11:30.000   78.930333040   11.858638060    81.3084   6   9   0.0209   0.0170   0.0578   0.0045   0.0153   0.0067   0.00    0.0
2019/02/22 03:12:00.000   78.930333024   11.858638144    81.3105   6   9   0.0209   0.0164   0.0572   0.0039   0.0155   0.0070   0.00    0.0
2019/02/22 03:12:30.000   78.930333034   11.858638368    81.3138   6   9   0.0208   0.0170   0.0570   0.0017   0.0148   0.0058   0.00    0.0
2019/02/22 03:13:00.000   78.930333029   11.858638040    81.3084   6   9   0.0205   0.0168   0.0566   0.0017   0.0154   0.0060   0.00    0.0
2019/02/22 03:13:30.000   78.930333070   11.858638402    81.3011   6  10   0.0215   0.0163   0.0564  -0.0020   0.0151   0.0037   0.00    0.0
2019/02/22 03:14:00.000   78.930333052   11.858638278    81.2990   6  10   0.0210   0.0173   0.0551   0.0043   0.0151   0.0056   0.00    0.0
2019/02/22 03:14:30.000   78.930333042   11.858638370    81.2987   6  10   0.0210   0.0169   0.0556   0.0011   0.0150  -0.0044   0.00    0.0
2019/02/22 03:15:00.000   78.930333075   11.858638226    81.3008   6  10   0.0213   0.0169   0.0561   0.0014   0.0151  -0.0068   0.00    0.0
2019/02/22 03:15:30.000   78.930333075   11.858638030    81.3102   6  10   0.0216   0.0170   0.0558  -0.0019   0.0152  -0.0076   0.00    0.0
2019/02/22 03:16:00.000   78.930333012   11.858638191    81.3038   6  10   0.0205   0.0165   0.0540   0.0038   0.0151   0.0019   0.00    0.0
2019/02/22 03:16:30.000   78.930333037   11.858638081    81.3036   6  10   0.0209   0.0162   0.0541  -0.0021   0.0148  -0.0032   0.00    0.0
2019/02/22 03:17:00.000   78.930333049   11.858638366    81.3105   6  10   0.0209   0.0167   0.0528  -0.0021   0.0149   0.0031   0.00    0.0
2019/02/22 03:17:30.000   78.930333048   11.858638242    81.2987   6  10   0.0204   0.0167   0.0523  -0.0005   0.0144  -0.0042   0.00    0.0
2019/02/22 03:18:00.000   78.930332982   11.858637906    81.3067   6  10   0.0203   0.0168   0.0515  -0.0041   0.0153   0.0035   0.00    0.0
2019/02/22 03:18:30.000   78.930333046   11.858638166    81.2934   6  10   0.0204   0.0167   0.0520  -0.0015   0.0152  -0.0025   0.00    0.0
2019/02/22 03:19:00.000   78.930332982   11.858638158    81.2698   6  10   0.0208   0.0172   0.0519  -0.0016   0.0146  -0.0037   0.00    0.0
2019/02/22 03:19:30.000   78.930333025   11.858638190    81.2913   6  10   0.0208   0.0165   0.0519  -0.0040   0.0145  -0.0056   0.00    0.0
2019/02/22 03:20:00.000   78.930333026   11.858638337    81.2872   6  10   0.0206   0.0163   0.0525  -0.0033   0.0148  -0.0067   0.00    0.0
2019/02/22 03:20:30.000   78.930332997   11.858638157    81.2958   6  10   0.0209   0.0165   0.0521   0.0017   0.0151  -0.0053   0.00    0.0
2019/02/22 03:21:00.000   78.930333021   11.858637733    81.2975   6  10   0.0202   0.0162   0.0514  -0.0043   0.0145  -0.0055   0.00    0.0
2019/02/22 03:21:30.000   78.930333074   11.858638128    81.2986   6  10   0.0208   0.0163   0.0517  -0.0011   0.0144  -0.0067   0.00    0.0
2019/02/22 03:22:00.000   78.930333057   11.858638266    81.2878   6  10   0.0203   0.0163   0.0521  -0.0025   0.0147  -0.0080   0.00    0.0
2019/02/22 03:22:30.000   78.930333130   11.858638410    81.2588   6  10   0.0214   0.0161   0.0539  -0.0041   0.0147  -0.0116   0.00    0.0
2019/02/22 03:23:00.000   78.930332946   11.858637912    81.3289   6  11   0.0207   0.0164   0.0496  -0.0048   0.0141  -0.0035   0.00    0.0
2019/02/22 03:23:30.000   78.930332992   11.858638246    81.3238   6  11   0.0202   0.0159   0.0476  -0.0045   0.0120  -0.0074   0.00    0.0
2019/02/22 03:24:00.000   78.930332938   11.858638278    81.2917   6  11   0.0198   0.0159   0.0474  -0.0041   0.0096  -0.0051   0.00    0.0
2019/02/22 03:24:30.000   78.930332987   11.858638144    81.2977   6  11   0.0201   0.0161   0.0470  -0.0045   0.0119  -0.0084   0.00    0.0
2019/02/22 03:25:00.000   78.930333088   11.858638452    81.3103   6  11   0.0203   0.0158   0.0472  -0.0048   0.0097  -0.0081   0.00    0.0
2019/02/22 03:25:30.000   78.930333031   11.858638373    81.3227   6  11   0.0197   0.0163   0.0478  -0.0045   0.0104  -0.0082   0.00    0.0
2019/02/22 03:26:00.000   78.930332988   11.858638384    81.2912   6  11   0.0199   0.0159   0.0469  -0.0024   0.0101  -0.0072   0.00    0.0
2019/02/22 03:26:30.000   78.930333003   11.858638317    81.3102   6  11   0.0200   0.0159   0.0471  -0.0040   0.0096  -0.0067   0.00    0.0
2019/02/22 03:27:00.000   78.930332931   11.858637714    81.3036   6  11   0.0200   0.0160   0.0463  -0.0046   0.0100  -0.0079   0.00    0.0
2019/02/22 03:27:30.000   78.930332965   11.858638094    81.3085   6  11   0.0199   0.0161   0.0461   0.0026   0.0113  -0.0050   0.00    0.0
2019/02/22 03:28:00.000   78.930332946   11.858638076    81.3072   6  11   0.0195   0.0156   0.0459  -0.0039   0.0106  -0.0066   0.00    0.0
2019/02/22 03:28:30.000   78.930332883   11.858637873    81.3026   6  11   0.0199   0.0155   0.0464  -0.0024   0.0120  -0.0027   0.00    0.0
2019/02/22 03:29:00.000   78.930332943   11.858638299    81.2755   6  11   0.0199   0.0158   0.0462  -0.0044   0.0103  -0.0091   0.00    0.0
