% program   : RTKPOST-EX 2.5.0
% inp file  : D:\WORK\Vladimir\BazaA1014a.17o
% inp file  : D:\WORK\Vladimir\BRDC00IGS_R_20172990000_01D_MN.rnx
% inp file  : D:\WORK\Vladimir\COD0R03FIN_20172990000_01D_05M_ORB.SP3
% inp file  : D:\WORK\Vladimir\COD0R03FIN_20172990000_01D_05S_CLK.CLK
% inp file  : D:\WORK\Vladimir\COD0R03FIN_20172990000_01D_01D_ERP.ERP
% inp file  : D:\WORK\Vladimir\CAS0MGXRAP_20172990000_01D_01D_DCB.BSX
% inp file  : D:\WORK\Vladimir\BazaA1014a.17N
% inp file  : D:\WORK\Vladimir\BazaA1014a.17G
% obs start : 2017/10/25 23:59:42.0 UTC (week1972 345600.0s)
% obs end   : 2017/10/26 02:25:41.0 UTC (week1972 354359.0s)
% pos mode  : PPP Kinematic
% freqs     : L1+L2/E5b
% solution  : Combined-Phase Reset
% elev mask : 7.0 deg
% dynamics  : off
% tidecorr  :
% ionos opt : Iono-Free LC
% tropo opt : Estimate ZTD
% ephemeris : Precise
% navi sys  : GPS GLONASS SBAS
% antenna1  : JNSCR_C146-22-1 NONE  ( 0.0000  0.0000  0.0000)
%
% (lat/lon/height=WGS84/ellipsoidal,Q=1:fix,2:float,3:sbas,4:dgps,5:single,6:ppp,ns=# of satellites)
%  UTC                   latitude(deg) longitude(deg)  height(m)   Q  ns   sdn(m)   sde(m)   sdu(m)  sdne(m)  sdeu(m)  sdun(m) age(s)  ratio
2017/10/25 23:59:42.000   56.181700828   40.865144841   118.4538   6   8   0.0241   0.0193   0.0455   0.0100  -0.0076  -0.0070   0.00    0.0
2017/10/25 23:59:43.000   56.181700784   40.865144890   118.4600   6   8   0.0240   0.0192   0.0455   0.0102  -0.0076  -0.0070   0.00    0.0
2017/10/25 23:59:44.000   56.181700809   40.865144887   118.4596   6   8   0.0241   0.0192   0.0455   0.0102  -0.0075  -0.0069   0.00    0.0
2017/10/25 23:59:45.000   56.181700840   40.865144870   118.4527   6   8   0.0242   0.0192   0.0455   0.0101  -0.0077  -0.0067   0.00    0.0
2017/10/25 23:59:47.000   56.181700785   40.865144806   118.4613   6   8   0.0240   0.0191   0.0455   0.0101  -0.0074  -0.0067   0.00    0.0
2017/10/25 23:59:48.000   56.181700783   40.865144806   118.4594   6   8   0.0240   0.0190   0.0455   0.0100  -0.0074  -0.0068   0.00    0.0
2017/10/25 23:59:49.000   56.181700791   40.865144802   118.4582   6   8   0.0240   0.0192   0.0456   0.0102  -0.0075  -0.0068   0.00    0.0
2017/10/25 23:59:50.000   56.181700844   40.865144759   118.4551   6   8   0.0241   0.0191   0.0455   0.0100  -0.0075  -0.0071   0.00    0.0
2017/10/25 23:59:51.000   56.181700792   40.865144773   118.4545   6   8   0.0240   0.0190   0.0455   0.0099  -0.0074  -0.0070   0.00    0.0
2017/10/25 23:59:52.000   56.181700839   40.865144780   118.4580   6   8   0.0240   0.0192   0.0454   0.0101  -0.0075  -0.0067   0.00    0.0
2017/10/25 23:59:53.000   56.181700799   40.865144752   118.4530   6   8   0.0240   0.0191   0.0454   0.0101  -0.0075  -0.0068   0.00    0.0
2017/10/25 23:59:54.000   56.181700758   40.865144762   118.4626   6   8   0.0240   0.0191   0.0456   0.0100  -0.0075  -0.0067   0.00    0.0
2017/10/25 23:59:55.000   56.181700733   40.865144748   118.4596   6   8   0.0240   0.0192   0.0456   0.0100  -0.0078  -0.0068   0.00    0.0
2017/10/25 23:59:56.000   56.181700768   40.865144783   118.4604   6   8   0.0239   0.0191   0.0455   0.0100  -0.0075  -0.0069   0.00    0.0
2017/10/25 23:59:57.000   56.181700698   40.865144803   118.4627   6   8   0.0241   0.0190   0.0454   0.0098  -0.0075  -0.0070   0.00    0.0
2017/10/25 23:59:58.000   56.181700808   40.865144759   118.4495   6   8   0.0240   0.0191   0.0455   0.0102  -0.0074  -0.0067   0.00    0.0
2017/10/25 23:59:59.000   56.181700767   40.865144773   118.4423   6   8   0.0240   0.0192   0.0455   0.0101  -0.0074  -0.0069   0.00    0.0
2017/10/26 00:00:00.000   56.181700769   40.865144763   118.4375   6   8   0.0240   0.0191   0.0455   0.0101  -0.0077  -0.0068   0.00    0.0
2017/10/26 00:00:01.000   56.181700771   40.865144739   118.4414   6   8   0.0239   0.0192   0.0455   0.0101  -0.0076  -0.0068   0.00    0.0
2017/10/26 00:00:02.000   56.181700761   40.865144720   118.4405   6   8   0.0239   0.0191   0.0455   0.0101  -0.0076  -0.0067   0.00    0.0
2017/10/26 00:00:03.000   56.181700744   40.865144742   118.4438   6   8   0.0240   0.0191   0.0454   0.0099  -0.0072  -0.0068   0.00    0.0
2017/10/26 00:00:04.000   56.181700778   40.865144697   118.4381   6   8   0.0241   0.0190   0.0455   0.0100  -0.0076  -0.0070   0.00    0.0
2017/10/26 00:00:05.000   56.181700745   40.865144718   118.4491   6   8   0.0241   0.0191   0.0455   0.0101  -0.0073  -0.0069   0.00    0.0
2017/10/26 00:00:06.000   56.181700709   40.865144753   118.4574   6   8   0.0239   0.0192   0.0455   0.0103  -0.0077  -0.0066   0.00    0.0
2017/10/26 00:00:07.000   56.181700671   40.865144756   118.4567   6   8   0.0239   0.0192   0.0454   0.0100  -0.0076  -0.0066   0.00    0.0
2017/10/26 00:00:08.000   56.181700704   40.865144710   118.4552   6   8   0.0239   0.0190   0.0455   0.0102  -0.0074  -0.0068   0.00    0.0
2017/10/26 00:00:09.000   56.181700715   40.865144699   118.4561   6   8   0.0241   0.0191   0.0455   0.0100  -0.0074  -0.0067   0.00    0.0
2017/10/26 00:00:10.000   56.181700693   40.865144682   118.4662   6   8   0.0240   0.0192   0.0456   0.0101  -0.0077  -0.0066   0.00    0.0
2017/10/26 00:00:11.000   56.181700707   40.865144744   118.4644   6   8   0.0239   0.0192   0.0455   0.0101  -0.0077  -0.0068   0.00    0.0
2017/10/26 00:00:12.000   56.181700710   40.865144714   118.4548   6   8   0.0241   0.0190   0.0454   0.0101  -0.0072  -0.0067   0.00    0.0
2017/10/26 00:00:13.000   56.181700749   40.865144751   118.4577   6   8   0.0239   0.0189   0.0455   0.0100  -0.0074  -0.0066   0.00    0.0
2017/10/26 00:00:14.000   56.181700744   40.865144761   118.4585   6   8   0.0240   0.0191   0.0455   0.0101  -0.0075  -0.0068   0.00    0.0
2017/10/26 00:00:15.000   56.181700711   40.865144767   118.4537   6   8   0.0240   0.0191   0.0456   0.0099  -0.0073  -0.0068   0.00    0.0
2017/10/26 00:00:16.000   56.181700707   40.865144783   118.4573   6   8   0.0239   0.0191   0.0455   0.0100  -0.0076  -0.0067   0.00    0.0
2017/10/26 00:00:17.000   56.181700697   40.865144750   118.4633   6   8   0.0238   0.0193   0.0455   0.0100  -0.0077  -0.0066   0.00    0.0
2017/10/26 00:00:18.000   56.181700716   40.865144732   118.4577   6   8   0.0239   0.0191   0.0455   0.0099  -0.0075  -0.0067   0.00    0.0
2017/10/26 00:00:19.000   56.181700746   40.865144689   118.4528   6   8   0.0240   0.0191   0.0455   0.0100  -0.0073  -0.0069   0.00    0.0
2017/10/26 00:00:20.000   56.181700724   40.865144699   118.4628   6   8   0.0240   0.0191   0.0456   0.0099  -0.0074  -0.0067   0.00    0.0
2017/10/26 00:00:21.000   56.181700700   40.865144754   118.4702   6   8   0.0240   0.0191   0.0455   0.0098  -0.0074  -0.0070   0.00    0.0
2017/10/26 00:00:22.000   56.181700711   40.865144755   118.4654   6   8   0.0239   0.0189   0.0455   0.0101  -0.0074  -0.0069   0.00    0.0
2017/10/26 00:00:23.000   56.181700692   40.865144714   118.4615   6   8   0.0240   0.0190   0.0454   0.0101  -0.0071  -0.0070   0.00    0.0
2017/10/26 00:00:24.000   56.181700696   40.865144706   118.4617   6   8   0.0240   0.0191   0.0455   0.0101  -0.0074  -0.0067   0.00    0.0
2017/10/26 00:00:25.000   56.181700737   40.865144702   118.4534   6   8   0.0239   0.0191   0.0456   0.0101  -0.0073  -0.0067   0.00    0.0
2017/10/26 00:00:26.000   56.181700785   40.865144695   118.4589   6   8   0.0240   0.0191   0.0455   0.0101  -0.0074  -0.0067   0.00    0.0
2017/10/26 00:00:27.000   56.181700769   40.865144691   118.4590   6   8   0.0239   0.0188   0.0455   0.0100  -0.0071  -0.0070   0.00    0.0
2017/10/26 00:00:28.000   56.181700738   40.865144707   118.4684   6   8   0.0239   0.0190   0.0454   0.0098  -0.0076  -0.0066   0.00    0.0
2017/10/26 00:00:29.000   56.181700695   40.865144697   118.4677   6   8   0.0240   0.0191   0.0455   0.0099  -0.0074  -0.0068   0.00    0.0
2017/10/26 00:00:30.000   56.181700714   40.865144688   118.4742   6   8   0.0239   0.0192   0.0456   0.0101  -0.0076  -0.0066   0.00    0.0
2017/10/26 00:00:31.000   56.181700733   40.865144671   118.4656   6   8   0.0240   0.0188   0.0455   0.0098  -0.0072  -0.0069   0.00    0.0
2017/10/26 00:00:32.000   56.181700749   40.865144633   118.4493   6   8   0.0239   0.0192   0.0455   0.0100  -0.0074  -0.0067   0.00    0.0
2017/10/26 00:00:33.000   56.181700776   40.865144656   118.4461   6   8   0.0239   0.0189   0.0455   0.0099  -0.0072  -0.0067   0.00    0.0
2017/10/26 00:00:34.000   56.181700776   40.865144699   118.4397   6   8   0.0239   0.0190   0.0456   0.0102  -0.0075  -0.0068   0.00    0.0
2017/10/26 00:00:35.000   56.181700769   40.865144724   118.4492   6   8   0.0239   0.0193   0.0457   0.0100  -0.0077  -0.0067   0.00    0.0
2017/10/26 00:00:36.000   56.181700741   40.865144724   118.4540   6   8   0.0239   0.0191   0.0455   0.0099  -0.0075  -0.0069   0.00    0.0
2017/10/26 00:00:37.000   56.181700788   40.865144656   118.4456   6   8   0.0239   0.0190   0.0455   0.0100  -0.0073  -0.0068   0.00    0.0
2017/10/26 00:00:38.000   56.181700755   40.865144666   118.4465   6   8   0.0239   0.0192   0.0456   0.0099  -0.0073  -0.0067   0.00    0.0
2017/10/26 00:00:39.000   56.181700733   40.865144667   118.4527   6   8   0.0239   0.0193   0.0456   0.0100  -0.0076  -0.0066   0.00    0.0
2017/10/26 00:00:40.000   56.181700780   40.865144652   118.4512   6   8   0.0241   0.0191   0.0456   0.0099  -0.0072  -0.0069   0.00    0.0
2017/10/26 00:00:41.000   56.181700794   40.865144580   118.4382   6   8   0.0239   0.0191   0.0456   0.0100  -0.0073  -0.0068   0.00    0.0
2017/10/26 00:00:42.000   56.181700802   40.865144598   118.4335   6   8   0.0239   0.0192   0.0456   0.0101  -0.0073  -0.0066   0.00    0.0
2017/10/26 00:00:43.000   56.181700790   40.865144571   118.4338   6   8   0.0239   0.0192   0.0456   0.0099  -0.0073  -0.0068   0.00    0.0
2017/10/26 00:00:44.000   56.181700772   40.865144616   118.4482   6   8   0.0240   0.0189   0.0456   0.0099  -0.0071  -0.0069   0.00    0.0
2017/10/26 00:00:45.000   56.181700799   40.865144592   118.4433   6   8   0.0240   0.0192   0.0456   0.0099  -0.0074  -0.0067   0.00    0.0
2017/10/26 00:00:46.000   56.181700811   40.865144625   118.4436   6   8   0.0239   0.0192   0.0456   0.0100  -0.0076  -0.0068   0.00    0.0
2017/10/26 00:00:47.000   56.181700799   40.865144613   118.4447   6   8   0.0239   0.0191   0.0456   0.0100  -0.0072  -0.0068   0.00    0.0
2017/10/26 00:00:48.000   56.181700761   40.865144663   118.4559   6   8   0.0239   0.0192   0.0456   0.0100  -0.0073  -0.0068   0.00    0.0
2017/10/26 00:00:49.000   56.181700813   40.865144618   118.4475   6   8   0.0240   0.0192   0.0457   0.0100  -0.0073  -0.0069   0.00    0.0
2017/10/26 00:00:50.000   56.181700819   40.865144633   118.4463   6   8   0.0239   0.0192   0.0457   0.0100  -0.0074  -0.0070   0.00    0.0
2017/10/26 00:00:51.000   56.181700835   40.865144601   118.4434   6   8   0.0238   0.0192   0.0456   0.0099  -0.0074  -0.0068   0.00    0.0
2017/10/26 00:00:52.000   56.181700795   40.865144588   118.4483   6   8   0.0240   0.0189   0.0455   0.0098  -0.0072  -0.0071   0.00    0.0
2017/10/26 00:00:53.000   56.181700790   40.865144634   118.4525   6   8   0.0239   0.0190   0.0456   0.0100  -0.0070  -0.0070   0.00    0.0
2017/10/26 00:00:54.000   56.181700848   40.865144625   118.4534   6   8   0.0239   0.0192   0.0457   0.0099  -0.0073  -0.0069   0.00    0.0
2017/10/26 00:00:55.000   56.181700850   40.865144588   118.4526   6   8   0.0239   0.0191   0.0458   0.0100  -0.0070  -0.0069   0.00    0.0
2017/10/26 00:00:56.000   56.181700879   40.865144591   118.4462   6   8   0.0240   0.0191   0.0456   0.0098  -0.0073  -0.0070   0.00    0.0
2017/10/26 00:00:57.000   56.181700822   40.865144620   118.4515   6   8   0.0239   0.0191   0.0457   0.0099  -0.0068  -0.0072   0.00    0.0
2017/10/26 00:00:58.000   56.181700875   40.865144590   118.4403   6   8   0.0239   0.0192   0.0457   0.0099  -0.0073  -0.0071   0.00    0.0
2017/10/26 00:00:59.000   56.181700824   40.865144630   118.4491   6   8   0.0239   0.0192   0.0458   0.0100  -0.0070  -0.0071   0.00    0.0
2017/10/26 00:01:00.000   56.181700813   40.865144644   118.4505   6   8   0.0240   0.0190   0.0457   0.0097  -0.0071  -0.0072   0.00    0.0
2017/10/26 00:01:01.000   56.181700824   40.865144647   118.4521   6   8   0.0240   0.0190   0.0457   0.0097  -0.0070  -0.0074   0.00    0.0
2017/10/26 00:01:02.000   56.181700817   40.865144672   118.4549   6   8   0.0241   0.0190   0.0456   0.0098  -0.0070  -0.0075   0.00    0.0
2017/10/26 00:01:03.000   56.181700763   40.865144694   118.4613   6   8   0.0240   0.0193   0.0457   0.0098  -0.0075  -0.0074   0.00    0.0
2017/10/26 00:01:04.000   56.181700733   40.865144702   118.4726   6   8   0.0241   0.0192   0.0458   0.0099  -0.0070  -0.0074   0.00    0.0
2017/10/26 00:01:05.000   56.181700755   40.865144726   118.4714   6   8   0.0241   0.0192   0.0459   0.0097  -0.0067  -0.0077   0.00    0.0
2017/10/26 00:01:06.000   56.181700656   40.865144731   118.4723   6   8   0.0240   0.0191   0.0458   0.0097  -0.0070  -0.0077   0.00    0.0
2017/10/26 00:01:07.000   56.181700705   40.865144727   118.4655   6   8   0.0240   0.0192   0.0459   0.0098  -0.0067  -0.0079   0.00    0.0
2017/10/26 00:01:08.000   56.181700718   40.865144754   118.4658   6   8   0.0240   0.0189   0.0459   0.0098  -0.0066  -0.0080   0.00    0.0
2017/10/26 00:01:09.000   56.181700691   40.865144749   118.4726   6   8   0.0241   0.0192   0.0461   0.0096  -0.0067  -0.0083   0.00    0.0
2017/10/26 00:01:10.000   56.181700732   40.865144740   118.4700   6   8   0.0242   0.0192   0.0461   0.0097  -0.0070  -0.0083   0.00    0.0
2017/10/26 00:01:11.000   56.181700712   40.865144733   118.4769   6   8   0.0242   0.0191   0.0461   0.0097  -0.0064  -0.0086   0.00    0.0
2017/10/26 00:01:12.000   56.181700704   40.865144770   118.4726   6   8   0.0241   0.0190   0.0462   0.0096  -0.0062  -0.0088   0.00    0.0
2017/10/26 00:01:13.000   56.181700703   40.865144779   118.4856   6   8   0.0243   0.0193   0.0464   0.0093  -0.0063  -0.0093   0.00    0.0
2017/10/26 00:01:14.000   56.181700689   40.865144836   118.4858   6   8   0.0245   0.0193   0.0467   0.0094  -0.0058  -0.0099   0.00    0.0
2017/10/26 00:01:15.000   56.181700935   40.865144622   118.4338   6   8   0.0246   0.0193   0.0470   0.0091  -0.0053  -0.0106   0.00    0.0
2017/10/26 00:01:16.000   56.181700829   40.865144705   118.4435   6   8   0.0248   0.0193   0.0474   0.0087  -0.0040  -0.0118   0.00    0.0
2017/10/26 00:01:17.000   56.181700803   40.865144707   118.4532   6   8   0.0255   0.0194   0.0483   0.0079   0.0024  -0.0138   0.00    0.0
2017/10/26 00:01:18.000   56.181700778   40.865144698   118.4533   6   8   0.0270   0.0197   0.0512   0.0059   0.0082  -0.0186   0.00    0.0
2017/10/26 00:01:19.000   56.181700574   40.865144824   118.4955   6   8   0.0237   0.0191   0.0454   0.0100  -0.0074  -0.0057   0.00    0.0
2017/10/26 00:01:20.000   56.181700566   40.865144846   118.4995   6   8   0.0238   0.0191   0.0453   0.0099  -0.0076  -0.0057   0.00    0.0
2017/10/26 00:01:21.000   56.181700543   40.865144860   118.5015   6   8   0.0236   0.0192   0.0453   0.0099  -0.0076  -0.0059   0.00    0.0
2017/10/26 00:01:22.000   56.181700545   40.865144848   118.4985   6   8   0.0236   0.0190   0.0453   0.0098  -0.0074  -0.0058   0.00    0.0
2017/10/26 00:01:24.000   56.181700579   40.865144834   118.4927   6   8   0.0238   0.0191   0.0454   0.0098  -0.0074  -0.0057   0.00    0.0
2017/10/26 00:01:25.000   56.181700562   40.865144839   118.4933   6   8   0.0238   0.0190   0.0454   0.0099  -0.0075  -0.0060   0.00    0.0
2017/10/26 00:01:26.000   56.181700562   40.865144885   118.4952   6   8   0.0237   0.0189   0.0453   0.0099  -0.0073  -0.0059   0.00    0.0
2017/10/26 00:01:27.000   56.181700482   40.865144913   118.5125   6   8   0.0237   0.0190   0.0453   0.0100  -0.0072  -0.0061   0.00    0.0
2017/10/26 00:01:28.000   56.181700579   40.865144786   118.4903   6   8   0.0236   0.0191   0.0453   0.0098  -0.0074  -0.0055   0.00    0.0
2017/10/26 00:01:29.000   56.181700564   40.865144802   118.4938   6   8   0.0237   0.0191   0.0453   0.0099  -0.0075  -0.0058   0.00    0.0
2017/10/26 00:01:30.000   56.181700547   40.865144784   118.4941   6   8   0.0237   0.0191   0.0454   0.0099  -0.0073  -0.0057   0.00    0.0
2017/10/26 00:01:31.000   56.181700591   40.865144777   118.4835   6   8   0.0236   0.0193   0.0454   0.0101  -0.0075  -0.0058   0.00    0.0
2017/10/26 00:01:32.000   56.181700634   40.865144822   118.4794   6   8   0.0236   0.0191   0.0452   0.0099  -0.0072  -0.0056   0.00    0.0
2017/10/26 00:01:33.000   56.181700606   40.865144815   118.4768   6   8   0.0236   0.0192   0.0453   0.0099  -0.0073  -0.0056   0.00    0.0
2017/10/26 00:01:34.000   56.181700654   40.865144844   118.4881   6   8   0.0238   0.0191   0.0453   0.0099  -0.0075  -0.0058   0.00    0.0
2017/10/26 00:01:35.000   56.181700658   40.865144857   118.4774   6   8   0.0237   0.0190   0.0454   0.0099  -0.0073  -0.0060   0.00    0.0
2017/10/26 00:01:36.000   56.181700565   40.865144883   118.4813   6   8   0.0235   0.0190   0.0453   0.0101  -0.0071  -0.0055   0.00    0.0
2017/10/26 00:01:37.000   56.181700639   40.865144854   118.4822   6   8   0.0237   0.0189   0.0452   0.0098  -0.0074  -0.0059   0.00    0.0
2017/10/26 00:01:38.000   56.181700681   40.865144858   118.4817   6   8   0.0236   0.0192   0.0453   0.0099  -0.0072  -0.0056   0.00    0.0
2017/10/26 00:01:39.000   56.181700739   40.865144846   118.4744   6   8   0.0238   0.0191   0.0453   0.0098  -0.0073  -0.0059   0.00    0.0
2017/10/26 00:01:40.000   56.181700743   40.865144872   118.4775   6   8   0.0237   0.0190   0.0454   0.0099  -0.0075  -0.0059   0.00    0.0
2017/10/26 00:01:41.000   56.181700729   40.865144853   118.4785   6   8   0.0236   0.0190   0.0453   0.0099  -0.0072  -0.0058   0.00    0.0
2017/10/26 00:01:42.000   56.181700722   40.865144873   118.4852   6   8   0.0236   0.0190   0.0452   0.0099  -0.0073  -0.0058   0.00    0.0
2017/10/26 00:01:43.000   56.181700707   40.865144866   118.4943   6   8   0.0236   0.0189   0.0453   0.0102  -0.0072  -0.0058   0.00    0.0
2017/10/26 00:01:44.000   56.181700692   40.865144911   118.4915   6   8   0.0236   0.0191   0.0454   0.0102  -0.0072  -0.0056   0.00    0.0
2017/10/26 00:01:45.000   56.181700665   40.865144921   118.4928   6   8   0.0236   0.0192   0.0454   0.0099  -0.0075  -0.0057   0.00    0.0
2017/10/26 00:01:46.000   56.181700729   40.865144876   118.4815   6   8   0.0236   0.0191   0.0453   0.0098  -0.0074  -0.0057   0.00    0.0
2017/10/26 00:01:47.000   56.181700655   40.865144892   118.4911   6   8   0.0234   0.0190   0.0452   0.0098  -0.0072  -0.0055   0.00    0.0
2017/10/26 00:01:48.000   56.181700671   40.865144875   118.5021   6   8   0.0236   0.0190   0.0452   0.0098  -0.0073  -0.0057   0.00    0.0
2017/10/26 00:01:49.000   56.181700649   40.865144914   118.4940   6   8   0.0237   0.0189   0.0453   0.0098  -0.0073  -0.0058   0.00    0.0
2017/10/26 00:01:50.000   56.181700644   40.865144883   118.4939   6   8   0.0236   0.0190   0.0454   0.0099  -0.0073  -0.0056   0.00    0.0
2017/10/26 00:01:51.000   56.181700638   40.865144919   118.4914   6   8   0.0235   0.0190   0.0453   0.0098  -0.0072  -0.0056   0.00    0.0
2017/10/26 00:01:52.000   56.181700696   40.865144865   118.4851   6   8   0.0236   0.0190   0.0452   0.0100  -0.0075  -0.0056   0.00    0.0
2017/10/26 00:01:53.000   56.181700697   40.865144857   118.4853   6   8   0.0236   0.0189   0.0452   0.0098  -0.0073  -0.0059   0.00    0.0
2017/10/26 00:01:54.000   56.181700658   40.865144873   118.4796   6   8   0.0235   0.0192   0.0453   0.0101  -0.0074  -0.0057   0.00    0.0
2017/10/26 00:01:55.000   56.181700691   40.865144884   118.4885   6   8   0.0237   0.0190   0.0453   0.0098  -0.0074  -0.0058   0.00    0.0
2017/10/26 00:01:56.000   56.181700678   40.865144866   118.4841   6   8   0.0236   0.0190   0.0453   0.0098  -0.0074  -0.0060   0.00    0.0
2017/10/26 00:01:57.000   56.181700685   40.865144887   118.4812   6   8   0.0235   0.0190   0.0451   0.0098  -0.0076  -0.0059   0.00    0.0
2017/10/26 00:01:58.000   56.181700632   40.865144874   118.4969   6   8   0.0236   0.0189   0.0452   0.0098  -0.0071  -0.0058   0.00    0.0
2017/10/26 00:01:59.000   56.181700698   40.865144844   118.5007   6   8   0.0236   0.0190   0.0453   0.0096  -0.0074  -0.0058   0.00    0.0
2017/10/26 00:02:00.000   56.181700665   40.865144872   118.4976   6   8   0.0236   0.0190   0.0453   0.0098  -0.0076  -0.0056   0.00    0.0
2017/10/26 00:02:01.000   56.181700662   40.865144885   118.4938   6   8   0.0236   0.0190   0.0452   0.0099  -0.0074  -0.0057   0.00    0.0
2017/10/26 00:02:02.000   56.181700710   40.865144864   118.4914   6   8   0.0236   0.0190   0.0452   0.0099  -0.0074  -0.0057   0.00    0.0
2017/10/26 00:02:03.000   56.181700783   40.865144817   118.4703   6   8   0.0236   0.0191   0.0452   0.0099  -0.0073  -0.0056   0.00    0.0
2017/10/26 00:02:04.000   56.181700720   40.865144877   118.4808   6   8   0.0236   0.0191   0.0453   0.0098  -0.0075  -0.0056   0.00    0.0
2017/10/26 00:02:05.000   56.181700726   40.865144868   118.4851   6   8   0.0235   0.0189   0.0453   0.0097  -0.0074  -0.0057   0.00    0.0
2017/10/26 00:02:06.000   56.181700684   40.865144866   118.4863   6   8   0.0235   0.0189   0.0452   0.0098  -0.0072  -0.0057   0.00    0.0
2017/10/26 00:02:07.000   56.181700672   40.865144890   118.4923   6   8   0.0236   0.0190   0.0451   0.0096  -0.0072  -0.0059   0.00    0.0
2017/10/26 00:02:08.000   56.181700712   40.865144891   118.4912   6   8   0.0236   0.0189   0.0452   0.0098  -0.0076  -0.0055   0.00    0.0
2017/10/26 00:02:09.000   56.181700623   40.865144923   118.5034   6   8   0.0236   0.0189   0.0453   0.0100  -0.0074  -0.0057   0.00    0.0
2017/10/26 00:02:10.000   56.181700694   40.865144902   118.4950   6   8   0.0234   0.0190   0.0452   0.0098  -0.0075  -0.0057   0.00    0.0
2017/10/26 00:02:11.000   56.181700656   40.865144965   118.5086   6   8   0.0236   0.0189   0.0451   0.0097  -0.0074  -0.0059   0.00    0.0
2017/10/26 00:02:12.000   56.181700636   40.865144988   118.5184   6   8   0.0235   0.0189   0.0452   0.0099  -0.0073  -0.0058   0.00    0.0
2017/10/26 00:02:13.000   56.181700657   40.865144954   118.5023   6   8   0.0235   0.0190   0.0452   0.0098  -0.0073  -0.0060   0.00    0.0
2017/10/26 00:02:14.000   56.181700680   40.865144951   118.5062   6   8   0.0236   0.0190   0.0452   0.0097  -0.0076  -0.0057   0.00    0.0
2017/10/26 00:02:15.000   56.181700651   40.865144949   118.5055   6   8   0.0236   0.0192   0.0452   0.0097  -0.0076  -0.0058   0.00    0.0
2017/10/26 00:02:16.000   56.181700619   40.865144959   118.5065   6   8   0.0235   0.0189   0.0451   0.0100  -0.0073  -0.0056   0.00    0.0
2017/10/26 00:02:17.000   56.181701061   40.865144689   118.4200   6   8   0.0235   0.0189   0.0451   0.0099  -0.0073  -0.0056   0.00    0.0
2017/10/26 00:02:18.000   56.181701058   40.865144683   118.4232   6   8   0.0235   0.0190   0.0451   0.0098  -0.0072  -0.0059   0.00    0.0
2017/10/26 00:02:19.000   56.181701006   40.865144719   118.4248   6   8   0.0235   0.0189   0.0452   0.0098  -0.0074  -0.0059   0.00    0.0
2017/10/26 00:02:20.000   56.181700930   40.865144732   118.4337   6   8   0.0236   0.0190   0.0452   0.0099  -0.0073  -0.0059   0.00    0.0
2017/10/26 00:02:21.000   56.181700945   40.865144769   118.4368   6   8   0.0235   0.0190   0.0451   0.0099  -0.0075  -0.0058   0.00    0.0
2017/10/26 00:02:22.000   56.181700939   40.865144748   118.4398   6   8   0.0235   0.0188   0.0451   0.0099  -0.0071  -0.0057   0.00    0.0
2017/10/26 00:02:23.000   56.181700935   40.865144760   118.4428   6   8   0.0234   0.0190   0.0451   0.0097  -0.0073  -0.0056   0.00    0.0
2017/10/26 00:02:24.000   56.181700887   40.865144801   118.4418   6   8   0.0235   0.0191   0.0452   0.0099  -0.0075  -0.0056   0.00    0.0
2017/10/26 00:02:25.000   56.181700889   40.865144787   118.4453   6   8   0.0235   0.0190   0.0452   0.0097  -0.0075  -0.0058   0.00    0.0
2017/10/26 00:02:26.000   56.181700961   40.865144711   118.4345   6   8   0.0236   0.0189   0.0451   0.0099  -0.0073  -0.0059   0.00    0.0
2017/10/26 00:02:27.000   56.181700886   40.865144786   118.4492   6   8   0.0235   0.0191   0.0451   0.0098  -0.0073  -0.0058   0.00    0.0
2017/10/26 00:02:28.000   56.181700927   40.865144757   118.4483   6   8   0.0234   0.0189   0.0451   0.0097  -0.0074  -0.0057   0.00    0.0
2017/10/26 00:02:29.000   56.181700881   40.865144763   118.4429   6   8   0.0236   0.0189   0.0452   0.0099  -0.0071  -0.0058   0.00    0.0
2017/10/26 00:02:30.000   56.181700907   40.865144756   118.4492   6   8   0.0235   0.0189   0.0451   0.0097  -0.0074  -0.0058   0.00    0.0
2017/10/26 00:02:31.000   56.181700948   40.865144736   118.4463   6   8   0.0235   0.0189   0.0450   0.0099  -0.0073  -0.0057   0.00    0.0
2017/10/26 00:02:32.000   56.181700913   40.865144721   118.4442   6   8   0.0235   0.0189   0.0450   0.0098  -0.0073  -0.0060   0.00    0.0
2017/10/26 00:02:33.000   56.181700937   40.865144739   118.4489   6   8   0.0234   0.0191   0.0451   0.0097  -0.0075  -0.0058   0.00    0.0
2017/10/26 00:02:34.000   56.181700937   40.865144762   118.4493   6   8   0.0235   0.0188   0.0451   0.0098  -0.0071  -0.0059   0.00    0.0
2017/10/26 00:02:35.000   56.181700939   40.865144737   118.4475   6   8   0.0234   0.0189   0.0451   0.0100  -0.0074  -0.0057   0.00    0.0
2017/10/26 00:02:36.000   56.181700928   40.865144775   118.4549   6   8   0.0234   0.0189   0.0451   0.0098  -0.0073  -0.0058   0.00    0.0
2017/10/26 00:02:37.000   56.181700966   40.865144729   118.4474   6   8   0.0233   0.0190   0.0450   0.0098  -0.0073  -0.0057   0.00    0.0
2017/10/26 00:02:38.000   56.181700964   40.865144740   118.4430   6   8   0.0234   0.0190   0.0451   0.0099  -0.0075  -0.0057   0.00    0.0
2017/10/26 00:02:39.000   56.181700944   40.865144748   118.4542   6   8   0.0234   0.0189   0.0451   0.0095  -0.0076  -0.0058   0.00    0.0
2017/10/26 00:02:40.000   56.181700908   40.865144753   118.4508   6   8   0.0235   0.0189   0.0452   0.0100  -0.0072  -0.0059   0.00    0.0
2017/10/26 00:02:41.000   56.181701021   40.865144696   118.4398   6   8   0.0235   0.0189   0.0450   0.0098  -0.0072  -0.0060   0.00    0.0
2017/10/26 00:02:42.000   56.181701013   40.865144708   118.4353   6   8   0.0234   0.0190   0.0450   0.0097  -0.0076  -0.0060   0.00    0.0
2017/10/26 00:02:43.000   56.181701039   40.865144697   118.4416   6   8   0.0235   0.0190   0.0450   0.0096  -0.0073  -0.0059   0.00    0.0
2017/10/26 00:02:44.000   56.181700997   40.865144689   118.4462   6   8   0.0233   0.0191   0.0451   0.0099  -0.0074  -0.0057   0.00    0.0
2017/10/26 00:02:45.000   56.181701015   40.865144703   118.4477   6   8   0.0234   0.0190   0.0451   0.0099  -0.0072  -0.0057   0.00    0.0
2017/10/26 00:02:46.000   56.181701033   40.865144662   118.4386   6   8   0.0233   0.0190   0.0450   0.0099  -0.0075  -0.0060   0.00    0.0
2017/10/26 00:02:47.000   56.181700991   40.865144690   118.4404   6   8   0.0235   0.0189   0.0449   0.0097  -0.0071  -0.0060   0.00    0.0
2017/10/26 00:02:48.000   56.181701032   40.865144625   118.4360   6   8   0.0233   0.0190   0.0450   0.0097  -0.0075  -0.0058   0.00    0.0
2017/10/26 00:02:49.000   56.181700996   40.865144664   118.4364   6   8   0.0233   0.0189   0.0450   0.0098  -0.0073  -0.0059   0.00    0.0
2017/10/26 00:02:50.000   56.181701005   40.865144674   118.4418   6   8   0.0234   0.0190   0.0451   0.0098  -0.0075  -0.0057   0.00    0.0
2017/10/26 00:02:51.000   56.181701043   40.865144650   118.4337   6   8   0.0234   0.0190   0.0450   0.0098  -0.0071  -0.0060   0.00    0.0
2017/10/26 00:02:52.000   56.181701032   40.865144660   118.4370   6   8   0.0234   0.0189   0.0450   0.0098  -0.0071  -0.0058   0.00    0.0
2017/10/26 00:02:53.000   56.181700996   40.865144682   118.4488   6   8   0.0234   0.0190   0.0449   0.0097  -0.0074  -0.0059   0.00    0.0
2017/10/26 00:02:54.000   56.181700997   40.865144682   118.4410   6   8   0.0235   0.0190   0.0450   0.0097  -0.0074  -0.0060   0.00    0.0
2017/10/26 00:02:55.000   56.181700963   40.865144666   118.4467   6   8   0.0234   0.0189   0.0451   0.0096  -0.0076  -0.0060   0.00    0.0
2017/10/26 00:02:56.000   56.181700929   40.865144664   118.4513   6   8   0.0233   0.0189   0.0450   0.0096  -0.0074  -0.0059   0.00    0.0
2017/10/26 00:02:57.000   56.181700917   40.865144695   118.4581   6   8   0.0234   0.0188   0.0449   0.0096  -0.0074  -0.0060   0.00    0.0
2017/10/26 00:02:58.000   56.181700950   40.865144666   118.4488   6   8   0.0233   0.0190   0.0449   0.0097  -0.0075  -0.0058   0.00    0.0
2017/10/26 00:02:59.000   56.181700898   40.865144654   118.4476   6   8   0.0235   0.0188   0.0449   0.0097  -0.0073  -0.0060   0.00    0.0
2017/10/26 00:03:00.000   56.181700858   40.865144699   118.4625   6   8   0.0234   0.0189   0.0449   0.0097  -0.0075  -0.0059   0.00    0.0
2017/10/26 00:03:01.000   56.181700895   40.865144673   118.4530   6   8   0.0233   0.0190   0.0448   0.0098  -0.0074  -0.0059   0.00    0.0
2017/10/26 00:03:02.000   56.181700906   40.865144711   118.4548   6   8   0.0233   0.0189   0.0449   0.0096  -0.0073  -0.0059   0.00    0.0
2017/10/26 00:03:03.000   56.181700889   40.865144744   118.4559   6   8   0.0234   0.0190   0.0449   0.0098  -0.0076  -0.0060   0.00    0.0
2017/10/26 00:03:04.000   56.181700862   40.865144761   118.4632   6   8   0.0233   0.0189   0.0450   0.0097  -0.0071  -0.0060   0.00    0.0
2017/10/26 00:03:05.000   56.181700891   40.865144720   118.4527   6   8   0.0234   0.0190   0.0450   0.0097  -0.0073  -0.0061   0.00    0.0
2017/10/26 00:03:06.000   56.181700901   40.865144707   118.4518   6   8   0.0233   0.0189   0.0449   0.0098  -0.0074  -0.0059   0.00    0.0
2017/10/26 00:03:07.000   56.181700897   40.865144682   118.4494   6   8   0.0233   0.0189   0.0449   0.0096  -0.0072  -0.0063   0.00    0.0
2017/10/26 00:03:08.000   56.181700877   40.865144693   118.4570   6   8   0.0233   0.0189   0.0448   0.0098  -0.0073  -0.0059   0.00    0.0
2017/10/26 00:03:09.000   56.181700933   40.865144642   118.4505   6   8   0.0234   0.0189   0.0450   0.0096  -0.0074  -0.0059   0.00    0.0
2017/10/26 00:03:10.000   56.181700953   40.865144654   118.4552   6   8   0.0234   0.0189   0.0449   0.0097  -0.0072  -0.0060   0.00    0.0
2017/10/26 00:03:11.000   56.181700897   40.865144704   118.4563   6   8   0.0233   0.0189   0.0449   0.0095  -0.0076  -0.0060   0.00    0.0
2017/10/26 00:03:12.000   56.181700913   40.865144680   118.4474   6   8   0.0233   0.0189   0.0447   0.0097  -0.0074  -0.0060   0.00    0.0
2017/10/26 00:03:13.000   56.181700915   40.865144702   118.4453   6   8   0.0233   0.0190   0.0449   0.0098  -0.0073  -0.0062   0.00    0.0
2017/10/26 00:03:14.000   56.181700921   40.865144695   118.4414   6   8   0.0234   0.0190   0.0449   0.0096  -0.0071  -0.0062   0.00    0.0
2017/10/26 00:03:15.000   56.181700910   40.865144723   118.4515   6   8   0.0233   0.0189   0.0449   0.0096  -0.0076  -0.0060   0.00    0.0
2017/10/26 00:03:16.000   56.181700929   40.865144683   118.4391   6   9   0.0229   0.0187   0.0433   0.0090  -0.0047   0.0041   0.00    0.0
2017/10/26 00:03:17.000   56.181700979   40.865144651   118.4334   6   9   0.0228   0.0186   0.0433   0.0091  -0.0049   0.0040   0.00    0.0
2017/10/26 00:03:18.000   56.181700892   40.865144703   118.4414   6   9   0.0229   0.0186   0.0432   0.0091  -0.0047   0.0037   0.00    0.0
2017/10/26 00:03:19.000   56.181700871   40.865144696   118.4426   6   9   0.0228   0.0189   0.0433   0.0091  -0.0052   0.0038   0.00    0.0
2017/10/26 00:03:20.000   56.181700868   40.865144698   118.4493   6   9   0.0227   0.0187   0.0433   0.0092  -0.0048   0.0041   0.00    0.0
2017/10/26 00:03:21.000   56.181700885   40.865144683   118.4414   6   9   0.0228   0.0189   0.0433   0.0089  -0.0053   0.0041   0.00    0.0
2017/10/26 00:03:22.000   56.181700909   40.865144650   118.4323   6   9   0.0228   0.0187   0.0433   0.0089  -0.0048   0.0036   0.00    0.0
2017/10/26 00:03:23.000   56.181700923   40.865144656   118.4363   6   9   0.0228   0.0187   0.0432   0.0090  -0.0048   0.0041   0.00    0.0
2017/10/26 00:03:24.000   56.181700965   40.865144616   118.4279   6   9   0.0228   0.0188   0.0433   0.0089  -0.0050   0.0039   0.00    0.0
2017/10/26 00:03:25.000   56.181700970   40.865144660   118.4439   6   9   0.0229   0.0189   0.0434   0.0091  -0.0050   0.0039   0.00    0.0
2017/10/26 00:03:26.000   56.181700953   40.865144627   118.4340   6   9   0.0228   0.0187   0.0432   0.0091  -0.0049   0.0036   0.00    0.0
2017/10/26 00:03:27.000   56.181700915   40.865144662   118.4421   6   9   0.0228   0.0188   0.0432   0.0091  -0.0053   0.0038   0.00    0.0
2017/10/26 00:03:28.000   56.181700958   40.865144614   118.4235   6   9   0.0228   0.0185   0.0432   0.0090  -0.0050   0.0036   0.00    0.0
2017/10/26 00:03:29.000   56.181700904   40.865144690   118.4353   6   9   0.0229   0.0188   0.0433   0.0089  -0.0050   0.0041   0.00    0.0
2017/10/26 00:03:30.000   56.181700939   40.865144683   118.4358   6   9   0.0227   0.0188   0.0433   0.0091  -0.0050   0.0039   0.00    0.0
2017/10/26 00:03:31.000   56.181700880   40.865144679   118.4433   6   9   0.0229   0.0188   0.0432   0.0091  -0.0047   0.0036   0.00    0.0
2017/10/26 00:03:32.000   56.181700964   40.865144587   118.4259   6   9   0.0227   0.0186   0.0431   0.0091  -0.0049   0.0039   0.00    0.0
2017/10/26 00:03:33.000   56.181700959   40.865144553   118.4278   6   9   0.0228   0.0186   0.0431   0.0089  -0.0049   0.0035   0.00    0.0
2017/10/26 00:03:34.000   56.181700922   40.865144611   118.4329   6   9   0.0227   0.0187   0.0432   0.0090  -0.0050   0.0040   0.00    0.0
2017/10/26 00:03:35.000   56.181700972   40.865144570   118.4369   6   9   0.0228   0.0187   0.0432   0.0092  -0.0049   0.0035   0.00    0.0
2017/10/26 00:03:36.000   56.181701004   40.865144545   118.4284   6   9   0.0228   0.0189   0.0431   0.0090  -0.0051   0.0038   0.00    0.0
2017/10/26 00:03:37.000   56.181700942   40.865144621   118.4474   6   9   0.0228   0.0186   0.0431   0.0089  -0.0047   0.0032   0.00    0.0
2017/10/26 00:03:38.000   56.181700938   40.865144584   118.4424   6   9   0.0227   0.0188   0.0431   0.0089  -0.0051   0.0036   0.00    0.0
2017/10/26 00:03:39.000   56.181700956   40.865144550   118.4313   6   9   0.0228   0.0188   0.0432   0.0091  -0.0051   0.0033   0.00    0.0
2017/10/26 00:03:40.000   56.181700939   40.865144585   118.4479   6   9   0.0227   0.0187   0.0432   0.0089  -0.0047   0.0037   0.00    0.0
2017/10/26 00:03:41.000   56.181700883   40.865144637   118.4484   6   9   0.0227   0.0188   0.0431   0.0091  -0.0049   0.0040   0.00    0.0
2017/10/26 00:03:42.000   56.181700943   40.865144652   118.4439   6   9   0.0227   0.0187   0.0431   0.0090  -0.0050   0.0035   0.00    0.0
2017/10/26 00:03:43.000   56.181700949   40.865144629   118.4429   6   9   0.0228   0.0187   0.0431   0.0088  -0.0048   0.0031   0.00    0.0
2017/10/26 00:03:44.000   56.181701040   40.865144647   118.4351   6   9   0.0228   0.0187   0.0432   0.0091  -0.0049   0.0035   0.00    0.0
2017/10/26 00:03:45.000   56.181701002   40.865144641   118.4316   6   9   0.0227   0.0189   0.0432   0.0092  -0.0051   0.0039   0.00    0.0
2017/10/26 00:03:46.000   56.181700953   40.865144645   118.4340   6   9   0.0228   0.0189   0.0431   0.0090  -0.0052   0.0032   0.00    0.0
2017/10/26 00:03:47.000   56.181700940   40.865144643   118.4477   6   9   0.0228   0.0187   0.0430   0.0090  -0.0049   0.0033   0.00    0.0
2017/10/26 00:03:48.000   56.181700884   40.865144657   118.4485   6   9   0.0227   0.0187   0.0431   0.0090  -0.0049   0.0032   0.00    0.0
2017/10/26 00:03:49.000   56.181700932   40.865144600   118.4498   6   9   0.0227   0.0188   0.0432   0.0089  -0.0052   0.0033   0.00    0.0
2017/10/26 00:03:50.000   56.181700916   40.865144588   118.4442   6   9   0.0228   0.0187   0.0431   0.0091  -0.0043   0.0030   0.00    0.0
2017/10/26 00:03:51.000   56.181700970   40.865144557   118.4409   6   9   0.0227   0.0186   0.0430   0.0090  -0.0048   0.0031   0.00    0.0
2017/10/26 00:03:52.000   56.181700872   40.865144681   118.4606   6   9   0.0227   0.0187   0.0430   0.0089  -0.0051   0.0032   0.00    0.0
2017/10/26 00:03:53.000   56.181700962   40.865144592   118.4477   6   9   0.0228   0.0186   0.0430   0.0090  -0.0045   0.0028   0.00    0.0
2017/10/26 00:03:54.000   56.181700863   40.865144659   118.4530   6   9   0.0228   0.0186   0.0431   0.0088  -0.0045   0.0028   0.00    0.0
2017/10/26 00:03:55.000   56.181700951   40.865144600   118.4397   6   9   0.0227   0.0189   0.0432   0.0090  -0.0050   0.0036   0.00    0.0
2017/10/26 00:03:56.000   56.181700920   40.865144626   118.4467   6   9   0.0228   0.0186   0.0430   0.0090  -0.0044   0.0025   0.00    0.0
2017/10/26 00:03:57.000   56.181700910   40.865144682   118.4533   6   9   0.0227   0.0187   0.0430   0.0089  -0.0046   0.0028   0.00    0.0
2017/10/26 00:03:58.000   56.181700873   40.865144752   118.4575   6   9   0.0229   0.0186   0.0430   0.0089  -0.0044   0.0024   0.00    0.0
2017/10/26 00:03:59.000   56.181700830   40.865144744   118.4659   6   9   0.0227   0.0187   0.0431   0.0091  -0.0047   0.0027   0.00    0.0
2017/10/26 00:04:00.000   56.181700827   40.865144697   118.4561   6   9   0.0227   0.0188   0.0431   0.0089  -0.0051   0.0030   0.00    0.0
2017/10/26 00:04:01.000   56.181700847   40.865144712   118.4594   6   9   0.0227   0.0188   0.0430   0.0089  -0.0050   0.0030   0.00    0.0
2017/10/26 00:04:02.000   56.181700809   40.865144736   118.4714   6   9   0.0227   0.0188   0.0430   0.0089  -0.0049   0.0026   0.00    0.0
2017/10/26 00:04:03.000   56.181700839   40.865144771   118.4650   6   9   0.0228   0.0186   0.0430   0.0088  -0.0047   0.0023   0.00    0.0
2017/10/26 00:04:04.000   56.181700850   40.865144771   118.4589   6   9   0.0227   0.0188   0.0431   0.0088  -0.0047   0.0027   0.00    0.0
2017/10/26 00:04:05.000   56.181700859   40.865144773   118.4542   6   9   0.0229   0.0186   0.0430   0.0088  -0.0044   0.0018   0.00    0.0
2017/10/26 00:04:06.000   56.181700870   40.865144735   118.4503   6   9   0.0226   0.0187   0.0431   0.0089  -0.0046   0.0023   0.00    0.0
2017/10/26 00:04:07.000   56.181700895   40.865144714   118.4525   6   9   0.0227   0.0187   0.0430   0.0087  -0.0044   0.0017   0.00    0.0
2017/10/26 00:04:08.000   56.181700905   40.865144725   118.4589   6   9   0.0228   0.0187   0.0430   0.0088  -0.0040   0.0014   0.00    0.0
2017/10/26 00:04:09.000   56.181700922   40.865144717   118.4551   6   9   0.0228   0.0187   0.0431   0.0089  -0.0042   0.0012   0.00    0.0
2017/10/26 00:04:10.000   56.181700986   40.865144632   118.4458   6   9   0.0228   0.0188   0.0431   0.0087  -0.0045  -0.0006   0.00    0.0
2017/10/26 00:04:11.000   56.181700936   40.865144719   118.4605   6   9   0.0227   0.0187   0.0430   0.0087  -0.0045   0.0009   0.00    0.0
2017/10/26 00:04:12.000   56.181700961   40.865144664   118.4501   6   9   0.0228   0.0187   0.0431   0.0085  -0.0044  -0.0015   0.00    0.0
2017/10/26 00:04:13.000   56.181700990   40.865144651   118.4452   6   9   0.0227   0.0188   0.0431   0.0089  -0.0042  -0.0012   0.00    0.0
2017/10/26 00:04:14.000   56.181700982   40.865144648   118.4494   6   9   0.0228   0.0189   0.0432   0.0087  -0.0040  -0.0017   0.00    0.0
2017/10/26 00:04:15.000   56.181700941   40.865144710   118.4527   6   9   0.0228   0.0188   0.0432   0.0086  -0.0040  -0.0019   0.00    0.0
2017/10/26 00:04:16.000   56.181700902   40.865144742   118.4600   6   9   0.0228   0.0189   0.0432   0.0086  -0.0037  -0.0028   0.00    0.0
2017/10/26 00:04:17.000   56.181700934   40.865144701   118.4608   6   9   0.0229   0.0187   0.0432   0.0084  -0.0030  -0.0037   0.00    0.0
2017/10/26 00:04:18.000   56.181700918   40.865144728   118.4485   6   9   0.0228   0.0189   0.0433   0.0083  -0.0031  -0.0041   0.00    0.0
2017/10/26 00:04:19.000   56.181700905   40.865144733   118.4539   6   9   0.0230   0.0191   0.0435   0.0085  -0.0030  -0.0046   0.00    0.0
2017/10/26 00:04:20.000   56.181700870   40.865144779   118.4588   6   9   0.0230   0.0190   0.0437   0.0082  -0.0018  -0.0055   0.00    0.0
2017/10/26 00:04:21.000   56.181700931   40.865144714   118.4492   6   9   0.0232   0.0191   0.0439   0.0078   0.0023  -0.0068   0.00    0.0
2017/10/26 00:04:22.000   56.181700925   40.865144744   118.4567   6   9   0.0236   0.0191   0.0445   0.0070   0.0051  -0.0090   0.00    0.0
2017/10/26 00:04:23.000   56.181700891   40.865144711   118.4570   6   9   0.0246   0.0195   0.0463   0.0048   0.0087  -0.0130   0.00    0.0
2017/10/26 00:04:24.000   56.181700886   40.865144717   118.4639   6   9   0.0247   0.0195   0.0463   0.0046   0.0087  -0.0130   0.00    0.0
2017/10/26 00:04:25.000   56.181700866   40.865144710   118.4540   6   9   0.0248   0.0195   0.0463   0.0044   0.0086  -0.0130   0.00    0.0
2017/10/26 00:04:26.000   56.181700865   40.865144711   118.4547   6   9   0.0247   0.0196   0.0462   0.0048   0.0087  -0.0130   0.00    0.0
2017/10/26 00:04:27.000   56.181700872   40.865144727   118.4519   6   9   0.0247   0.0194   0.0462   0.0043   0.0087  -0.0131   0.00    0.0
2017/10/26 00:04:28.000   56.181700846   40.865144731   118.4544   6   9   0.0245   0.0196   0.0462   0.0049   0.0084  -0.0129   0.00    0.0
2017/10/26 00:04:29.000   56.181700868   40.865144726   118.4541   6   9   0.0247   0.0195   0.0463   0.0050   0.0085  -0.0130   0.00    0.0
2017/10/26 00:04:30.000   56.181700864   40.865144744   118.4598   6   8   0.0247   0.0196   0.0463   0.0046   0.0086  -0.0130   0.00    0.0
2017/10/26 00:04:31.000   56.181700867   40.865144716   118.4519   6   8   0.0247   0.0194   0.0462   0.0045   0.0088  -0.0130   0.00    0.0
2017/10/26 00:04:32.000   56.181700905   40.865144740   118.4511   6   8   0.0246   0.0194   0.0461   0.0049   0.0088  -0.0130   0.00    0.0
2017/10/26 00:04:33.000   56.181700894   40.865144746   118.4611   6   8   0.0247   0.0193   0.0461   0.0043   0.0087  -0.0131   0.00    0.0
2017/10/26 00:04:34.000   56.181700879   40.865144731   118.4617   6   8   0.0247   0.0194   0.0462   0.0046   0.0088  -0.0131   0.00    0.0
2017/10/26 00:04:35.000   56.181700876   40.865144736   118.4566   6   8   0.0246   0.0195   0.0462   0.0046   0.0086  -0.0130   0.00    0.0
2017/10/26 00:04:36.000   56.181700854   40.865144755   118.4617   6   8   0.0247   0.0194   0.0461   0.0044   0.0087  -0.0130   0.00    0.0
2017/10/26 00:04:37.000   56.181700869   40.865144779   118.4550   6   8   0.0246   0.0194   0.0461   0.0049   0.0087  -0.0130   0.00    0.0
2017/10/26 00:04:38.000   56.181700848   40.865144761   118.4575   6   8   0.0246   0.0194   0.0461   0.0049   0.0087  -0.0130   0.00    0.0
2017/10/26 00:04:39.000   56.181700878   40.865144701   118.4491   6   8   0.0247   0.0195   0.0461   0.0046   0.0087  -0.0131   0.00    0.0
2017/10/26 00:04:40.000   56.181700863   40.865144749   118.4563   6   8   0.0246   0.0194   0.0462   0.0050   0.0086  -0.0130   0.00    0.0
2017/10/26 00:04:41.000   56.181700874   40.865144731   118.4499   6   8   0.0246   0.0195   0.0461   0.0047   0.0086  -0.0130   0.00    0.0
2017/10/26 00:04:42.000   56.181700897   40.865144750   118.4547   6   8   0.0245   0.0193   0.0460   0.0045   0.0087  -0.0130   0.00    0.0
2017/10/26 00:04:43.000   56.181700864   40.865144716   118.4517   6   8   0.0246   0.0195   0.0460   0.0050   0.0086  -0.0130   0.00    0.0
2017/10/26 00:04:44.000   56.181700848   40.865144733   118.4565   6   8   0.0247   0.0196   0.0461   0.0044   0.0085  -0.0130   0.00    0.0
2017/10/26 00:04:45.000   56.181700841   40.865144735   118.4540   6   8   0.0246   0.0195   0.0460   0.0049   0.0087  -0.0130   0.00    0.0
2017/10/26 00:04:46.000   56.181700851   40.865144758   118.4593   6   8   0.0245   0.0194   0.0459   0.0046   0.0086  -0.0130   0.00    0.0
2017/10/26 00:04:47.000   56.181700842   40.865144760   118.4618   6   8   0.0246   0.0195   0.0459   0.0049   0.0085  -0.0131   0.00    0.0
2017/10/26 00:04:48.000   56.181700865   40.865144771   118.4670   6   8   0.0246   0.0193   0.0460   0.0045   0.0088  -0.0131   0.00    0.0
2017/10/26 00:04:49.000   56.181700849   40.865144811   118.4693   6   8   0.0246   0.0195   0.0459   0.0048   0.0085  -0.0130   0.00    0.0
2017/10/26 00:04:50.000   56.181700856   40.865144791   118.4595   6   8   0.0245   0.0195   0.0460   0.0049   0.0085  -0.0130   0.00    0.0
2017/10/26 00:04:51.000   56.181700855   40.865144782   118.4521   6   8   0.0245   0.0195   0.0459   0.0044   0.0085  -0.0129   0.00    0.0
2017/10/26 00:04:52.000   56.181700846   40.865144783   118.4613   6   8   0.0244   0.0194   0.0459   0.0048   0.0086  -0.0129   0.00    0.0
2017/10/26 00:04:53.000   56.181700865   40.865144751   118.4585   6   8   0.0244   0.0194   0.0459   0.0049   0.0085  -0.0129   0.00    0.0
2017/10/26 00:04:54.000   56.181700852   40.865144743   118.4601   6   8   0.0246   0.0194   0.0459   0.0048   0.0087  -0.0130   0.00    0.0
2017/10/26 00:04:55.000   56.181700871   40.865144717   118.4516   6   8   0.0245   0.0197   0.0459   0.0047   0.0084  -0.0129   0.00    0.0
2017/10/26 00:04:56.000   56.181700840   40.865144744   118.4588   6   8   0.0245   0.0195   0.0458   0.0045   0.0085  -0.0130   0.00    0.0
2017/10/26 00:04:57.000   56.181700824   40.865144768   118.4573   6   8   0.0244   0.0194   0.0458   0.0048   0.0085  -0.0129   0.00    0.0
2017/10/26 00:04:58.000   56.181700876   40.865144743   118.4451   6   8   0.0245   0.0195   0.0458   0.0046   0.0085  -0.0129   0.00    0.0
2017/10/26 00:04:59.000   56.181700881   40.865144743   118.4481   6   8   0.0245   0.0196   0.0459   0.0047   0.0086  -0.0130   0.00    0.0
2017/10/26 00:05:00.000   56.181700864   40.865144758   118.4520   6   8   0.0245   0.0194   0.0458   0.0046   0.0087  -0.0130   0.00    0.0
2017/10/26 00:05:01.000   56.181700873   40.865144801   118.4616   6   8   0.0245   0.0194   0.0458   0.0046   0.0086  -0.0130   0.00    0.0
2017/10/26 00:05:02.000   56.181700858   40.865144803   118.4589   6   8   0.0245   0.0195   0.0457   0.0045   0.0086  -0.0130   0.00    0.0
2017/10/26 00:05:03.000   56.181700838   40.865144776   118.4581   6   8   0.0244   0.0195   0.0457   0.0046   0.0086  -0.0129   0.00    0.0
2017/10/26 00:05:04.000   56.181700837   40.865144768   118.4550   6   8   0.0245   0.0195   0.0458   0.0048   0.0085  -0.0130   0.00    0.0
2017/10/26 00:05:05.000   56.181700817   40.865144813   118.4637   6   8   0.0245   0.0195   0.0458   0.0047   0.0086  -0.0130   0.00    0.0
2017/10/26 00:05:06.000   56.181700854   40.865144846   118.4633   6   8   0.0244   0.0196   0.0457   0.0046   0.0083  -0.0129   0.00    0.0
2017/10/26 00:05:07.000   56.181700861   40.865144790   118.4614   6   8   0.0243   0.0195   0.0457   0.0049   0.0085  -0.0129   0.00    0.0
2017/10/26 00:05:08.000   56.181700889   40.865144796   118.4689   6   8   0.0244   0.0194   0.0456   0.0044   0.0085  -0.0130   0.00    0.0
2017/10/26 00:05:09.000   56.181700830   40.865144797   118.4687   6   8   0.0245   0.0193   0.0457   0.0046   0.0087  -0.0130   0.00    0.0
2017/10/26 00:05:10.000   56.181700827   40.865144790   118.4641   6   8   0.0245   0.0194   0.0457   0.0044   0.0087  -0.0130   0.00    0.0
2017/10/26 00:05:11.000   56.181700865   40.865144781   118.4576   6   8   0.0245   0.0194   0.0456   0.0041   0.0086  -0.0130   0.00    0.0
2017/10/26 00:05:12.000   56.181700847   40.865144790   118.4590   6   8   0.0243   0.0195   0.0456   0.0044   0.0083  -0.0129   0.00    0.0
2017/10/26 00:05:13.000   56.181700845   40.865144799   118.4582   6   8   0.0243   0.0194   0.0456   0.0046   0.0086  -0.0129   0.00    0.0
2017/10/26 00:05:14.000   56.181700851   40.865144803   118.4597   6   8   0.0244   0.0194   0.0456   0.0047   0.0087  -0.0130   0.00    0.0
2017/10/26 00:05:15.000   56.181700853   40.865144812   118.4695   6   8   0.0245   0.0195   0.0456   0.0044   0.0086  -0.0131   0.00    0.0
2017/10/26 00:05:16.000   56.181700819   40.865144838   118.4750   6   8   0.0243   0.0194   0.0455   0.0046   0.0085  -0.0129   0.00    0.0
2017/10/26 00:05:17.000   56.181700794   40.865144828   118.4686   6   8   0.0243   0.0193   0.0455   0.0045   0.0086  -0.0130   0.00    0.0
2017/10/26 00:05:18.000   56.181700816   40.865144803   118.4675   6   8   0.0244   0.0194   0.0454   0.0044   0.0086  -0.0130   0.00    0.0
2017/10/26 00:05:19.000   56.181700888   40.865144781   118.4696   6   8   0.0244   0.0195   0.0455   0.0044   0.0084  -0.0129   0.00    0.0
2017/10/26 00:05:20.000   56.181700888   40.865144760   118.4700   6   8   0.0244   0.0194   0.0455   0.0040   0.0085  -0.0130   0.00    0.0
2017/10/26 00:05:21.000   56.181700863   40.865144800   118.4695   6   8   0.0243   0.0195   0.0455   0.0045   0.0085  -0.0129   0.00    0.0
2017/10/26 00:05:22.000   56.181700861   40.865144791   118.4659   6   8   0.0244   0.0193   0.0454   0.0046   0.0085  -0.0129   0.00    0.0
2017/10/26 00:05:23.000   56.181700841   40.865144806   118.4760   6   8   0.0242   0.0195   0.0454   0.0047   0.0085  -0.0128   0.00    0.0
2017/10/26 00:05:24.000   56.181700874   40.865144793   118.4710   6   8   0.0244   0.0193   0.0455   0.0043   0.0087  -0.0131   0.00    0.0
2017/10/26 00:05:25.000   56.181700882   40.865144823   118.4721   6   8   0.0243   0.0196   0.0455   0.0046   0.0083  -0.0129   0.00    0.0
2017/10/26 00:05:26.000   56.181700873   40.865144783   118.4731   6   8   0.0243   0.0194   0.0454   0.0045   0.0084  -0.0129   0.00    0.0
2017/10/26 00:05:27.000   56.181700886   40.865144779   118.4640   6   8   0.0243   0.0194   0.0453   0.0040   0.0086  -0.0129   0.00    0.0
2017/10/26 00:05:28.000   56.181700888   40.865144791   118.4712   6   8   0.0243   0.0194   0.0453   0.0044   0.0084  -0.0130   0.00    0.0
2017/10/26 00:05:29.000   56.181700875   40.865144784   118.4656   6   8   0.0243   0.0194   0.0454   0.0042   0.0085  -0.0129   0.00    0.0
2017/10/26 00:05:30.000   56.181700889   40.865144744   118.4704   6   8   0.0244   0.0194   0.0454   0.0045   0.0085  -0.0130   0.00    0.0
2017/10/26 00:05:31.000   56.181700905   40.865144747   118.4695   6   8   0.0243   0.0195   0.0453   0.0045   0.0085  -0.0130   0.00    0.0
2017/10/26 00:05:32.000   56.181700890   40.865144768   118.4729   6   8   0.0242   0.0195   0.0453   0.0048   0.0084  -0.0128   0.00    0.0
2017/10/26 00:05:33.000   56.181700899   40.865144754   118.4694   6   8   0.0243   0.0195   0.0453   0.0046   0.0084  -0.0129   0.00    0.0
2017/10/26 00:05:34.000   56.181700883   40.865144757   118.4670   6   8   0.0243   0.0195   0.0453   0.0044   0.0084  -0.0129   0.00    0.0
2017/10/26 00:05:35.000   56.181700871   40.865144796   118.4740   6   8   0.0242   0.0195   0.0453   0.0046   0.0083  -0.0128   0.00    0.0
2017/10/26 00:05:36.000   56.181700874   40.865144786   118.4753   6   8   0.0242   0.0195   0.0452   0.0044   0.0083  -0.0129   0.00    0.0
2017/10/26 00:05:37.000   56.181700867   40.865144803   118.4750   6   8   0.0243   0.0193   0.0452   0.0045   0.0085  -0.0130   0.00    0.0
2017/10/26 00:05:38.000   56.181700856   40.865144830   118.4768   6   8   0.0242   0.0195   0.0452   0.0046   0.0084  -0.0129   0.00    0.0
2017/10/26 00:05:39.000   56.181700853   40.865144802   118.4742   6   8   0.0242   0.0194   0.0452   0.0043   0.0084  -0.0129   0.00    0.0
2017/10/26 00:05:40.000   56.181700835   40.865144808   118.4725   6   8   0.0242   0.0196   0.0453   0.0046   0.0084  -0.0129   0.00    0.0
2017/10/26 00:05:41.000   56.181700833   40.865144773   118.4705   6   8   0.0242   0.0194   0.0452   0.0041   0.0084  -0.0129   0.00    0.0
2017/10/26 00:05:42.000   56.181700859   40.865144744   118.4727   6   8   0.0242   0.0194   0.0451   0.0042   0.0085  -0.0130   0.00    0.0
2017/10/26 00:05:43.000   56.181700869   40.865144806   118.4733   6   8   0.0242   0.0195   0.0451   0.0045   0.0084  -0.0129   0.00    0.0
2017/10/26 00:05:44.000   56.181700878   40.865144753   118.4715   6   8   0.0241   0.0195   0.0452   0.0046   0.0084  -0.0129   0.00    0.0
2017/10/26 00:05:45.000   56.181700855   40.865144755   118.4688   6   8   0.0242   0.0194   0.0452   0.0044   0.0085  -0.0130   0.00    0.0
2017/10/26 00:05:46.000   56.181700869   40.865144763   118.4728   6   8   0.0241   0.0195   0.0451   0.0045   0.0083  -0.0129   0.00    0.0
2017/10/26 00:05:47.000   56.181700844   40.865144749   118.4740   6   8   0.0242   0.0193   0.0450   0.0043   0.0084  -0.0130   0.00    0.0
2017/10/26 00:05:48.000   56.181700879   40.865144766   118.4691   6   8   0.0241   0.0194   0.0450   0.0045   0.0083  -0.0128   0.00    0.0
2017/10/26 00:05:49.000   56.181700850   40.865144769   118.4712   6   8   0.0242   0.0194   0.0451   0.0046   0.0083  -0.0130   0.00    0.0
2017/10/26 00:05:50.000   56.181700859   40.865144768   118.4747   6   8   0.0242   0.0194   0.0451   0.0046   0.0085  -0.0129   0.00    0.0
2017/10/26 00:05:51.000   56.181700828   40.865144747   118.4729   6   8   0.0241   0.0195   0.0450   0.0044   0.0082  -0.0129   0.00    0.0
2017/10/26 00:05:52.000   56.181700874   40.865144753   118.4730   6   8   0.0242   0.0193   0.0450   0.0041   0.0084  -0.0130   0.00    0.0
2017/10/26 00:05:53.000   56.181700849   40.865144753   118.4705   6   8   0.0242   0.0194   0.0450   0.0047   0.0082  -0.0129   0.00    0.0
2017/10/26 00:05:54.000   56.181700874   40.865144754   118.4660   6   8   0.0242   0.0194   0.0450   0.0041   0.0083  -0.0129   0.00    0.0
2017/10/26 00:05:55.000   56.181700882   40.865144767   118.4747   6   8   0.0241   0.0193   0.0451   0.0046   0.0084  -0.0129   0.00    0.0
2017/10/26 00:05:56.000   56.181700871   40.865144738   118.4746   6   8   0.0241   0.0195   0.0449   0.0043   0.0083  -0.0129   0.00    0.0
2017/10/26 00:05:57.000   56.181700852   40.865144775   118.4719   6   8   0.0241   0.0192   0.0449   0.0045   0.0085  -0.0129   0.00    0.0
2017/10/26 00:05:58.000   56.181700833   40.865144765   118.4649   6   8   0.0242   0.0192   0.0449   0.0041   0.0085  -0.0130   0.00    0.0
2017/10/26 00:05:59.000   56.181700859   40.865144775   118.4672   6   8   0.0242   0.0193   0.0449   0.0040   0.0084  -0.0130   0.00    0.0
2017/10/26 00:06:00.000   56.181700850   40.865144764   118.4640   6   8   0.0242   0.0194   0.0449   0.0042   0.0084  -0.0129   0.00    0.0
2017/10/26 00:06:01.000   56.181700869   40.865144744   118.4724   6   8   0.0241   0.0194   0.0449   0.0044   0.0084  -0.0129   0.00    0.0
2017/10/26 00:06:02.000   56.181700848   40.865144749   118.4778   6   8   0.0241   0.0195   0.0448   0.0042   0.0083  -0.0129   0.00    0.0
2017/10/26 00:06:03.000   56.181700856   40.865144734   118.4719   6   8   0.0241   0.0193   0.0449   0.0040   0.0084  -0.0130   0.00    0.0
2017/10/26 00:06:04.000   56.181700871   40.865144706   118.4709   6   8   0.0241   0.0192   0.0448   0.0046   0.0083  -0.0129   0.00    0.0
2017/10/26 00:06:05.000   56.181700887   40.865144674   118.4686   6   8   0.0241   0.0194   0.0449   0.0044   0.0082  -0.0129   0.00    0.0
2017/10/26 00:06:06.000   56.181700864   40.865144699   118.4696   6   8   0.0241   0.0193   0.0448   0.0043   0.0084  -0.0129   0.00    0.0
2017/10/26 00:06:07.000   56.181700861   40.865144682   118.4704   6   8   0.0241   0.0192   0.0447   0.0042   0.0085  -0.0130   0.00    0.0
2017/10/26 00:06:08.000   56.181700846   40.865144710   118.4737   6   8   0.0240   0.0194   0.0448   0.0045   0.0082  -0.0128   0.00    0.0
2017/10/26 00:06:09.000   56.181700840   40.865144757   118.4801   6   8   0.0240   0.0194   0.0448   0.0042   0.0082  -0.0129   0.00    0.0
2017/10/26 00:06:10.000   56.181700830   40.865144744   118.4785   6   8   0.0241   0.0193   0.0448   0.0046   0.0084  -0.0130   0.00    0.0
2017/10/26 00:06:11.000   56.181700810   40.865144762   118.4787   6   8   0.0241   0.0193   0.0447   0.0041   0.0085  -0.0130   0.00    0.0
2017/10/26 00:06:12.000   56.181700817   40.865144777   118.4826   6   8   0.0240   0.0194   0.0447   0.0044   0.0083  -0.0129   0.00    0.0
2017/10/26 00:06:13.000   56.181700805   40.865144728   118.4800   6   8   0.0240   0.0193   0.0447   0.0043   0.0082  -0.0129   0.00    0.0
2017/10/26 00:06:14.000   56.181700801   40.865144723   118.4744   6   8   0.0240   0.0194   0.0447   0.0043   0.0084  -0.0130   0.00    0.0
2017/10/26 00:06:15.000   56.181700794   40.865144734   118.4754   6   8   0.0241   0.0194   0.0447   0.0042   0.0082  -0.0129   0.00    0.0
2017/10/26 00:06:16.000   56.181700807   40.865144744   118.4717   6   8   0.0239   0.0195   0.0447   0.0041   0.0082  -0.0128   0.00    0.0
2017/10/26 00:06:17.000   56.181700819   40.865144745   118.4725   6   8   0.0239   0.0193   0.0446   0.0041   0.0083  -0.0129   0.00    0.0
2017/10/26 00:06:18.000   56.181700837   40.865144765   118.4682   6   8   0.0240   0.0193   0.0446   0.0042   0.0082  -0.0130   0.00    0.0
2017/10/26 00:06:19.000   56.181700856   40.865144734   118.4594   6   8   0.0241   0.0194   0.0446   0.0040   0.0083  -0.0130   0.00    0.0
2017/10/26 00:06:20.000   56.181700857   40.865144726   118.4607   6   8   0.0240   0.0194   0.0447   0.0042   0.0082  -0.0129   0.00    0.0
2017/10/26 00:06:21.000   56.181700806   40.865144754   118.4661   6   8   0.0241   0.0193   0.0446   0.0039   0.0084  -0.0130   0.00    0.0
2017/10/26 00:06:22.000   56.181700825   40.865144736   118.4672   6   8   0.0240   0.0193   0.0445   0.0040   0.0084  -0.0129   0.00    0.0
2017/10/26 00:06:23.000   56.181700827   40.865144751   118.4742   6   8   0.0240   0.0193   0.0446   0.0045   0.0083  -0.0130   0.00    0.0
2017/10/26 00:06:24.000   56.181700833   40.865144749   118.4676   6   8   0.0239   0.0193   0.0446   0.0044   0.0082  -0.0129   0.00    0.0
2017/10/26 00:06:25.000   56.181700848   40.865144802   118.4734   6   8   0.0239   0.0193   0.0446   0.0043   0.0081  -0.0129   0.00    0.0
2017/10/26 00:06:26.000   56.181700824   40.865144787   118.4736   6   8   0.0240   0.0193   0.0445   0.0043   0.0082  -0.0130   0.00    0.0
2017/10/26 00:06:27.000   56.181700850   40.865144796   118.4813   6   8   0.0239   0.0193   0.0445   0.0039   0.0082  -0.0129   0.00    0.0
2017/10/26 00:06:28.000   56.181700826   40.865144756   118.4672   6   8   0.0239   0.0194   0.0444   0.0041   0.0082  -0.0129   0.00    0.0
2017/10/26 00:06:29.000   56.181700827   40.865144767   118.4766   6   8   0.0239   0.0195   0.0445   0.0042   0.0081  -0.0128   0.00    0.0
2017/10/26 00:06:30.000   56.181700807   40.865144735   118.4758   6   8   0.0239   0.0195   0.0445   0.0041   0.0081  -0.0129   0.00    0.0
2017/10/26 00:06:31.000   56.181700785   40.865144792   118.4861   6   8   0.0239   0.0193   0.0444   0.0040   0.0083  -0.0129   0.00    0.0
2017/10/26 00:06:32.000   56.181700805   40.865144810   118.4805   6   8   0.0239   0.0193   0.0444   0.0037   0.0082  -0.0129   0.00    0.0
2017/10/26 00:06:33.000   56.181700807   40.865144831   118.4768   6   8   0.0239   0.0192   0.0444   0.0043   0.0084  -0.0130   0.00    0.0
2017/10/26 00:06:34.000   56.181700865   40.865144793   118.4732   6   8   0.0240   0.0194   0.0445   0.0040   0.0081  -0.0129   0.00    0.0
2017/10/26 00:06:35.000   56.181700846   40.865144816   118.4752   6   8   0.0240   0.0193   0.0445   0.0043   0.0083  -0.0130   0.00    0.0
2017/10/26 00:06:36.000   56.181700854   40.865144807   118.4762   6   8   0.0239   0.0192   0.0444   0.0042   0.0083  -0.0129   0.00    0.0
2017/10/26 00:06:37.000   56.181700804   40.865144829   118.4810   6   8   0.0238   0.0193   0.0443   0.0044   0.0082  -0.0129   0.00    0.0
2017/10/26 00:06:38.000   56.181700809   40.865144798   118.4887   6   8   0.0238   0.0194   0.0443   0.0040   0.0082  -0.0129   0.00    0.0
2017/10/26 00:06:39.000   56.181700809   40.865144811   118.4899   6   8   0.0238   0.0195   0.0444   0.0041   0.0083  -0.0129   0.00    0.0
2017/10/26 00:06:40.000   56.181700828   40.865144781   118.4796   6   8   0.0239   0.0195   0.0444   0.0042   0.0082  -0.0129   0.00    0.0
