% (lat/lon/height=WGS84/ellipsoidal,Q=1:fix,2:float,3:sbas,4:dgps,5:single,6:ppp,ns=# of satellites)
%  UTC                   latitude(deg) longitude(deg)  height(m)   Q  ns   sdn(m)   sde(m)   sdu(m)  sdne(m)  sdeu(m)  sdun(m) age(s)  ratio
2019/08/07 23:59:42.000   43.788394395   41.565070932  1166.2796   6   8   0.0519   0.0757   0.1001  -0.0300   0.0673  -0.0596   0.00    0.0
2019/08/08 00:00:12.000   43.788394305   41.565070947  1166.2790   6   8   0.0473   0.0689   0.0834  -0.0154   0.0527  -0.0486   0.00    0.0
2019/08/08 00:00:42.000   43.788394271   41.565070877  1166.2716   6   7   0.0497   0.0714   0.0853  -0.0012   0.0502  -0.0513   0.00    0.0
2019/08/08 00:01:12.000   43.788394238   41.565070800  1166.2863   6   6   0.0514   0.0743   0.0922   0.0154   0.0427  -0.0555   0.00    0.0
2019/08/08 00:01:42.000   43.788394444   41.565070693  1166.2236   6   6   0.0539   0.0770   0.1032  -0.0304   0.0683  -0.0622   0.00    0.0
2019/08/08 00:02:12.000   43.788394342   41.565070724  1166.2603   6   6   0.0946   0.0775   0.2152  -0.0391   0.0783  -0.1360   0.00    0.0
2019/08/08 00:02:42.000   43.788394511   41.565070746  1166.2303   6   7   0.0543   0.0733   0.0954  -0.0292   0.0606  -0.0618   0.00    0.0
2019/08/08 00:03:12.000   43.788394418   41.565070839  1166.2661   6   8   0.0519   0.0721   0.0887  -0.0038   0.0507  -0.0545   0.00    0.0
2019/08/08 00:03:42.000   43.788394383   41.565070791  1166.2590   6   7   0.0633   0.0778   0.1215  -0.0324   0.0705  -0.0772   0.00    0.0
2019/08/08 00:04:12.000   43.788394443   41.565070822  1166.2535   6   7   0.0510   0.0701   0.0884  -0.0172   0.0524  -0.0555   0.00    0.0
2019/08/08 00:04:42.000   43.788394529   41.565070891  1166.2607   6   7   0.0517   0.0708   0.0896  -0.0171   0.0531  -0.0561   0.00    0.0
2019/08/08 00:05:12.000   43.788394485   41.565070813  1166.2573   6   6   0.0547   0.0755   0.0979   0.0118   0.0452  -0.0601   0.00    0.0
2019/08/08 00:05:42.000   43.788394487   41.565070801  1166.2519   6   7   0.0532   0.0717   0.0919  -0.0158   0.0541  -0.0568   0.00    0.0
2019/08/08 00:06:12.000   43.788394501   41.565070858  1166.2637   6   6   0.0549   0.0740   0.0935  -0.0061   0.0519  -0.0588   0.00    0.0
2019/08/08 00:06:42.000   43.788394530   41.565070856  1166.2546   6   7   0.0541   0.0724   0.0935  -0.0161   0.0545  -0.0582   0.00    0.0
2019/08/08 00:07:12.000   43.788394547   41.565070919  1166.2411   6   6   0.0546   0.0730   0.0944  -0.0164   0.0550  -0.0590   0.00    0.0
2019/08/08 00:07:42.000   43.788394598   41.565070879  1166.2446   6   6   0.0551   0.0737   0.0953  -0.0167   0.0555  -0.0597   0.00    0.0
2019/08/08 00:08:12.000   43.788394609   41.565070860  1166.2370   6   6   0.0555   0.0743   0.0963  -0.0173   0.0560  -0.0604   0.00    0.0
2019/08/08 00:08:42.000   43.788394606   41.565070832  1166.2496   6   6   0.0559   0.0750   0.0972  -0.0177   0.0565  -0.0611   0.00    0.0
2019/08/08 00:09:12.000   43.788394589   41.565070851  1166.2596   6   6   0.0575   0.0790   0.1039   0.0019   0.0493  -0.0642   0.00    0.0
2019/08/08 00:09:42.000   43.788394575   41.565070870  1166.2554   6   6   0.0564   0.0758   0.0986  -0.0178   0.0570  -0.0620   0.00    0.0
2019/08/08 00:10:12.000   43.788394636   41.565070898  1166.2490   6   7   0.0567   0.0764   0.1014  -0.0185   0.0572  -0.0623   0.00    0.0
2019/08/08 00:10:42.000   43.788394613   41.565070856  1166.2515   6   7   0.0569   0.0771   0.1003  -0.0190   0.0581  -0.0630   0.00    0.0
2019/08/08 00:11:12.000   43.788394658   41.565070930  1166.2299   6   7   0.0570   0.0779   0.1011  -0.0195   0.0587  -0.0634   0.00    0.0
2019/08/08 00:11:42.000   43.788394661   41.565070905  1166.2426   6   7   0.0597   0.0871   0.1175  -0.0325   0.0757  -0.0713   0.00    0.0
2019/08/08 00:12:12.000   43.788394643   41.565070902  1166.2385   6   7   0.0572   0.0790   0.1025  -0.0202   0.0597  -0.0641   0.00    0.0
2019/08/08 00:12:42.000   43.788394600   41.565070925  1166.2407   6   7   0.0578   0.0815   0.1034  -0.0156   0.0580  -0.0650   0.00    0.0
2019/08/08 00:13:12.000   43.788394625   41.565070890  1166.2333   6   7   0.0577   0.0828   0.1084  -0.0140   0.0540  -0.0657   0.00    0.0
2019/08/08 00:13:42.000   43.788394706   41.565070852  1166.2144   6   7   0.0590   0.0885   0.1187  -0.0319   0.0763  -0.0710   0.00    0.0
2019/08/08 00:14:12.000   43.788394601   41.565070890  1166.2273   6   7   0.0587   0.0887   0.1189  -0.0317   0.0763  -0.0708   0.00    0.0
2019/08/08 00:14:42.000   43.788394729   41.565070859  1166.2158   6   7   0.0565   0.0806   0.1047  -0.0209   0.0607  -0.0644   0.00    0.0
2019/08/08 00:15:12.000   43.788394686   41.565070821  1166.2140   6   8   0.0566   0.0838   0.1099  -0.0166   0.0559  -0.0652   0.00    0.0
2019/08/08 00:15:42.000   43.788394658   41.565070794  1166.2178   6   8   0.0547   0.0809   0.1033  -0.0237   0.0594  -0.0658   0.00    0.0
2019/08/08 00:16:12.000   43.788394676   41.565070868  1166.2200   6   8   0.0545   0.0818   0.1036  -0.0239   0.0598  -0.0658   0.00    0.0
2019/08/08 00:16:42.000   43.788394707   41.565070906  1166.2178   6   8   0.0542   0.0827   0.1040  -0.0241   0.0602  -0.0657   0.00    0.0
2019/08/08 00:17:12.000   43.788394757   41.565070844  1166.2158   6   8   0.0539   0.0835   0.1056  -0.0244   0.0605  -0.0657   0.00    0.0
2019/08/08 00:17:42.000   43.788394748   41.565070762  1166.2244   6   8   0.0536   0.0845   0.1046  -0.0247   0.0611  -0.0655   0.00    0.0
2019/08/08 00:18:12.000   43.788394712   41.565070733  1166.2140   6   8   0.0533   0.0854   0.1063  -0.0250   0.0615  -0.0654   0.00    0.0
2019/08/08 00:18:42.000   43.788394726   41.565070680  1166.2309   6   8   0.0529   0.0865   0.1050  -0.0254   0.0621  -0.0651   0.00    0.0
2019/08/08 00:19:12.000   43.788394764   41.565070784  1166.2249   6   8   0.0526   0.0877   0.1054  -0.0258   0.0627  -0.0650   0.00    0.0
2019/08/08 00:19:42.000   43.788394682   41.565070675  1166.2448   6   8   0.0522   0.0888   0.1057  -0.0263   0.0633  -0.0647   0.00    0.0
2019/08/08 00:20:12.000   43.788394650   41.565070729  1166.2410   6   8   0.0517   0.0901   0.1058  -0.0268   0.0640  -0.0644   0.00    0.0
2019/08/08 00:20:42.000   43.788394622   41.565070668  1166.2496   6   7   0.0522   0.0938   0.1093  -0.0261   0.0612  -0.0654   0.00    0.0
2019/08/08 00:21:12.000   43.788394602   41.565070663  1166.2547   6   6   0.0523   0.0940   0.1097  -0.0259   0.0610  -0.0656   0.00    0.0
2019/08/08 00:21:42.000   43.788394569   41.565070649  1166.2506   6   8   0.0502   0.0920   0.1058  -0.0267   0.0643  -0.0632   0.00    0.0
2019/08/08 00:22:12.000   43.788394539   41.565070631  1166.2656   6   8   0.0496   0.0953   0.1082  -0.0256   0.0613  -0.0629   0.00    0.0
2019/08/08 00:22:42.000   43.788394535   41.565070625  1166.2570   6   8   0.0491   0.0934   0.1073  -0.0269   0.0648  -0.0624   0.00    0.0
2019/08/08 00:23:12.000   43.788394448   41.565070542  1166.2728   6   8   0.0485   0.0964   0.1081  -0.0262   0.0619  -0.0620   0.00    0.0
2019/08/08 00:23:42.000   43.788394414   41.565070501  1166.2788   6   7   0.0479   0.0965   0.1080  -0.0260   0.0618  -0.0615   0.00    0.0
2019/08/08 00:24:12.000   43.788394417   41.565070519  1166.2819   6   8   0.0474   0.0949   0.1057  -0.0271   0.0652  -0.0609   0.00    0.0
2019/08/08 00:24:42.000   43.788394388   41.565070530  1166.2768   6   8   0.0469   0.0960   0.1059  -0.0277   0.0658  -0.0606   0.00    0.0
2019/08/08 00:25:12.000   43.788394339   41.565070392  1166.2746   6   8   0.0464   0.0972   0.1061  -0.0283   0.0665  -0.0602   0.00    0.0
2019/08/08 00:25:42.000   43.788394362   41.565070379  1166.2769   6   6   0.0483   0.1000   0.1105  -0.0292   0.0649  -0.0626   0.00    0.0
2019/08/08 00:26:12.000   43.788394366   41.565070373  1166.2682   6   6   0.0479   0.1003   0.1106  -0.0293   0.0650  -0.0622   0.00    0.0
2019/08/08 00:26:42.000   43.788394332   41.565070441  1166.2692   6   8   0.0449   0.0992   0.1063  -0.0288   0.0672  -0.0590   0.00    0.0
2019/08/08 00:27:12.000   43.788394412   41.565070458  1166.2730   6   8   0.0445   0.1002   0.1066  -0.0295   0.0680  -0.0587   0.00    0.0
2019/08/08 00:27:42.000   43.788394349   41.565070419  1166.2721   6   8   0.0441   0.1013   0.1069  -0.0302   0.0687  -0.0585   0.00    0.0
2019/08/08 00:28:12.000   43.788394380   41.565070339  1166.2637   6   6   0.0463   0.1037   0.1115  -0.0318   0.0677  -0.0612   0.00    0.0
2019/08/08 00:28:42.000   43.788394267   41.565070351  1166.2631   6   8   0.0432   0.1029   0.1073  -0.0310   0.0695  -0.0578   0.00    0.0
2019/08/08 00:29:12.000   43.788394411   41.565070409  1166.2490   6   6   0.0456   0.1051   0.1209  -0.0328   0.0771  -0.0599   0.00    0.0
2019/08/08 00:29:42.000   43.788394342   41.565070505  1166.2624   6   8   0.0426   0.1045   0.1084  -0.0325   0.0710  -0.0575   0.00    0.0
2019/08/08 00:30:12.000   43.788394372   41.565070541  1166.2665   6   7   0.0423   0.1060   0.1098  -0.0334   0.0726  -0.0576   0.00    0.0
2019/08/08 00:30:42.000   43.788394363   41.565070461  1166.2698   6   6   0.0448   0.1081   0.1134  -0.0354   0.0720  -0.0604   0.00    0.0
2019/08/08 00:31:12.000   43.788394331   41.565070376  1166.2649   6   8   0.0416   0.1074   0.1104  -0.0344   0.0737  -0.0571   0.00    0.0
2019/08/08 00:31:42.000   43.788394272   41.565070317  1166.2568   6   7   0.0413   0.1087   0.1109  -0.0353   0.0748  -0.0570   0.00    0.0
2019/08/08 00:32:12.000   43.788394308   41.565070436  1166.2794   6   6   0.0440   0.1107   0.1147  -0.0375   0.0745  -0.0601   0.00    0.0
2019/08/08 00:32:42.000   43.788394286   41.565070429  1166.2586   6   6   0.0436   0.1111   0.1150  -0.0378   0.0749  -0.0598   0.00    0.0
2019/08/08 00:33:12.000   43.788394329   41.565070440  1166.2606   6   6   0.0434   0.1115   0.1155  -0.0381   0.0753  -0.0597   0.00    0.0
2019/08/08 00:33:42.000   43.788394366   41.565070450  1166.2479   6   6   0.0430   0.1119   0.1159  -0.0384   0.0758  -0.0595   0.00    0.0
2019/08/08 00:34:12.000   43.788394387   41.565070467  1166.2432   6   6   0.0428   0.1123   0.1164  -0.0388   0.0763  -0.0593   0.00    0.0
2019/08/08 00:34:42.000   43.788394415   41.565070445  1166.2527   6   7   0.0394   0.1122   0.1131  -0.0372   0.0772  -0.0557   0.00    0.0
2019/08/08 00:35:12.000   43.788394359   41.565070483  1166.2685   6   7   0.0391   0.1126   0.1137  -0.0377   0.0781  -0.0556   0.00    0.0
2019/08/08 00:35:42.000   43.788394316   41.565070628  1166.2662   6   7   0.0390   0.1130   0.1145  -0.0383   0.0790  -0.0556   0.00    0.0
2019/08/08 00:36:12.000   43.788394370   41.565070755  1166.2655   6   7   0.0388   0.1135   0.1154  -0.0389   0.0799  -0.0557   0.00    0.0
2019/08/08 00:36:42.000   43.788394399   41.565070727  1166.2750   6   7   0.0386   0.1141   0.1163  -0.0396   0.0810  -0.0557   0.00    0.0
2019/08/08 00:37:12.000   43.788394347   41.565070716  1166.2689   6   7   0.0385   0.1148   0.1174  -0.0403   0.0821  -0.0558   0.00    0.0
2019/08/08 00:37:42.000   43.788394338   41.565070726  1166.2568   6   6   0.0416   0.1156   0.1225  -0.0424   0.0827  -0.0596   0.00    0.0
2019/08/08 00:38:12.000   43.788394323   41.565070729  1166.2645   6   6   0.0414   0.1161   0.1237  -0.0429   0.0837  -0.0596   0.00    0.0
2019/08/08 00:38:42.000   43.788394344   41.565070711  1166.2757   6   7   0.0380   0.1166   0.1210  -0.0416   0.0847  -0.0558   0.00    0.0
2019/08/08 00:39:12.000   43.788394292   41.565070757  1166.2995   6   7   0.0379   0.1172   0.1228  -0.0422   0.0860  -0.0560   0.00    0.0
2019/08/08 00:39:42.000   43.788394326   41.565070844  1166.2603   6   7   0.0379   0.1179   0.1251  -0.0429   0.0877  -0.0563   0.00    0.0
2019/08/08 00:40:12.000   43.788394303   41.565070813  1166.2679   6   8   0.0378   0.1188   0.1278  -0.0437   0.0896  -0.0567   0.00    0.0
2019/08/08 00:40:42.000   43.788394286   41.565070886  1166.2527   6   6   0.0411   0.1199   0.1359  -0.0461   0.0922  -0.0613   0.00    0.0
2019/08/08 00:41:12.000   43.788394341   41.565070868  1166.2448   6   7   0.0377   0.1213   0.1359  -0.0451   0.0947  -0.0575   0.00    0.0
2019/08/08 00:41:42.000   43.788394362   41.565070895  1166.2320   6   8   0.0378   0.1233   0.1441  -0.0463   0.0994  -0.0588   0.00    0.0
2019/08/08 00:50:12.000   43.788394277   41.565070746  1166.2143   6   7   0.0396   0.1252   0.1633  -0.0502   0.1078  -0.0596   0.00    0.0
2019/08/08 00:52:12.000   43.788394260   41.565070755  1166.2059   6   6   0.0391   0.1229   0.1584  -0.0499   0.1044  -0.0575   0.00    0.0
2019/08/08 00:52:42.000   43.788394253   41.565070879  1166.2212   6   7   0.0347   0.1170   0.1451  -0.0438   0.0930  -0.0479   0.00    0.0
2019/08/08 00:53:12.000   43.788394263   41.565070959  1166.2218   6   6   0.0384   0.1144   0.1497  -0.0471   0.0964  -0.0552   0.00    0.0
2019/08/08 00:54:42.000   43.788394227   41.565070924  1166.2437   6   6   0.0382   0.1131   0.1467  -0.0470   0.0943  -0.0538   0.00    0.0
2019/08/08 00:55:12.000   43.788394261   41.565070926  1166.2576   6   6   0.0382   0.1116   0.1432  -0.0469   0.0919  -0.0531   0.00    0.0
2019/08/08 00:55:42.000   43.788394269   41.565070883  1166.2410   6   7   0.0376   0.1101   0.1357  -0.0463   0.0890  -0.0504   0.00    0.0
2019/08/08 00:56:12.000   43.788394227   41.565070888  1166.2759   6   6   0.0380   0.1091   0.1381  -0.0465   0.0884  -0.0518   0.00    0.0
2019/08/08 00:56:42.000   43.788394246   41.565070803  1166.2482   6   9   0.0334   0.1035   0.1208  -0.0401   0.0772  -0.0401   0.00    0.0
2019/08/08 00:57:12.000   43.788394198   41.565070816  1166.2756   6   6   0.0371   0.1014   0.1335  -0.0432   0.0833  -0.0497   0.00    0.0
2019/08/08 00:57:42.000   43.788394163   41.565070843  1166.2668   6   6   0.0370   0.1005   0.1318  -0.0431   0.0821  -0.0492   0.00    0.0
2019/08/08 00:58:12.000   43.788394150   41.565070902  1166.2743   6   6   0.0369   0.0997   0.1302  -0.0430   0.0811  -0.0487   0.00    0.0
2019/08/08 00:58:42.000   43.788394124   41.565070889  1166.2662   6   6   0.0369   0.0989   0.1288  -0.0430   0.0801  -0.0482   0.00    0.0
2019/08/08 00:59:12.000   43.788394191   41.565070875  1166.2594   6   9   0.0329   0.0948   0.1104  -0.0375   0.0692  -0.0361   0.00    0.0
2019/08/08 00:59:42.000   43.788394188   41.565070876  1166.2578   6   6   0.0362   0.0935   0.1257  -0.0405   0.0765  -0.0465   0.00    0.0
2019/08/08 04:43:42.000   43.788394179   41.565070762  1166.4566   6   6   0.0234   0.0226   0.0538  -0.0063  -0.0201   0.0111   0.00    0.0
2019/08/08 04:44:12.000   43.788394158   41.565070829  1166.4501   6   7   0.0235   0.0224   0.0537  -0.0064  -0.0200   0.0108   0.00    0.0
2019/08/08 04:44:42.000   43.788394160   41.565070782  1166.4623   6   7   0.0234   0.0226   0.0538  -0.0065  -0.0199   0.0107   0.00    0.0
2019/08/08 04:45:12.000   43.788394198   41.565070828  1166.4469   6   7   0.0234   0.0227   0.0539  -0.0066  -0.0197   0.0104   0.00    0.0
2019/08/08 04:45:42.000   43.788394164   41.565070824  1166.4634   6   7   0.0235   0.0227   0.0542  -0.0067  -0.0194   0.0097   0.00    0.0
2019/08/08 04:46:12.000   43.788394176   41.565070855  1166.4494   6   7   0.0236   0.0229   0.0550  -0.0074  -0.0186   0.0079   0.00    0.0
2019/08/08 04:46:42.000   43.788394190   41.565070843  1166.4561   6   6   0.0236   0.0229   0.0549  -0.0074  -0.0185   0.0074   0.00    0.0
2019/08/08 04:47:12.000   43.788394151   41.565070809  1166.4717   6   6   0.0236   0.0228   0.0549  -0.0075  -0.0185   0.0072   0.00    0.0
2019/08/08 04:47:42.000   43.788394186   41.565070917  1166.4473   6   6   0.0235   0.0228   0.0548  -0.0077  -0.0185   0.0068   0.00    0.0
2019/08/08 04:48:12.000   43.788394156   41.565070883  1166.4554   6   6   0.0236   0.0228   0.0546  -0.0077  -0.0185   0.0064   0.00    0.0
2019/08/08 04:48:42.000   43.788394177   41.565070752  1166.4599   6   6   0.0236   0.0228   0.0546  -0.0077  -0.0183   0.0059   0.00    0.0
2019/08/08 04:49:12.000   43.788394175   41.565070878  1166.4387   6   6   0.0236   0.0229   0.0544  -0.0077  -0.0183   0.0054   0.00    0.0
2019/08/08 04:49:42.000   43.788394173   41.565070813  1166.4542   6   6   0.0236   0.0228   0.0543  -0.0077  -0.0181   0.0044   0.00    0.0
2019/08/08 04:50:12.000   43.788394172   41.565070872  1166.4364   6   6   0.0236   0.0228   0.0541  -0.0078  -0.0181   0.0033   0.00    0.0
2019/08/08 04:50:42.000   43.788394169   41.565070759  1166.4500   6   6   0.0236   0.0228   0.0540  -0.0078  -0.0180   0.0021   0.00    0.0
2019/08/08 04:51:12.000   43.788394137   41.565070806  1166.4500   6   6   0.0236   0.0228   0.0538  -0.0076  -0.0178  -0.0020   0.00    0.0
2019/08/08 04:51:42.000   43.788394151   41.565070750  1166.4415   6   6   0.0236   0.0228   0.0537  -0.0077  -0.0176  -0.0034   0.00    0.0
2019/08/08 04:52:12.000   43.788394115   41.565070714  1166.4566   6   6   0.0236   0.0228   0.0535  -0.0079  -0.0176  -0.0046   0.00    0.0
2019/08/08 04:52:42.000   43.788394088   41.565070749  1166.4448   6   6   0.0235   0.0228   0.0533  -0.0077  -0.0175  -0.0052   0.00    0.0
2019/08/08 04:53:12.000   43.788394107   41.565070734  1166.4520   6   6   0.0235   0.0228   0.0531  -0.0077  -0.0174  -0.0060   0.00    0.0
2019/08/08 04:53:42.000   43.788394140   41.565070714  1166.4542   6   7   0.0235   0.0228   0.0529  -0.0077  -0.0172  -0.0070   0.00    0.0
2019/08/08 04:54:12.000   43.788394074   41.565070746  1166.4463   6   7   0.0234   0.0229   0.0527  -0.0077  -0.0172  -0.0075   0.00    0.0
2019/08/08 04:54:42.000   43.788394114   41.565070750  1166.4518   6   7   0.0235   0.0228   0.0525  -0.0076  -0.0170  -0.0082   0.00    0.0
2019/08/08 04:55:12.000   43.788394084   41.565070825  1166.4396   6   7   0.0235   0.0228   0.0523  -0.0076  -0.0169  -0.0087   0.00    0.0
2019/08/08 04:55:42.000   43.788394118   41.565070759  1166.4505   6   7   0.0234   0.0228   0.0521  -0.0076  -0.0167  -0.0093   0.00    0.0
2019/08/08 04:56:12.000   43.788394113   41.565070771  1166.4452   6   7   0.0235   0.0228   0.0519  -0.0075  -0.0166  -0.0098   0.00    0.0
2019/08/08 04:56:42.000   43.788394150   41.565070785  1166.4336   6   7   0.0234   0.0228   0.0516  -0.0076  -0.0165  -0.0103   0.00    0.0
2019/08/08 04:57:12.000   43.788394145   41.565070797  1166.4517   6   7   0.0234   0.0228   0.0514  -0.0076  -0.0164  -0.0108   0.00    0.0
2019/08/08 04:57:42.000   43.788394136   41.565070763  1166.4539   6   7   0.0234   0.0228   0.0512  -0.0074  -0.0162  -0.0112   0.00    0.0
2019/08/08 04:58:12.000   43.788394133   41.565070770  1166.4538   6   7   0.0235   0.0228   0.0511  -0.0075  -0.0160  -0.0117   0.00    0.0
2019/08/08 04:58:42.000   43.788394170   41.565070854  1166.4377   6   7   0.0235   0.0228   0.0508  -0.0075  -0.0159  -0.0121   0.00    0.0
2019/08/08 04:59:12.000   43.788394181   41.565070750  1166.4552   6   7   0.0235   0.0228   0.0506  -0.0074  -0.0158  -0.0125   0.00    0.0
2019/08/08 04:59:42.000   43.788394156   41.565070858  1166.4309   6   7   0.0234   0.0228   0.0505  -0.0075  -0.0156  -0.0128   0.00    0.0
2019/08/08 05:00:12.000   43.788394163   41.565070803  1166.4516   6   7   0.0234   0.0228   0.0504  -0.0073  -0.0155  -0.0132   0.00    0.0
2019/08/08 05:00:42.000   43.788394121   41.565070821  1166.4429   6   7   0.0235   0.0227   0.0502  -0.0073  -0.0155  -0.0136   0.00    0.0
2019/08/08 05:01:12.000   43.788394153   41.565070800  1166.4304   6   7   0.0234   0.0228   0.0500  -0.0073  -0.0153  -0.0139   0.00    0.0
2019/08/08 05:01:42.000   43.788394142   41.565070828  1166.4375   6   7   0.0235   0.0228   0.0498  -0.0072  -0.0152  -0.0142   0.00    0.0
2019/08/08 05:02:12.000   43.788394104   41.565070804  1166.4413   6   7   0.0235   0.0228   0.0496  -0.0072  -0.0151  -0.0145   0.00    0.0
2019/08/08 05:02:42.000   43.788394131   41.565070787  1166.4366   6   7   0.0235   0.0228   0.0496  -0.0072  -0.0149  -0.0148   0.00    0.0
2019/08/08 05:03:12.000   43.788394110   41.565070773  1166.4298   6   7   0.0235   0.0228   0.0494  -0.0070  -0.0150  -0.0151   0.00    0.0
2019/08/08 05:03:42.000   43.788394139   41.565070742  1166.4267   6   7   0.0235   0.0228   0.0492  -0.0071  -0.0148  -0.0153   0.00    0.0
2019/08/08 05:04:12.000   43.788394119   41.565070749  1166.4378   6   7   0.0235   0.0229   0.0491  -0.0070  -0.0148  -0.0156   0.00    0.0
2019/08/08 05:04:42.000   43.788394106   41.565070805  1166.4329   6   7   0.0236   0.0229   0.0491  -0.0071  -0.0147  -0.0159   0.00    0.0
2019/08/08 05:05:12.000   43.788394135   41.565070741  1166.4329   6   7   0.0236   0.0228   0.0490  -0.0070  -0.0148  -0.0161   0.00    0.0
2019/08/08 05:05:42.000   43.788394142   41.565070763  1166.4328   6   7   0.0236   0.0228   0.0489  -0.0069  -0.0148  -0.0165   0.00    0.0
2019/08/08 05:06:12.000   43.788394129   41.565070760  1166.4294   6   7   0.0237   0.0229   0.0490  -0.0067  -0.0148  -0.0168   0.00    0.0
2019/08/08 05:06:42.000   43.788394123   41.565070734  1166.4269   6   7   0.0237   0.0229   0.0490  -0.0068  -0.0150  -0.0171   0.00    0.0
2019/08/08 05:07:12.000   43.788394130   41.565070758  1166.4175   6   7   0.0238   0.0231   0.0493  -0.0065  -0.0154  -0.0175   0.00    0.0
2019/08/08 05:07:42.000   43.788394114   41.565070783  1166.4264   6   7   0.0239   0.0232   0.0499  -0.0060  -0.0161  -0.0182   0.00    0.0
2019/08/08 05:08:12.000   43.788394149   41.565070775  1166.4225   6   7   0.0241   0.0237   0.0520  -0.0044  -0.0181  -0.0197   0.00    0.0
2019/08/08 05:08:42.000   43.788394114   41.565070790  1166.4222   6   6   0.0242   0.0237   0.0518  -0.0046  -0.0180  -0.0197   0.00    0.0
2019/08/08 05:09:12.000   43.788394119   41.565070833  1166.4157   6   6   0.0242   0.0237   0.0516  -0.0046  -0.0177  -0.0197   0.00    0.0
2019/08/08 05:09:42.000   43.788394163   41.565070835  1166.4197   6   6   0.0243   0.0236   0.0514  -0.0050  -0.0175  -0.0198   0.00    0.0
2019/08/08 05:10:12.000   43.788394110   41.565070844  1166.4181   6   6   0.0242   0.0236   0.0511  -0.0049  -0.0173  -0.0199   0.00    0.0
2019/08/08 05:10:42.000   43.788394133   41.565070891  1166.4155   6   6   0.0242   0.0236   0.0508  -0.0049  -0.0171  -0.0199   0.00    0.0
2019/08/08 05:11:12.000   43.788394099   41.565070888  1166.4159   6   6   0.0243   0.0236   0.0506  -0.0050  -0.0168  -0.0200   0.00    0.0
2019/08/08 05:11:42.000   43.788394117   41.565070911  1166.4135   6   6   0.0243   0.0235   0.0504  -0.0049  -0.0166  -0.0201   0.00    0.0
2019/08/08 05:12:12.000   43.788394100   41.565070962  1166.4143   6   6   0.0243   0.0235   0.0502  -0.0051  -0.0165  -0.0202   0.00    0.0
2019/08/08 05:12:42.000   43.788394078   41.565070907  1166.4151   6   6   0.0243   0.0235   0.0500  -0.0050  -0.0162  -0.0203   0.00    0.0
2019/08/08 05:13:12.000   43.788394096   41.565070893  1166.4114   6   7   0.0244   0.0235   0.0498  -0.0054  -0.0160  -0.0204   0.00    0.0
2019/08/08 05:13:42.000   43.788394112   41.565070950  1166.3950   6   7   0.0226   0.0233   0.0464  -0.0018  -0.0173  -0.0160   0.00    0.0
2019/08/08 05:14:12.000   43.788394073   41.565070909  1166.4012   6   7   0.0226   0.0232   0.0461   0.0005  -0.0172  -0.0160   0.00    0.0
2019/08/08 05:14:42.000   43.788394051   41.565070850  1166.4024   6   7   0.0225   0.0232   0.0459  -0.0009  -0.0170  -0.0159   0.00    0.0
2019/08/08 05:15:12.000   43.788394096   41.565070830  1166.4050   6   7   0.0225   0.0232   0.0457   0.0010  -0.0169  -0.0160   0.00    0.0
2019/08/08 05:15:42.000   43.788394105   41.565070800  1166.3939   6   7   0.0225   0.0232   0.0454   0.0013  -0.0168  -0.0159   0.00    0.0
2019/08/08 05:16:12.000   43.788394107   41.565070816  1166.3965   6   7   0.0225   0.0231   0.0453   0.0007  -0.0166  -0.0160   0.00    0.0
2019/08/08 05:16:42.000   43.788394117   41.565070762  1166.4064   6   7   0.0224   0.0231   0.0450   0.0013  -0.0165  -0.0159   0.00    0.0
2019/08/08 05:17:12.000   43.788394070   41.565070769  1166.4126   6   7   0.0224   0.0231   0.0448   0.0015  -0.0165  -0.0159   0.00    0.0
2019/08/08 05:17:42.000   43.788394059   41.565070824  1166.4103   6   7   0.0224   0.0231   0.0446   0.0021  -0.0164  -0.0158   0.00    0.0
2019/08/08 05:18:12.000   43.788394116   41.565070768  1166.4085   6   7   0.0224   0.0231   0.0445   0.0020  -0.0162  -0.0158   0.00    0.0
2019/08/08 05:18:42.000   43.788394154   41.565070763  1166.4105   6   7   0.0223   0.0230   0.0442   0.0024  -0.0161  -0.0158   0.00    0.0
2019/08/08 05:19:12.000   43.788394066   41.565070802  1166.4118   6   7   0.0223   0.0230   0.0440   0.0025  -0.0162  -0.0157   0.00    0.0
2019/08/08 05:19:42.000   43.788394083   41.565070786  1166.4294   6   7   0.0223   0.0230   0.0440   0.0028  -0.0159  -0.0157   0.00    0.0
2019/08/08 05:20:12.000   43.788394062   41.565070823  1166.4252   6   7   0.0223   0.0230   0.0437   0.0026  -0.0158  -0.0157   0.00    0.0
2019/08/08 05:20:42.000   43.788394112   41.565070829  1166.4270   6   7   0.0222   0.0229   0.0436   0.0030  -0.0158  -0.0157   0.00    0.0
2019/08/08 05:21:12.000   43.788394151   41.565070860  1166.4282   6   7   0.0222   0.0229   0.0434   0.0031  -0.0157  -0.0156   0.00    0.0
2019/08/08 05:21:42.000   43.788394113   41.565070861  1166.4189   6   8   0.0217   0.0220   0.0419   0.0060  -0.0134  -0.0170   0.00    0.0
2019/08/08 05:22:12.000   43.788394147   41.565070780  1166.4295   6   8   0.0216   0.0220   0.0415   0.0063  -0.0133  -0.0172   0.00    0.0
2019/08/08 05:22:42.000   43.788394162   41.565070839  1166.4162   6   8   0.0216   0.0220   0.0413   0.0064  -0.0130  -0.0173   0.00    0.0
2019/08/08 05:23:12.000   43.788394130   41.565070791  1166.4151   6   8   0.0215   0.0221   0.0411   0.0066  -0.0129  -0.0173   0.00    0.0
2019/08/08 05:23:42.000   43.788394193   41.565070764  1166.4223   6   8   0.0214   0.0220   0.0409   0.0067  -0.0128  -0.0173   0.00    0.0
2019/08/08 05:24:12.000   43.788394127   41.565070736  1166.4105   6   8   0.0214   0.0219   0.0407   0.0069  -0.0128  -0.0173   0.00    0.0
2019/08/08 05:24:42.000   43.788394189   41.565070718  1166.4112   6   8   0.0214   0.0219   0.0406   0.0070  -0.0126  -0.0174   0.00    0.0
2019/08/08 05:25:12.000   43.788394233   41.565070657  1166.4090   6   8   0.0214   0.0218   0.0404   0.0069  -0.0125  -0.0174   0.00    0.0
2019/08/08 05:25:42.000   43.788394198   41.565070687  1166.4174   6   8   0.0213   0.0218   0.0402   0.0070  -0.0125  -0.0174   0.00    0.0
2019/08/08 05:26:12.000   43.788394183   41.565070704  1166.4073   6   8   0.0213   0.0219   0.0401   0.0072  -0.0123  -0.0174   0.00    0.0
2019/08/08 05:26:42.000   43.788394186   41.565070629  1166.4194   6   8   0.0213   0.0218   0.0400   0.0073  -0.0123  -0.0174   0.00    0.0
2019/08/08 05:27:12.000   43.788394141   41.565070721  1166.4052   6   8   0.0212   0.0217   0.0399   0.0074  -0.0121  -0.0174   0.00    0.0
2019/08/08 05:27:42.000   43.788394106   41.565070676  1166.4089   6   8   0.0212   0.0217   0.0397   0.0074  -0.0122  -0.0174   0.00    0.0
2019/08/08 05:28:12.000   43.788394177   41.565070673  1166.4150   6   8   0.0211   0.0217   0.0397   0.0077  -0.0120  -0.0173   0.00    0.0
2019/08/08 05:28:42.000   43.788394139   41.565070739  1166.4007   6   8   0.0211   0.0217   0.0395   0.0077  -0.0119  -0.0174   0.00    0.0
2019/08/08 05:29:12.000   43.788394199   41.565070688  1166.4186   6   8   0.0210   0.0218   0.0394   0.0077  -0.0119  -0.0174   0.00    0.0
2019/08/08 05:29:42.000   43.788394131   41.565070680  1166.4131   6   8   0.0210   0.0217   0.0394   0.0079  -0.0117  -0.0173   0.00    0.0
2019/08/08 05:30:12.000   43.788394129   41.565070714  1166.4128   6   8   0.0209   0.0217   0.0391   0.0081  -0.0119  -0.0173   0.00    0.0
2019/08/08 05:30:42.000   43.788394083   41.565070688  1166.4166   6   8   0.0209   0.0216   0.0390   0.0081  -0.0118  -0.0173   0.00    0.0
2019/08/08 05:31:12.000   43.788394084   41.565070681  1166.4160   6   8   0.0208   0.0216   0.0390   0.0081  -0.0116  -0.0173   0.00    0.0
2019/08/08 05:31:42.000   43.788394066   41.565070720  1166.4158   6   8   0.0208   0.0216   0.0389   0.0083  -0.0116  -0.0172   0.00    0.0
2019/08/08 05:32:12.000   43.788394067   41.565070636  1166.4247   6   8   0.0207   0.0216   0.0388   0.0083  -0.0115  -0.0172   0.00    0.0
2019/08/08 05:32:42.000   43.788394127   41.565070707  1166.4244   6   8   0.0207   0.0215   0.0386   0.0084  -0.0115  -0.0172   0.00    0.0
2019/08/08 05:33:12.000   43.788394150   41.565070692  1166.4184   6   8   0.0207   0.0216   0.0385   0.0085  -0.0115  -0.0171   0.00    0.0
2019/08/08 05:33:42.000   43.788394147   41.565070740  1166.4164   6   8   0.0206   0.0215   0.0385   0.0084  -0.0115  -0.0171   0.00    0.0
2019/08/08 05:34:12.000   43.788394136   41.565070776  1166.4189   6   8   0.0206   0.0216   0.0384   0.0087  -0.0114  -0.0171   0.00    0.0
2019/08/08 05:34:42.000   43.788394119   41.565070717  1166.4242   6   8   0.0205   0.0215   0.0384   0.0088  -0.0114  -0.0170   0.00    0.0
2019/08/08 05:35:12.000   43.788394136   41.565070748  1166.4141   6   8   0.0205   0.0215   0.0382   0.0088  -0.0113  -0.0170   0.00    0.0
2019/08/08 05:35:42.000   43.788394120   41.565070774  1166.4057   6   8   0.0204   0.0214   0.0383   0.0089  -0.0111  -0.0169   0.00    0.0
2019/08/08 05:36:12.000   43.788394204   41.565070708  1166.4101   6   8   0.0204   0.0215   0.0382   0.0090  -0.0111  -0.0169   0.00    0.0
2019/08/08 05:36:42.000   43.788394192   41.565070780  1166.4025   6   8   0.0204   0.0215   0.0381   0.0090  -0.0111  -0.0168   0.00    0.0
2019/08/08 05:37:12.000   43.788394392   41.565070888  1166.3618   6   7   0.0359   0.0251   0.0633   0.0187  -0.0242  -0.0422   0.00    0.0
2019/08/08 05:37:42.000   43.788394234   41.565070804  1166.4076   6   8   0.0204   0.0214   0.0379   0.0091  -0.0112  -0.0167   0.00    0.0
2019/08/08 05:38:12.000   43.788394228   41.565070718  1166.4053   6   8   0.0203   0.0213   0.0378   0.0093  -0.0111  -0.0167   0.00    0.0
2019/08/08 05:38:42.000   43.788394238   41.565070771  1166.3964   6   8   0.0203   0.0214   0.0378   0.0093  -0.0112  -0.0166   0.00    0.0
2019/08/08 05:39:12.000   43.788394271   41.565070728  1166.4030   6   8   0.0203   0.0213   0.0377   0.0094  -0.0111  -0.0166   0.00    0.0
2019/08/08 05:39:42.000   43.788394209   41.565070741  1166.4105   6   8   0.0202   0.0213   0.0377   0.0095  -0.0110  -0.0165   0.00    0.0
2019/08/08 05:40:12.000   43.788394220   41.565070736  1166.3975   6   8   0.0202   0.0213   0.0376   0.0095  -0.0110  -0.0165   0.00    0.0
2019/08/08 05:40:42.000   43.788394186   41.565070710  1166.4053   6   8   0.0202   0.0214   0.0375   0.0097  -0.0110  -0.0164   0.00    0.0
2019/08/08 05:41:12.000   43.788394140   41.565070765  1166.4057   6   8   0.0201   0.0214   0.0376   0.0097  -0.0109  -0.0162   0.00    0.0
2019/08/08 05:41:42.000   43.788394128   41.565070749  1166.4018   6   8   0.0201   0.0214   0.0375   0.0098  -0.0109  -0.0162   0.00    0.0
2019/08/08 05:42:12.000   43.788394160   41.565070686  1166.4126   6   8   0.0201   0.0213   0.0374   0.0098  -0.0109  -0.0162   0.00    0.0
2019/08/08 05:42:42.000   43.788394131   41.565070803  1166.3977   6   8   0.0201   0.0213   0.0374   0.0099  -0.0108  -0.0161   0.00    0.0
2019/08/08 05:43:12.000   43.788394206   41.565070748  1166.4149   6   8   0.0201   0.0213   0.0373   0.0100  -0.0108  -0.0160   0.00    0.0
2019/08/08 05:43:42.000   43.788394162   41.565070695  1166.4154   6   8   0.0201   0.0213   0.0373   0.0100  -0.0109  -0.0159   0.00    0.0
2019/08/08 05:44:12.000   43.788394200   41.565070684  1166.4009   6   8   0.0201   0.0213   0.0373   0.0101  -0.0108  -0.0158   0.00    0.0
2019/08/08 05:44:42.000   43.788394215   41.565070683  1166.4010   6   8   0.0201   0.0212   0.0372   0.0101  -0.0108  -0.0158   0.00    0.0
2019/08/08 05:45:12.000   43.788394249   41.565070740  1166.3811   6   8   0.0201   0.0212   0.0372   0.0102  -0.0107  -0.0157   0.00    0.0
2019/08/08 05:45:42.000   43.788394354   41.565070766  1166.3844   6   8   0.0237   0.0239   0.0431   0.0155  -0.0188  -0.0227   0.00    0.0
2019/08/08 05:46:12.000   43.788394282   41.565070734  1166.3846   6   8   0.0201   0.0212   0.0372   0.0103  -0.0107  -0.0155   0.00    0.0
2019/08/08 05:46:42.000   43.788394229   41.565070705  1166.3845   6   8   0.0201   0.0212   0.0371   0.0104  -0.0107  -0.0155   0.00    0.0
2019/08/08 05:47:12.000   43.788394169   41.565070726  1166.3905   6   8   0.0201   0.0213   0.0371   0.0105  -0.0107  -0.0154   0.00    0.0
2019/08/08 05:47:42.000   43.788394221   41.565070659  1166.3789   6   8   0.0201   0.0212   0.0371   0.0105  -0.0106  -0.0153   0.00    0.0
2019/08/08 05:48:12.000   43.788394145   41.565070659  1166.3812   6   8   0.0201   0.0212   0.0371   0.0106  -0.0107  -0.0152   0.00    0.0
2019/08/08 05:48:42.000   43.788394242   41.565070706  1166.4029   6   8   0.0201   0.0211   0.0371   0.0106  -0.0107  -0.0151   0.00    0.0
2019/08/08 05:49:12.000   43.788394171   41.565070587  1166.3836   6   8   0.0201   0.0213   0.0370   0.0108  -0.0106  -0.0150   0.00    0.0
2019/08/08 05:49:42.000   43.788394238   41.565070599  1166.3778   6   8   0.0201   0.0212   0.0371   0.0108  -0.0106  -0.0149   0.00    0.0
2019/08/08 05:50:12.000   43.788394176   41.565070609  1166.3861   6   8   0.0202   0.0212   0.0370   0.0108  -0.0106  -0.0148   0.00    0.0
2019/08/08 05:50:42.000   43.788394184   41.565070632  1166.3879   6   8   0.0202   0.0212   0.0371   0.0109  -0.0105  -0.0147   0.00    0.0
2019/08/08 05:51:12.000   43.788394129   41.565070650  1166.3915   6   8   0.0202   0.0212   0.0371   0.0111  -0.0106  -0.0146   0.00    0.0
2019/08/08 05:51:42.000   43.788394130   41.565070575  1166.3822   6   8   0.0202   0.0211   0.0371   0.0110  -0.0105  -0.0145   0.00    0.0
2019/08/08 05:52:12.000   43.788394280   41.565070710  1166.3588   6   8   0.0231   0.0232   0.0417   0.0150  -0.0170  -0.0205   0.00    0.0
2019/08/08 05:52:42.000   43.788394164   41.565070626  1166.3835   6   8   0.0203   0.0211   0.0371   0.0111  -0.0104  -0.0143   0.00    0.0
2019/08/08 05:53:12.000   43.788394048   41.565070662  1166.3822   6   8   0.0204   0.0212   0.0371   0.0113  -0.0104  -0.0143   0.00    0.0
2019/08/08 05:53:42.000   43.788394106   41.565070649  1166.3972   6   8   0.0204   0.0212   0.0372   0.0113  -0.0104  -0.0141   0.00    0.0
2019/08/08 05:54:12.000   43.788394073   41.565070656  1166.3924   6   8   0.0204   0.0211   0.0372   0.0113  -0.0103  -0.0140   0.00    0.0
2019/08/08 05:54:42.000   43.788394121   41.565070720  1166.3866   6   8   0.0205   0.0211   0.0372   0.0115  -0.0103  -0.0139   0.00    0.0
2019/08/08 05:55:12.000   43.788394194   41.565070643  1166.3967   6   8   0.0205   0.0211   0.0372   0.0115  -0.0102  -0.0138   0.00    0.0
2019/08/08 05:55:42.000   43.788394154   41.565070688  1166.3948   6   8   0.0206   0.0211   0.0373   0.0117  -0.0102  -0.0136   0.00    0.0
2019/08/08 05:56:12.000   43.788394163   41.565070739  1166.3891   6   8   0.0206   0.0211   0.0374   0.0117  -0.0101  -0.0135   0.00    0.0
2019/08/08 05:56:42.000   43.788394160   41.565070723  1166.3996   6   8   0.0207   0.0211   0.0373   0.0117  -0.0101  -0.0133   0.00    0.0
2019/08/08 05:57:12.000   43.788394175   41.565070717  1166.3863   6   8   0.0208   0.0212   0.0374   0.0118  -0.0101  -0.0131   0.00    0.0
2019/08/08 05:57:42.000   43.788394167   41.565070738  1166.4009   6   8   0.0208   0.0212   0.0375   0.0118  -0.0098  -0.0130   0.00    0.0
2019/08/08 05:58:12.000   43.788394182   41.565070660  1166.4130   6   8   0.0209   0.0211   0.0376   0.0120  -0.0099  -0.0128   0.00    0.0
2019/08/08 05:58:42.000   43.788394300   41.565070749  1166.4145   6   8   0.0210   0.0212   0.0377   0.0121  -0.0099  -0.0126   0.00    0.0
2019/08/08 05:59:12.000   43.788394186   41.565070740  1166.4041   6   8   0.0211   0.0212   0.0378   0.0122  -0.0098  -0.0124   0.00    0.0
2019/08/08 05:59:42.000   43.788394278   41.565070736  1166.4014   6   8   0.0213   0.0212   0.0379   0.0123  -0.0096  -0.0121   0.00    0.0
2019/08/08 06:00:12.000   43.788394158   41.565070749  1166.4039   6   8   0.0213   0.0211   0.0380   0.0124  -0.0093  -0.0117   0.00    0.0
2019/08/08 06:00:42.000   43.788394124   41.565070737  1166.4010   6   8   0.0216   0.0212   0.0382   0.0125  -0.0093  -0.0113   0.00    0.0
2019/08/08 06:01:12.000   43.788394165   41.565070752  1166.4107   6   8   0.0219   0.0212   0.0385   0.0127  -0.0090  -0.0105   0.00    0.0
2019/08/08 06:01:42.000   43.788394235   41.565070805  1166.4010   6   8   0.0225   0.0213   0.0392   0.0132  -0.0083  -0.0086   0.00    0.0
2019/08/08 06:02:12.000   43.788394239   41.565070888  1166.4022   6   8   0.0226   0.0213   0.0393   0.0132  -0.0082  -0.0084   0.00    0.0
2019/08/08 06:02:42.000   43.788394267   41.565070836  1166.4005   6   8   0.0226   0.0213   0.0394   0.0133  -0.0081  -0.0082   0.00    0.0
2019/08/08 06:03:12.000   43.788394255   41.565070851  1166.4046   6   8   0.0227   0.0214   0.0395   0.0133  -0.0082  -0.0080   0.00    0.0
2019/08/08 06:03:42.000   43.788394208   41.565070882  1166.3958   6   7   0.0251   0.0217   0.0406   0.0148  -0.0054   0.0062   0.00    0.0
2019/08/08 06:04:12.000   43.788394298   41.565070804  1166.3926   6   7   0.0251   0.0217   0.0407   0.0149  -0.0052   0.0063   0.00    0.0
2019/08/08 06:04:42.000   43.788394223   41.565070804  1166.4043   6   7   0.0252   0.0217   0.0408   0.0150  -0.0053   0.0064   0.00    0.0
2019/08/08 06:05:12.000   43.788394230   41.565070842  1166.3835   6   7   0.0252   0.0217   0.0409   0.0151  -0.0053   0.0066   0.00    0.0
2019/08/08 06:05:42.000   43.788394301   41.565070831  1166.3915   6   7   0.0253   0.0217   0.0410   0.0152  -0.0052   0.0066   0.00    0.0
2019/08/08 06:06:12.000   43.788394260   41.565070894  1166.3976   6   7   0.0253   0.0218   0.0412   0.0153  -0.0053   0.0066   0.00    0.0
2019/08/08 06:06:42.000   43.788394384   41.565070859  1166.3817   6   7   0.0254   0.0218   0.0413   0.0153  -0.0054   0.0066   0.00    0.0
2019/08/08 06:07:12.000   43.788394401   41.565070864  1166.3811   6   7   0.0255   0.0219   0.0414   0.0155  -0.0054   0.0065   0.00    0.0
2019/08/08 06:07:42.000   43.788394371   41.565070836  1166.3814   6   7   0.0256   0.0219   0.0416   0.0156  -0.0058   0.0062   0.00    0.0
2019/08/08 06:08:12.000   43.788394295   41.565070811  1166.3675   6   7   0.0258   0.0220   0.0419   0.0158  -0.0063   0.0056   0.00    0.0
2019/08/08 06:08:42.000   43.788394359   41.565070876  1166.3882   6   7   0.0265   0.0234   0.0469   0.0145   0.0108  -0.0096   0.00    0.0
2019/08/08 06:09:12.000   43.788394395   41.565070779  1166.3538   6   6   0.0278   0.0225   0.0435   0.0173  -0.0097  -0.0081   0.00    0.0
2019/08/08 06:09:42.000   43.788394439   41.565070775  1166.3619   6   6   0.0277   0.0225   0.0436   0.0173  -0.0094  -0.0077   0.00    0.0
2019/08/08 06:10:12.000   43.788394422   41.565070793  1166.3779   6   6   0.0276   0.0225   0.0436   0.0173  -0.0091  -0.0072   0.00    0.0
2019/08/08 06:10:42.000   43.788394409   41.565070785  1166.3626   6   6   0.0276   0.0224   0.0436   0.0172  -0.0088  -0.0067   0.00    0.0
2019/08/08 06:11:12.000   43.788394376   41.565070715  1166.3672   6   6   0.0275   0.0224   0.0437   0.0171  -0.0085  -0.0061   0.00    0.0
2019/08/08 06:11:42.000   43.788394354   41.565070694  1166.3576   6   6   0.0274   0.0224   0.0438   0.0171  -0.0083  -0.0055   0.00    0.0
2019/08/08 06:12:12.000   43.788394271   41.565070719  1166.3569   6   6   0.0274   0.0224   0.0438   0.0171  -0.0079  -0.0048   0.00    0.0
2019/08/08 06:12:42.000   43.788394271   41.565070675  1166.3704   6   6   0.0273   0.0223   0.0439   0.0170  -0.0076  -0.0040   0.00    0.0
2019/08/08 06:13:12.000   43.788394252   41.565070668  1166.3579   6   6   0.0272   0.0222   0.0440   0.0169  -0.0074  -0.0030   0.00    0.0
2019/08/08 06:13:42.000   43.788394283   41.565070688  1166.3672   6   6   0.0272   0.0222   0.0440   0.0169  -0.0071  -0.0014   0.00    0.0
2019/08/08 06:14:12.000   43.788394299   41.565070645  1166.3513   6   6   0.0271   0.0221   0.0441   0.0169  -0.0067   0.0019   0.00    0.0
2019/08/08 06:14:42.000   43.788394318   41.565070701  1166.3563   6   6   0.0271   0.0222   0.0442   0.0168  -0.0064   0.0033   0.00    0.0
2019/08/08 06:15:12.000   43.788394342   41.565070677  1166.3620   6   6   0.0270   0.0221   0.0443   0.0167  -0.0060   0.0043   0.00    0.0
2019/08/08 06:15:42.000   43.788394274   41.565070696  1166.3585   6   6   0.0269   0.0221   0.0443   0.0167  -0.0056   0.0050   0.00    0.0
2019/08/08 06:16:12.000   43.788394259   41.565070655  1166.3666   6   6   0.0268   0.0220   0.0444   0.0167  -0.0053   0.0055   0.00    0.0
2019/08/08 06:16:42.000   43.788394245   41.565070649  1166.3633   6   6   0.0267   0.0220   0.0445   0.0166  -0.0048   0.0061   0.00    0.0
2019/08/08 06:17:12.000   43.788394273   41.565070682  1166.3717   6   6   0.0267   0.0220   0.0446   0.0165  -0.0044   0.0065   0.00    0.0
2019/08/08 06:17:42.000   43.788394258   41.565070708  1166.3741   6   6   0.0266   0.0220   0.0446   0.0165  -0.0039   0.0070   0.00    0.0
2019/08/08 06:18:12.000   43.788394252   41.565070714  1166.3752   6   6   0.0265   0.0219   0.0447   0.0164  -0.0034   0.0075   0.00    0.0
2019/08/08 06:18:42.000   43.788394257   41.565070742  1166.3799   6   6   0.0265   0.0219   0.0448   0.0163  -0.0028   0.0078   0.00    0.0
2019/08/08 06:19:12.000   43.788394260   41.565070729  1166.3842   6   6   0.0264   0.0219   0.0448   0.0163  -0.0020   0.0082   0.00    0.0
2019/08/08 06:19:42.000   43.788394260   41.565070744  1166.3850   6   6   0.0263   0.0218   0.0449   0.0163   0.0010   0.0085   0.00    0.0
2019/08/08 06:20:12.000   43.788394346   41.565070794  1166.3957   6   6   0.0262   0.0218   0.0450   0.0162   0.0017   0.0089   0.00    0.0
2019/08/08 06:20:42.000   43.788394299   41.565070767  1166.3946   6   6   0.0261   0.0217   0.0450   0.0161   0.0027   0.0092   0.00    0.0
2019/08/08 06:21:12.000   43.788394220   41.565070688  1166.3773   6   6   0.0261   0.0217   0.0451   0.0160   0.0032   0.0094   0.00    0.0
2019/08/08 06:21:42.000   43.788394255   41.565070711  1166.3892   6   6   0.0260   0.0217   0.0452   0.0159   0.0037   0.0097   0.00    0.0
2019/08/08 06:22:12.000   43.788394205   41.565070722  1166.3890   6   6   0.0259   0.0216   0.0452   0.0159   0.0041   0.0100   0.00    0.0
2019/08/08 06:22:42.000   43.788394199   41.565070770  1166.3961   6   6   0.0258   0.0216   0.0453   0.0158   0.0045   0.0102   0.00    0.0
2019/08/08 06:23:12.000   43.788394192   41.565070791  1166.4027   6   6   0.0257   0.0216   0.0454   0.0158   0.0049   0.0105   0.00    0.0
2019/08/08 06:23:42.000   43.788394219   41.565070769  1166.3928   6   6   0.0256   0.0215   0.0454   0.0157   0.0053   0.0107   0.00    0.0
2019/08/08 06:24:12.000   43.788394263   41.565070816  1166.3912   6   6   0.0256   0.0215   0.0455   0.0156   0.0055   0.0109   0.00    0.0
2019/08/08 06:24:42.000   43.788394250   41.565070829  1166.3843   6   6   0.0255   0.0214   0.0456   0.0155   0.0058   0.0111   0.00    0.0
2019/08/08 06:25:12.000   43.788394240   41.565070871  1166.3979   6   6   0.0254   0.0214   0.0456   0.0155   0.0059   0.0113   0.00    0.0
2019/08/08 06:25:42.000   43.788394167   41.565070783  1166.3839   6   6   0.0253   0.0214   0.0456   0.0154   0.0062   0.0115   0.00    0.0
2019/08/08 06:26:12.000   43.788394137   41.565070757  1166.3811   6   6   0.0252   0.0213   0.0457   0.0153   0.0064   0.0116   0.00    0.0
2019/08/08 06:26:42.000   43.788394115   41.565070728  1166.3692   6   6   0.0251   0.0213   0.0457   0.0152   0.0066   0.0118   0.00    0.0
2019/08/08 06:27:12.000   43.788394144   41.565070763  1166.3709   6   6   0.0251   0.0213   0.0458   0.0151   0.0068   0.0119   0.00    0.0
2019/08/08 06:27:42.000   43.788394180   41.565070804  1166.3756   6   6   0.0229   0.0203   0.0431   0.0129  -0.0070  -0.0030   0.00    0.0
2019/08/08 06:28:12.000   43.788394207   41.565070827  1166.3741   6   7   0.0228   0.0203   0.0431   0.0128  -0.0070  -0.0030   0.00    0.0
2019/08/08 06:28:42.000   43.788394224   41.565070844  1166.3858   6   7   0.0221   0.0200   0.0424   0.0121  -0.0084  -0.0070   0.00    0.0
2019/08/08 06:29:12.000   43.788394206   41.565070808  1166.3746   6   7   0.0217   0.0199   0.0421   0.0117  -0.0089  -0.0081   0.00    0.0
2019/08/08 06:29:42.000   43.788394232   41.565070793  1166.3696   6   7   0.0215   0.0198   0.0419   0.0114  -0.0092  -0.0087   0.00    0.0
2019/08/08 06:30:12.000   43.788394240   41.565070831  1166.3732   6   7   0.0213   0.0197   0.0418   0.0113  -0.0094  -0.0091   0.00    0.0
2019/08/08 06:30:42.000   43.788394191   41.565070778  1166.3661   6   7   0.0211   0.0197   0.0416   0.0110  -0.0096  -0.0093   0.00    0.0
2019/08/08 06:31:12.000   43.788394297   41.565070840  1166.3805   6   7   0.0209   0.0196   0.0415   0.0109  -0.0097  -0.0095   0.00    0.0
2019/08/08 06:31:42.000   43.788394266   41.565070799  1166.3705   6   7   0.0208   0.0195   0.0414   0.0107  -0.0098  -0.0097   0.00    0.0
2019/08/08 06:32:12.000   43.788394318   41.565070796  1166.3747   6   7   0.0206   0.0195   0.0413   0.0105  -0.0100  -0.0099   0.00    0.0
2019/08/08 06:32:42.000   43.788394252   41.565070806  1166.3712   6   7   0.0205   0.0195   0.0412   0.0103  -0.0101  -0.0100   0.00    0.0
2019/08/08 06:33:12.000   43.788394300   41.565070760  1166.3714   6   7   0.0204   0.0194   0.0412   0.0101  -0.0102  -0.0101   0.00    0.0
2019/08/08 06:33:42.000   43.788394246   41.565070762  1166.3732   6   7   0.0203   0.0194   0.0411   0.0100  -0.0102  -0.0102   0.00    0.0
2019/08/08 06:34:12.000   43.788394209   41.565070765  1166.3619   6   6   0.0238   0.0208   0.0462   0.0140   0.0078   0.0129   0.00    0.0
2019/08/08 06:34:42.000   43.788394190   41.565070749  1166.3578   6   7   0.0201   0.0192   0.0408   0.0098  -0.0103  -0.0104   0.00    0.0
2019/08/08 06:35:12.000   43.788394229   41.565070770  1166.3600   6   7   0.0200   0.0191   0.0407   0.0096  -0.0103  -0.0104   0.00    0.0
2019/08/08 06:35:42.000   43.788394226   41.565070756  1166.3584   6   7   0.0199   0.0192   0.0406   0.0095  -0.0104  -0.0105   0.00    0.0
2019/08/08 06:36:12.000   43.788394211   41.565070798  1166.3728   6   7   0.0197   0.0191   0.0406   0.0094  -0.0104  -0.0105   0.00    0.0
2019/08/08 06:36:42.000   43.788394169   41.565070685  1166.3505   6   7   0.0197   0.0191   0.0404   0.0093  -0.0105  -0.0106   0.00    0.0
2019/08/08 06:37:12.000   43.788394214   41.565070714  1166.3666   6   7   0.0196   0.0191   0.0404   0.0090  -0.0105  -0.0106   0.00    0.0
2019/08/08 06:37:42.000   43.788394247   41.565070656  1166.3604   6   7   0.0195   0.0190   0.0403   0.0091  -0.0105  -0.0108   0.00    0.0
2019/08/08 06:38:12.000   43.788394278   41.565070681  1166.3556   6   7   0.0194   0.0190   0.0402   0.0089  -0.0106  -0.0107   0.00    0.0
2019/08/08 06:38:42.000   43.788394345   41.565070714  1166.3659   6   7   0.0193   0.0189   0.0401   0.0087  -0.0106  -0.0108   0.00    0.0
2019/08/08 06:39:12.000   43.788394240   41.565070632  1166.3436   6   7   0.0192   0.0189   0.0400   0.0086  -0.0106  -0.0108   0.00    0.0
2019/08/08 06:39:42.000   43.788394222   41.565070639  1166.3414   6   7   0.0191   0.0189   0.0399   0.0084  -0.0106  -0.0108   0.00    0.0
2019/08/08 06:40:12.000   43.788394248   41.565070636  1166.3424   6   7   0.0190   0.0188   0.0398   0.0084  -0.0107  -0.0108   0.00    0.0
2019/08/08 06:40:42.000   43.788394207   41.565070645  1166.3428   6   7   0.0190   0.0188   0.0397   0.0082  -0.0106  -0.0109   0.00    0.0
2019/08/08 06:41:12.000   43.788394260   41.565070687  1166.3453   6   7   0.0189   0.0187   0.0397   0.0081  -0.0107  -0.0109   0.00    0.0
2019/08/08 06:41:42.000   43.788394244   41.565070672  1166.3356   6   7   0.0188   0.0188   0.0396   0.0079  -0.0107  -0.0109   0.00    0.0
2019/08/08 06:42:12.000   43.788394289   41.565070729  1166.3419   6   7   0.0187   0.0187   0.0395   0.0077  -0.0107  -0.0109   0.00    0.0
2019/08/08 06:42:42.000   43.788394184   41.565070660  1166.3395   6   7   0.0186   0.0186   0.0394   0.0077  -0.0106  -0.0109   0.00    0.0
2019/08/08 06:43:12.000   43.788394259   41.565070692  1166.3454   6   7   0.0186   0.0186   0.0393   0.0076  -0.0106  -0.0109   0.00    0.0
2019/08/08 06:43:42.000   43.788394284   41.565070777  1166.3589   6   7   0.0186   0.0186   0.0392   0.0074  -0.0106  -0.0110   0.00    0.0
2019/08/08 06:44:12.000   43.788394218   41.565070698  1166.3482   6   7   0.0184   0.0185   0.0391   0.0073  -0.0106  -0.0110   0.00    0.0
2019/08/08 06:44:42.000   43.788394279   41.565070740  1166.3519   6   7   0.0184   0.0185   0.0391   0.0072  -0.0107  -0.0109   0.00    0.0
2019/08/08 06:45:12.000   43.788394306   41.565070745  1166.3510   6   7   0.0183   0.0185   0.0390   0.0070  -0.0106  -0.0109   0.00    0.0
2019/08/08 06:45:42.000   43.788394265   41.565070734  1166.3529   6   7   0.0183   0.0185   0.0389   0.0069  -0.0106  -0.0110   0.00    0.0
2019/08/08 06:46:12.000   43.788394327   41.565070705  1166.3515   6   7   0.0182   0.0184   0.0388   0.0068  -0.0106  -0.0110   0.00    0.0
2019/08/08 06:46:42.000   43.788394330   41.565070733  1166.3655   6   7   0.0181   0.0183   0.0387   0.0066  -0.0106  -0.0109   0.00    0.0
2019/08/08 06:47:12.000   43.788394312   41.565070649  1166.3578   6   7   0.0181   0.0184   0.0387   0.0064  -0.0106  -0.0109   0.00    0.0
2019/08/08 06:47:42.000   43.788394297   41.565070697  1166.3620   6   7   0.0180   0.0183   0.0386   0.0064  -0.0105  -0.0109   0.00    0.0
2019/08/08 06:48:12.000   43.788394351   41.565070720  1166.3648   6   7   0.0180   0.0183   0.0385   0.0062  -0.0105  -0.0109   0.00    0.0
2019/08/08 06:48:42.000   43.788394306   41.565070698  1166.3547   6   7   0.0180   0.0183   0.0384   0.0060  -0.0105  -0.0109   0.00    0.0
2019/08/08 06:49:12.000   43.788394361   41.565070752  1166.3649   6   7   0.0179   0.0182   0.0383   0.0060  -0.0104  -0.0109   0.00    0.0
2019/08/08 06:49:42.000   43.788394348   41.565070711  1166.3560   6   7   0.0178   0.0182   0.0383   0.0058  -0.0104  -0.0109   0.00    0.0
2019/08/08 06:50:12.000   43.788394377   41.565070683  1166.3504   6   7   0.0178   0.0182   0.0382   0.0057  -0.0104  -0.0108   0.00    0.0
2019/08/08 06:50:42.000   43.788394358   41.565070668  1166.3554   6   7   0.0178   0.0182   0.0381   0.0055  -0.0103  -0.0108   0.00    0.0
2019/08/08 06:51:12.000   43.788394404   41.565070635  1166.3442   6   7   0.0177   0.0181   0.0381   0.0054  -0.0102  -0.0108   0.00    0.0
2019/08/08 06:51:42.000   43.788394322   41.565070585  1166.3360   6   7   0.0177   0.0181   0.0380   0.0052  -0.0102  -0.0108   0.00    0.0
2019/08/08 06:52:12.000   43.788394374   41.565070576  1166.3329   6   7   0.0176   0.0181   0.0379   0.0051  -0.0102  -0.0108   0.00    0.0
2019/08/08 06:52:42.000   43.788394382   41.565070544  1166.3318   6   7   0.0176   0.0181   0.0379   0.0048  -0.0102  -0.0107   0.00    0.0
2019/08/08 06:53:12.000   43.788394307   41.565070589  1166.3387   6   7   0.0175   0.0181   0.0378   0.0048  -0.0102  -0.0107   0.00    0.0
2019/08/08 06:53:42.000   43.788394280   41.565070530  1166.3342   6   7   0.0175   0.0180   0.0377   0.0047  -0.0100  -0.0107   0.00    0.0
2019/08/08 06:54:12.000   43.788394230   41.565070522  1166.3419   6   7   0.0175   0.0180   0.0377   0.0045  -0.0100  -0.0107   0.00    0.0
2019/08/08 06:54:42.000   43.788394247   41.565070540  1166.3444   6   7   0.0175   0.0180   0.0376   0.0044  -0.0099  -0.0107   0.00    0.0
2019/08/08 06:55:12.000   43.788394319   41.565070571  1166.3519   6   7   0.0174   0.0179   0.0376   0.0042  -0.0099  -0.0106   0.00    0.0
2019/08/08 06:55:42.000   43.788394255   41.565070547  1166.3481   6   7   0.0174   0.0179   0.0375   0.0041  -0.0099  -0.0106   0.00    0.0
2019/08/08 06:56:12.000   43.788394294   41.565070583  1166.3465   6   7   0.0173   0.0179   0.0375   0.0040  -0.0098  -0.0105   0.00    0.0
2019/08/08 06:56:42.000   43.788394272   41.565070629  1166.3459   6   7   0.0173   0.0178   0.0374   0.0037  -0.0098  -0.0106   0.00    0.0
2019/08/08 06:57:12.000   43.788394274   41.565070599  1166.3422   6   7   0.0173   0.0178   0.0374   0.0034  -0.0097  -0.0105   0.00    0.0
2019/08/08 06:57:42.000   43.788394243   41.565070580  1166.3416   6   7   0.0172   0.0177   0.0373   0.0033  -0.0096  -0.0104   0.00    0.0
2019/08/08 06:58:12.000   43.788394283   41.565070652  1166.3446   6   7   0.0172   0.0177   0.0373   0.0032  -0.0096  -0.0104   0.00    0.0
2019/08/08 06:58:42.000   43.788394294   41.565070616  1166.3360   6   7   0.0168   0.0176   0.0365   0.0041  -0.0105  -0.0090   0.00    0.0
2019/08/08 06:59:12.000   43.788394292   41.565070628  1166.3465   6   7   0.0168   0.0176   0.0365   0.0040  -0.0105  -0.0089   0.00    0.0
2019/08/08 06:59:42.000   43.788394270   41.565070614  1166.3407   6   8   0.0167   0.0176   0.0365   0.0040  -0.0104  -0.0089   0.00    0.0
2019/08/08 07:00:12.000   43.788394227   41.565070625  1166.3469   6   8   0.0165   0.0175   0.0359   0.0040  -0.0105  -0.0079   0.00    0.0
2019/08/08 07:00:42.000   43.788394208   41.565070613  1166.3413   6   8   0.0164   0.0175   0.0357   0.0038  -0.0106  -0.0074   0.00    0.0
2019/08/08 07:01:12.000   43.788394274   41.565070615  1166.3322   6   8   0.0163   0.0174   0.0355   0.0039  -0.0106  -0.0072   0.00    0.0
2019/08/08 07:01:42.000   43.788394275   41.565070616  1166.3385   6   8   0.0163   0.0173   0.0354   0.0038  -0.0106  -0.0070   0.00    0.0
2019/08/08 07:02:12.000   43.788394232   41.565070608  1166.3356   6   8   0.0162   0.0173   0.0354   0.0035  -0.0106  -0.0068   0.00    0.0
2019/08/08 07:02:42.000   43.788394278   41.565070619  1166.3329   6   8   0.0166   0.0175   0.0359   0.0018  -0.0097  -0.0083   0.00    0.0
2019/08/08 07:03:12.000   43.788394249   41.565070580  1166.3270   6   8   0.0161   0.0173   0.0352   0.0034  -0.0106  -0.0063   0.00    0.0
2019/08/08 07:03:42.000   43.788394293   41.565070607  1166.3204   6   8   0.0161   0.0173   0.0351   0.0033  -0.0106  -0.0061   0.00    0.0
2019/08/08 07:04:12.000   43.788394289   41.565070618  1166.3227   6   8   0.0161   0.0172   0.0351   0.0030  -0.0106  -0.0060   0.00    0.0
2019/08/08 07:04:42.000   43.788394284   41.565070567  1166.3123   6   7   0.0170   0.0175   0.0370  -0.0027  -0.0091  -0.0100   0.00    0.0
2019/08/08 07:05:12.000   43.788394315   41.565070619  1166.3190   6   8   0.0160   0.0172   0.0349   0.0031  -0.0105  -0.0057   0.00    0.0
2019/08/08 07:05:42.000   43.788394394   41.565070649  1166.3232   6   8   0.0159   0.0172   0.0349   0.0027  -0.0105  -0.0054   0.00    0.0
2019/08/08 07:06:12.000   43.788394328   41.565070632  1166.3242   6   8   0.0159   0.0172   0.0348   0.0025  -0.0105  -0.0053   0.00    0.0
2019/08/08 07:06:42.000   43.788394313   41.565070569  1166.3096   6   8   0.0159   0.0171   0.0348   0.0027  -0.0106  -0.0052   0.00    0.0
2019/08/08 07:07:12.000   43.788394305   41.565070584  1166.3168   6   8   0.0158   0.0170   0.0348   0.0023  -0.0106  -0.0051   0.00    0.0
2019/08/08 07:07:42.000   43.788394328   41.565070590  1166.3193   6   7   0.0169   0.0174   0.0368  -0.0037  -0.0088  -0.0098   0.00    0.0
2019/08/08 07:08:12.000   43.788394360   41.565070596  1166.3222   6   8   0.0158   0.0170   0.0347   0.0021  -0.0105  -0.0046   0.00    0.0
2019/08/08 07:08:42.000   43.788394345   41.565070653  1166.3258   6   8   0.0158   0.0171   0.0347   0.0020  -0.0104  -0.0044   0.00    0.0
2019/08/08 07:09:12.000   43.788394357   41.565070656  1166.3306   6   8   0.0157   0.0170   0.0347   0.0018  -0.0104  -0.0044   0.00    0.0
2019/08/08 07:09:42.000   43.788394313   41.565070665  1166.3306   6   8   0.0157   0.0170   0.0347   0.0010  -0.0105  -0.0041   0.00    0.0
2019/08/08 07:10:12.000   43.788394332   41.565070657  1166.3242   6   8   0.0157   0.0169   0.0346   0.0006  -0.0105  -0.0040   0.00    0.0
2019/08/08 07:10:42.000   43.788394330   41.565070640  1166.3231   6   8   0.0156   0.0169   0.0346   0.0013  -0.0105  -0.0035   0.00    0.0
2019/08/08 07:11:12.000   43.788394327   41.565070643  1166.3143   6   8   0.0156   0.0169   0.0346   0.0014  -0.0104  -0.0035   0.00    0.0
2019/08/08 07:11:42.000   43.788394380   41.565070699  1166.3120   6   8   0.0156   0.0168   0.0346  -0.0010  -0.0104  -0.0033   0.00    0.0
2019/08/08 07:12:12.000   43.788394298   41.565070643  1166.3147   6   8   0.0162   0.0171   0.0352  -0.0039  -0.0093  -0.0064   0.00    0.0
2019/08/08 07:12:42.000   43.788394290   41.565070700  1166.3138   6   8   0.0162   0.0170   0.0352  -0.0041  -0.0094  -0.0064   0.00    0.0
2019/08/08 07:13:12.000   43.788394355   41.565070620  1166.3170   6   8   0.0155   0.0168   0.0345  -0.0010  -0.0104  -0.0022   0.00    0.0
2019/08/08 07:13:42.000   43.788394331   41.565070686  1166.3161   6   8   0.0155   0.0168   0.0345  -0.0017  -0.0104  -0.0022   0.00    0.0
2019/08/08 07:14:12.000   43.788394378   41.565070688  1166.3133   6   8   0.0155   0.0168   0.0345  -0.0017  -0.0103  -0.0018   0.00    0.0
2019/08/08 07:14:42.000   43.788394321   41.565070637  1166.3183   6   8   0.0155   0.0167   0.0346  -0.0020  -0.0103  -0.0017   0.00    0.0
2019/08/08 07:15:12.000   43.788394396   41.565070692  1166.3193   6   8   0.0154   0.0166   0.0345  -0.0021  -0.0104  -0.0016   0.00    0.0
2019/08/08 07:15:42.000   43.788394389   41.565070615  1166.3200   6   8   0.0154   0.0166   0.0346  -0.0024  -0.0104  -0.0007   0.00    0.0
2019/08/08 07:16:12.000   43.788394331   41.565070636  1166.3035   6   8   0.0154   0.0167   0.0345  -0.0023  -0.0103   0.0004   0.00    0.0
2019/08/08 07:16:42.000   43.788394405   41.565070606  1166.3061   6   8   0.0154   0.0167   0.0345  -0.0024  -0.0104   0.0012   0.00    0.0
2019/08/08 07:17:12.000   43.788394390   41.565070613  1166.3131   6   8   0.0154   0.0166   0.0346  -0.0026  -0.0104   0.0012   0.00    0.0
2019/08/08 07:17:42.000   43.788394335   41.565070561  1166.3101   6   8   0.0153   0.0166   0.0347  -0.0026  -0.0104   0.0022   0.00    0.0
2019/08/08 07:18:12.000   43.788394356   41.565070592  1166.3095   6   8   0.0153   0.0165   0.0346  -0.0029  -0.0103   0.0021   0.00    0.0
2019/08/08 07:18:42.000   43.788394348   41.565070567  1166.3142   6   8   0.0153   0.0166   0.0346  -0.0029  -0.0102   0.0024   0.00    0.0
2019/08/08 07:19:12.000   43.788394326   41.565070539  1166.3126   6   8   0.0153   0.0165   0.0346  -0.0028  -0.0102   0.0031   0.00    0.0
2019/08/08 07:19:42.000   43.788394289   41.565070540  1166.3051   6   8   0.0162   0.0169   0.0354  -0.0051  -0.0090  -0.0051   0.00    0.0
2019/08/08 07:20:12.000   43.788394387   41.565070540  1166.3072   6   8   0.0153   0.0166   0.0347  -0.0029  -0.0102   0.0031   0.00    0.0
2019/08/08 07:20:42.000   43.788394293   41.565070530  1166.3115   6   8   0.0153   0.0165   0.0347  -0.0031  -0.0103   0.0033   0.00    0.0
2019/08/08 07:21:12.000   43.788394293   41.565070535  1166.3047   6   8   0.0152   0.0164   0.0349  -0.0034  -0.0104   0.0031   0.00    0.0
2019/08/08 07:21:42.000   43.788394295   41.565070548  1166.3096   6   8   0.0152   0.0164   0.0348  -0.0034  -0.0103   0.0032   0.00    0.0
2019/08/08 07:22:12.000   43.788394244   41.565070532  1166.3071   6   8   0.0152   0.0164   0.0349  -0.0035  -0.0103   0.0035   0.00    0.0
2019/08/08 07:22:42.000   43.788394263   41.565070565  1166.3049   6   8   0.0161   0.0167   0.0356  -0.0056  -0.0091  -0.0049   0.00    0.0
2019/08/08 07:23:12.000   43.788394250   41.565070552  1166.3049   6   8   0.0152   0.0165   0.0350  -0.0034  -0.0103   0.0039   0.00    0.0
2019/08/08 07:23:42.000   43.788394264   41.565070558  1166.3042   6   8   0.0152   0.0164   0.0350  -0.0035  -0.0103   0.0040   0.00    0.0
2019/08/08 07:24:12.000   43.788394354   41.565070561  1166.3056   6   8   0.0152   0.0163   0.0351  -0.0038  -0.0104   0.0037   0.00    0.0
2019/08/08 07:24:42.000   43.788394315   41.565070587  1166.3021   6   8   0.0152   0.0163   0.0352  -0.0038  -0.0104   0.0040   0.00    0.0
